[{"id":"202465100000101389","name":"올레13코스","lat":33.324957,"lng":126.194385,"roadAddr":"제주특별자치도 제주시 한경면 신정로 124-2","openHours":"상시","maleToilets":3,"femaleToilets":3,"disabled":true,"diaperTable":false,"emergencyBell":true,"cctv":false,"managerTel":"0647287954","source":"public","category":"public"},{"id":"202465100000101385","name":"용수충혼묘지","lat":33.321836,"lng":126.178068,"jibunAddr":"제주특별자치도 제주시 한경면 용수리 3043","openHours":"상시","maleToilets":1,"femaleToilets":1,"disabled":false,"diaperTable":false,"emergencyBell":false,"cctv":false,"managerTel":"0647287954","source":"public","category":"public"},{"id":"202465100000101377","name":"신창싱계물","lat":33.342812,"lng":126.174463,"jibunAddr":"제주특별자치도 제주시 한경면 신창리 1321-2","openHours":"상시","maleToilets":5,"femaleToilets":4,"disabled":true,"diaperTable":false,"emergencyBell":true,"cctv":false,"managerTel":"0647287954","source":"public","category":"public"},{"id":"202465100000101637","name":"한경면","lat":33.350111,"lng":126.184105,"roadAddr":"제주특별자치도 제주시 두신로 84","openHours":"09:00~18:00","maleToilets":6,"femaleToilets":4,"disabled":true,"diaperTable":false,"emergencyBell":true,"cctv":false,"source":"public","category":"public"},{"id":"202665100000100032","name":"한경도서관","lat":33.350111,"lng":126.184105,"roadAddr":"제주특별자치도 제주시 한경면 두신로 84, 한경면사무소","jibunAddr":"제주특별자치도 제주시 한경면 신창리 247 한경면사무소","openHours":"(평일)08:00~23:00","maleToilets":15,"femaleToilets":8,"disabled":true,"diaperTable":false,"emergencyBell":false,"cctv":false,"source":"public","category":"public"},{"id":"202465100000101624","name":"한경보건지소","lat":33.352764,"lng":126.185182,"roadAddr":"제주특별자치도 제주시 두신로 118-2","openHours":"09:00~18:00","maleToilets":4,"femaleToilets":2,"disabled":true,"diaperTable":false,"emergencyBell":false,"cctv":false,"source":"public","category":"public"}]