[{"id":"202465100000101638","name":"한경면 종합복지회관(이동민원실)","lat":33.300476,"lng":126.183708,"roadAddr":"제주특별자치도 제주시 칠전로 37","openHours":"정시","maleToilets":6,"femaleToilets":9,"disabled":true,"diaperTable":false,"emergencyBell":true,"cctv":false,"source":"public","category":"public"},{"id":"202465100000101639","name":"한경체육관","lat":33.30152,"lng":126.184508,"roadAddr":"제주특별자치도 제주시 칠전로 41","openHours":"정시","maleToilets":5,"femaleToilets":4,"disabled":true,"diaperTable":false,"emergencyBell":true,"cctv":false,"source":"public","category":"public"},{"id":"202465100000101373","name":"고산엉알","lat":33.300268,"lng":126.16762,"roadAddr":"제주특별자치도 제주시 노을해안로 1032-20","jibunAddr":"제주특별자치도 제주시 한경면 고산리  3653-3","openHours":"상시","maleToilets":2,"femaleToilets":2,"disabled":false,"diaperTable":false,"emergencyBell":true,"cctv":false,"managerTel":"0647287954","source":"public","category":"public"},{"id":"202465200000100433","name":"신도리어촌계식당","lat":33.276494,"lng":126.171043,"roadAddr":"제주특별자치도 서귀포시 대정읍 노을해안로 724","openHours":"상시","maleToilets":2,"femaleToilets":2,"disabled":false,"diaperTable":false,"emergencyBell":false,"cctv":false,"managerTel":"0647606535","source":"public","category":"public"},{"id":"202465200000100555","name":"무릉문화의집","lat":33.27346,"lng":126.198956,"roadAddr":"제주특별자치도 서귀포시 대정읍 서삼중로 128","openHours":"정시","maleToilets":5,"femaleToilets":4,"disabled":false,"diaperTable":false,"emergencyBell":true,"cctv":false,"managerTel":"0647604012","source":"public","category":"public"},{"id":"202465200000100365","name":"노을과어울림(구 도원횟집)","lat":33.270738,"lng":126.175936,"roadAddr":"제주특별자치도 서귀포시 대정읍 노을해안로 638","openHours":"상시","maleToilets":1,"femaleToilets":0,"disabled":false,"diaperTable":false,"emergencyBell":false,"cctv":false,"managerTel":"0647603943","source":"public","category":"public"},{"id":"202465200000100328","name":"신도연못 옆","lat":33.280554,"lng":126.177958,"roadAddr":"제주특별자치도 서귀포시 대정읍 신도리3138","openHours":"상시","maleToilets":2,"femaleToilets":2,"disabled":false,"diaperTable":false,"emergencyBell":true,"cctv":false,"managerTel":"0647603943","source":"public","category":"public"},{"id":"202465200000100538","name":"신도보건진료소","lat":33.277486,"lng":126.174263,"roadAddr":"제주특별자치도 서귀포시 대정읍 도원로 37","openHours":"정시","maleToilets":0,"femaleToilets":1,"disabled":true,"diaperTable":true,"emergencyBell":false,"cctv":false,"managerTel":"0647606386","source":"public","category":"public"}]