[{"id":"202465200000100457","name":"군산","lat":33.253875,"lng":126.375266,"roadAddr":"제주특별자치도 서귀포시 상예동 산 4","openHours":"상시","maleToilets":2,"femaleToilets":2,"disabled":false,"diaperTable":false,"emergencyBell":false,"cctv":false,"managerTel":"0647606535","source":"public","category":"public"},{"id":"202465200000100597","name":"대평버스정류소","lat":33.235198,"lng":126.367139,"roadAddr":"제주특별자치도 안덕면 대평감산로 4","openHours":"상시","maleToilets":2,"femaleToilets":1,"disabled":false,"diaperTable":false,"emergencyBell":true,"cctv":false,"managerTel":"0647604363","source":"public","category":"public"},{"id":"202465200000100601","name":"창천리 남당물","lat":33.260331,"lng":126.363748,"roadAddr":"제주특별자치도 안덕면 일주서로 1407-12","openHours":"상시","maleToilets":1,"femaleToilets":1,"disabled":false,"diaperTable":true,"emergencyBell":true,"cctv":false,"managerTel":"0647604363","source":"public","category":"public"},{"id":"202465200000100593","name":"안덕계곡","lat":33.258246,"lng":126.353949,"roadAddr":"제주특별자치도 안덕면 일주서로 1519","openHours":"상시","maleToilets":6,"femaleToilets":5,"disabled":false,"diaperTable":false,"emergencyBell":true,"cctv":false,"managerTel":"0647604363","source":"public","category":"public"},{"id":"202465200000100546","name":"대평보건진료소","lat":33.236323,"lng":126.366314,"roadAddr":"제주특별자치도 서귀포시 안덕면 대평 감산로 19","openHours":"09:00~18:00","maleToilets":2,"femaleToilets":1,"disabled":false,"diaperTable":false,"emergencyBell":false,"cctv":false,"managerTel":"0647606394","source":"public","category":"public"},{"id":"202465200000100327","name":"황개천 옆","lat":33.239374,"lng":126.344406,"roadAddr":"제주특별자치도 서귀포시 안덕면 감산리1903","openHours":"상시","maleToilets":2,"femaleToilets":2,"disabled":false,"diaperTable":false,"emergencyBell":true,"cctv":false,"managerTel":"0647603943","source":"public","category":"public"},{"id":"202465200000100599","name":"대평포구","lat":33.237405,"lng":126.361508,"roadAddr":"제주특별자치도 안덕면 난드르로 82","openHours":"상시","maleToilets":5,"femaleToilets":5,"disabled":false,"diaperTable":false,"emergencyBell":true,"cctv":false,"managerTel":"0647604363","source":"public","category":"public"}]