[{"id":"202465200000100645","name":"대포항 공용화장실","lat":33.238314,"lng":126.439445,"roadAddr":"제주특별자치도 서귀포시 대포로 172-9","openHours":"상시","maleToilets":4,"femaleToilets":3,"disabled":false,"diaperTable":true,"emergencyBell":true,"cctv":false,"managerTel":"0647604816","source":"public","category":"public"},{"id":"202465200000100376","name":"국민체육센터","lat":33.250947,"lng":126.432152,"roadAddr":"제주특별자치도 서귀포시 중문관광로 346 (중문동)","openHours":"06:00~22:00","maleToilets":32,"femaleToilets":15,"disabled":false,"diaperTable":false,"emergencyBell":true,"cctv":false,"managerTel":"0647393623","source":"public","category":"public"},{"id":"202465200000100356","name":"대포 해송횟집","lat":33.239029,"lng":126.442731,"roadAddr":"제주특별자치도 서귀포시 이어도로 200-7(대포동)","openHours":"11:00~18:00","maleToilets":3,"femaleToilets":1,"disabled":false,"diaperTable":false,"emergencyBell":false,"cctv":false,"managerTel":"0647603943","source":"public","category":"public"},{"id":"202465200000100441","name":"선궷네","lat":33.242939,"lng":126.447428,"roadAddr":"제주특별자치도 서귀포시 대포동 1213","openHours":"상시","maleToilets":2,"femaleToilets":1,"disabled":false,"diaperTable":false,"emergencyBell":true,"cctv":false,"managerTel":"0647603943","source":"public","category":"public"},{"id":"202465200000100324","name":"월평아왜낭목","lat":33.243387,"lng":126.45912,"roadAddr":"제주특별자치도 서귀포시 월평동 513-1","openHours":"상시","maleToilets":2,"femaleToilets":2,"disabled":true,"diaperTable":false,"emergencyBell":true,"cctv":false,"managerTel":"0647603943","source":"public","category":"public"},{"id":"202465200000100514","name":"중문보건지소","lat":33.251389,"lng":126.434693,"roadAddr":"제주특별자치도 서귀포시 천제연로 277","openHours":"09:00~18:00","maleToilets":8,"femaleToilets":4,"disabled":true,"diaperTable":false,"emergencyBell":true,"cctv":true,"managerTel":"0647606066","source":"public","category":"public"},{"id":"202465200000100387","name":"서부도서관","lat":33.250947,"lng":126.432152,"roadAddr":"제주특별자치도 서귀포시 중문관광로 346(중문동)","openHours":"08:00~22:00","maleToilets":10,"femaleToilets":5,"disabled":false,"diaperTable":false,"emergencyBell":false,"cctv":true,"managerTel":"0647603713","source":"public","category":"public"},{"id":"202465200000100456","name":"회수  미니수영장","lat":33.263197,"lng":126.447217,"roadAddr":"제주특별자치도 서귀포시 회수동 355-1","openHours":"상시","maleToilets":3,"femaleToilets":3,"disabled":false,"diaperTable":false,"emergencyBell":true,"cctv":false,"managerTel":"0647606535","source":"public","category":"public"},{"id":"202465200000100644","name":"중문동주민센터","lat":33.253331,"lng":126.433639,"roadAddr":"제주특별자치도 서귀포시 1100로 30","openHours":"09:00~18:00","maleToilets":19,"femaleToilets":19,"disabled":false,"diaperTable":true,"emergencyBell":true,"cctv":false,"managerTel":"0647604812","source":"public","category":"public"}]