[{"id":"202465100000101227","name":"사라봉축구장","lat":33.5137,"lng":126.544423,"roadAddr":"제주특별자치도 제주시 동문로169","openHours":"정시","maleToilets":4,"femaleToilets":3,"disabled":true,"diaperTable":false,"emergencyBell":true,"cctv":false,"managerTel":"0647283279","source":"public","category":"public"},{"id":"202465100000101432","name":"일도1동 주민센터 앞","lat":33.515058,"lng":126.526377,"roadAddr":"제주특별자치도 제주시 중앙로7길 15","openHours":"상시","maleToilets":4,"femaleToilets":2,"disabled":true,"diaperTable":false,"emergencyBell":true,"cctv":false,"managerTel":"0647284416","source":"public","category":"public"},{"id":"202465100000101118","name":"야외화장실(야외매점)","lat":33.525837,"lng":126.544079,"roadAddr":"제주특별자치도 제주시 임항로 191","openHours":"상시","maleToilets":9,"femaleToilets":10,"disabled":true,"diaperTable":false,"emergencyBell":true,"cctv":false,"managerTel":"0647108693","source":"public","category":"public"},{"id":"202465100000101184","name":"인제 공영주차장","lat":33.504817,"lng":126.541926,"roadAddr":"제주특별자치도 제주시 고마로19길 5","jibunAddr":"제주특별자치도 제주시 일도2동 409-11","openHours":"정시","maleToilets":3,"femaleToilets":2,"disabled":false,"diaperTable":true,"emergencyBell":true,"cctv":true,"managerTel":"0647283823","source":"public","category":"public"},{"id":"202465100000101436","name":"시민복지타운(도시재생과)","lat":33.491847,"lng":126.523851,"roadAddr":"제주특별자치도 제주시 연삼로 286","openHours":"상시","maleToilets":6,"femaleToilets":3,"disabled":true,"diaperTable":true,"emergencyBell":true,"cctv":false,"managerTel":"0647284505","source":"public","category":"public"},{"id":"202465100000101226","name":"주경기장 2층(내8문)","lat":33.495063,"lng":126.518797,"roadAddr":"제주특별자치도 제주시 서광로2길 24","openHours":"상시","maleToilets":3,"femaleToilets":10,"disabled":false,"diaperTable":false,"emergencyBell":true,"cctv":false,"managerTel":"0647283279","source":"public","category":"public"},{"id":"202465100000101601","name":"제주시청안내도움센터","lat":33.500214,"lng":126.532218,"roadAddr":"제주특별자치도 제주시 광양9길 10","openHours":"정시","maleToilets":1,"femaleToilets":0,"disabled":false,"diaperTable":true,"emergencyBell":false,"cctv":true,"managerTel":"0647282424","source":"public","category":"public"},{"id":"202465100000101609","name":"제주시청복지동","lat":33.500278,"lng":126.532513,"roadAddr":"제주특별자치도 제주시 동광로6길 22","openHours":"정시","maleToilets":8,"femaleToilets":3,"disabled":false,"diaperTable":false,"emergencyBell":false,"cctv":true,"managerTel":"0647282424","source":"public","category":"public"},{"id":"202465100000101116","name":"제주항 국제여객터미널(크루즈 입국장)","lat":33.525837,"lng":126.544079,"roadAddr":"제주특별자치도 제주시 임항로 191","openHours":"정시","maleToilets":5,"femaleToilets":5,"disabled":true,"diaperTable":true,"emergencyBell":true,"cctv":false,"managerTel":"0647108693","source":"public","category":"public"},{"id":"202465100000101603","name":"제주시청2별관","lat":33.500214,"lng":126.532218,"roadAddr":"제주특별자치도 제주시 광양9길 10","openHours":"정시","maleToilets":15,"femaleToilets":7,"disabled":false,"diaperTable":true,"emergencyBell":false,"cctv":true,"managerTel":"0647282424","source":"public","category":"public"},{"id":"202465100000101251","name":"수운공원(학생문화원 옆)","lat":33.499753,"lng":126.539687,"roadAddr":"제주특별자치도 제주시 청귤로5길 6-9","openHours":"상시","maleToilets":9,"femaleToilets":6,"disabled":true,"diaperTable":false,"emergencyBell":true,"cctv":true,"managerTel":"0647283605","source":"public","category":"public"},{"id":"202465100000101259","name":"제41호 어린이공원(제주은행 동쪽)","lat":33.50226,"lng":126.544748,"jibunAddr":"제주특별자치도 제주시 일도2동 65","openHours":"상시","maleToilets":2,"femaleToilets":0,"disabled":false,"diaperTable":false,"emergencyBell":true,"cctv":false,"managerTel":"0647283605","source":"public","category":"public"},{"id":"202465100000101212","name":"동문수산시장(상인회사무실-주차장)","lat":33.51159,"lng":126.526018,"roadAddr":"제주특별자치도 제주시 관덕로14길 20","openHours":"상시","maleToilets":4,"femaleToilets":4,"disabled":true,"diaperTable":false,"emergencyBell":true,"cctv":false,"managerTel":"0647282827","source":"public","category":"public"},{"id":"202465100000101121","name":"제주항 연안여객터미널(2층 식당)","lat":33.520041,"lng":126.534226,"roadAddr":"제주특별자치도 제주시 임항로 111","openHours":"정시","maleToilets":9,"femaleToilets":4,"disabled":true,"diaperTable":true,"emergencyBell":true,"cctv":false,"managerTel":"0647108693","source":"public","category":"public"},{"id":"202465100000101255","name":"한마음공원(곰솔곶화장실)(한마음병원서쪽)","lat":33.49554,"lng":126.544711,"jibunAddr":"제주특별자치도 제주시 이도2동 1942-1","openHours":"상시","maleToilets":6,"femaleToilets":7,"disabled":true,"diaperTable":true,"emergencyBell":true,"cctv":true,"managerTel":"0647283605","source":"public","category":"public"},{"id":"202465100000101238","name":"신산공원1(동쪽, 입구쪽)","lat":33.505297,"lng":126.533744,"roadAddr":"제주특별자치도 제주시 신산로 92-12","openHours":"상시","maleToilets":13,"femaleToilets":8,"disabled":true,"diaperTable":true,"emergencyBell":true,"cctv":true,"managerTel":"0647283605","source":"public","category":"public"},{"id":"202465100000101120","name":"제주항 연안여객터미널(1층 대합실)","lat":33.520041,"lng":126.534226,"roadAddr":"제주특별자치도 제주시 임항로 111","openHours":"정시","maleToilets":7,"femaleToilets":3,"disabled":false,"diaperTable":true,"emergencyBell":true,"cctv":false,"managerTel":"0647108693","source":"public","category":"public"},{"id":"202465100000101223","name":"주경기장 1층(본관좌측)","lat":33.495063,"lng":126.518797,"roadAddr":"제주특별자치도 제주시 서광로2길 24","openHours":"정시","maleToilets":6,"femaleToilets":7,"disabled":true,"diaperTable":false,"emergencyBell":true,"cctv":false,"managerTel":"0647283279","source":"public","category":"public"},{"id":"202465100000101166","name":"문화예술진흥원","lat":33.504444,"lng":126.535172,"roadAddr":"제주특별자치도 제주시 동광로 69","openHours":"정시","maleToilets":55,"femaleToilets":41,"disabled":true,"diaperTable":true,"emergencyBell":true,"cctv":false,"managerTel":"0647107621","source":"public","category":"public"},{"id":"202465100000101186","name":"제일주차빌딩","lat":33.513484,"lng":126.526596,"roadAddr":"제주특별자치도 제주시 관덕로15길 3","jibunAddr":"제주특별자치도 제주시 일도1동 1476-33","openHours":"정시","maleToilets":0,"femaleToilets":0,"disabled":false,"diaperTable":true,"emergencyBell":true,"cctv":false,"managerTel":"0647283825","source":"public","category":"public"},{"id":"202465100000101647","name":"이도1동","lat":33.506865,"lng":126.526722,"roadAddr":"제주특별자치도 제주시 중앙로25길 17","openHours":"정시","maleToilets":4,"femaleToilets":0,"disabled":true,"diaperTable":false,"emergencyBell":true,"cctv":false,"source":"public","category":"public"},{"id":"202465100000101615","name":"우당도서관","lat":33.51487,"lng":126.547868,"roadAddr":"제주특별자치도 제주시 사라봉동길 30","openHours":"정시","maleToilets":3,"femaleToilets":2,"disabled":false,"diaperTable":true,"emergencyBell":true,"cctv":true,"source":"public","category":"public"},{"id":"202465100000101189","name":"동문재래 공영주차장","lat":33.510818,"lng":126.526087,"roadAddr":"제주특별자치도 제주시 중앙로13길 16-8","openHours":"정시","maleToilets":3,"femaleToilets":3,"disabled":true,"diaperTable":true,"emergencyBell":true,"cctv":false,"managerTel":"0647283828","source":"public","category":"public"},{"id":"202465100000101215","name":"동문공설시장 청년몰(안쪽, 큰곳)","lat":33.512087,"lng":126.528242,"roadAddr":"제주특별자치도 제주시 동문로4길 9","openHours":"상시","maleToilets":7,"femaleToilets":7,"disabled":true,"diaperTable":false,"emergencyBell":true,"cctv":false,"managerTel":"0647282827","source":"public","category":"public"},{"id":"202465100000101201","name":"모충사","lat":33.51619,"lng":126.547006,"roadAddr":"제주특별자치도 제주시 사라봉길 75","openHours":"상시","maleToilets":6,"femaleToilets":2,"disabled":true,"diaperTable":true,"emergencyBell":true,"cctv":true,"managerTel":"0647282514","source":"public","category":"public"},{"id":"202465100000101221","name":"종합경기장 실내수영장 외부","lat":33.495063,"lng":126.518797,"roadAddr":"제주특별자치도 제주시 서광로2길 24","openHours":"상시","maleToilets":4,"femaleToilets":2,"disabled":false,"diaperTable":false,"emergencyBell":true,"cctv":false,"managerTel":"0647283279","source":"public","category":"public"},{"id":"202465100000101605","name":"제주시청4별관","lat":33.500207,"lng":126.531125,"roadAddr":"제주특별자치도 제주시 동광로2길 13","openHours":"정시","maleToilets":8,"femaleToilets":4,"disabled":false,"diaperTable":true,"emergencyBell":false,"cctv":true,"managerTel":"0647282424","source":"public","category":"public"},{"id":"202465100000101183","name":"제주시청 시민화장실","lat":33.500214,"lng":126.532218,"roadAddr":"제주특별자치도 제주시 광양9길 10","openHours":"상시","maleToilets":4,"femaleToilets":2,"disabled":false,"diaperTable":true,"emergencyBell":true,"cctv":true,"managerTel":"0647282423","source":"public","category":"public"},{"id":"202465100000101242","name":"사라봉공원(동쪽)-베드민턴장 옆","lat":33.518663,"lng":126.54769,"roadAddr":"제주특별자치도 제주시 사라봉동길 74","openHours":"상시","maleToilets":8,"femaleToilets":5,"disabled":true,"diaperTable":true,"emergencyBell":true,"cctv":true,"managerTel":"0647283605","source":"public","category":"public"},{"id":"202465100000101440","name":"산짓물공원 공중화장실","lat":33.515905,"lng":126.528935,"jibunAddr":"제주특별자치도 제주시 건입동 1328-4","openHours":"상시","maleToilets":5,"femaleToilets":5,"disabled":true,"diaperTable":true,"emergencyBell":true,"cctv":true,"managerTel":"0647284666","source":"public","category":"public"},{"id":"202465100000101608","name":"제주시청상하수도과","lat":33.500434,"lng":126.532375,"roadAddr":"제주특별자치도 제주시 광양9길 26","openHours":"정시","maleToilets":12,"femaleToilets":4,"disabled":false,"diaperTable":false,"emergencyBell":false,"cctv":true,"managerTel":"0647282424","source":"public","category":"public"},{"id":"202465100000101600","name":"제주시청 본관(총무과)","lat":33.500214,"lng":126.532218,"roadAddr":"제주특별자치도 제주시 광양9길 10","openHours":"정시","maleToilets":22,"femaleToilets":9,"disabled":true,"diaperTable":true,"emergencyBell":false,"cctv":true,"managerTel":"0647282424","source":"public","category":"public"},{"id":"202465100000101202","name":"동문공설시장(종합안내센터 옆-시장쪽)","lat":33.512087,"lng":126.528242,"roadAddr":"제주특별자치도 제주시 동문로4길 9","openHours":"상시","maleToilets":5,"femaleToilets":3,"disabled":false,"diaperTable":false,"emergencyBell":true,"cctv":false,"managerTel":"0647282827","source":"public","category":"public"},{"id":"202465100000101185","name":"법원북측주차장","lat":33.488333,"lng":126.522343,"jibunAddr":"제주특별자치도 제주시 이도2동 1066","openHours":"정시","maleToilets":2,"femaleToilets":2,"disabled":false,"diaperTable":true,"emergencyBell":true,"cctv":true,"managerTel":"0647283824","source":"public","category":"public"},{"id":"202465100000101114","name":"제주항 국제여객터미널(1층 ㈜현성MCT)","lat":33.525837,"lng":126.544079,"roadAddr":"제주특별자치도 제주시 임항로 191","openHours":"정시","maleToilets":4,"femaleToilets":4,"disabled":true,"diaperTable":true,"emergencyBell":true,"cctv":false,"managerTel":"0647108693","source":"public","category":"public"},{"id":"202465100000101248","name":"탑동 제1공원(E-마트옆)","lat":33.518795,"lng":126.520203,"roadAddr":"제주특별자치도 제주시 탑동해안로 46","openHours":"상시","maleToilets":6,"femaleToilets":6,"disabled":true,"diaperTable":true,"emergencyBell":true,"cctv":true,"managerTel":"0647283605","source":"public","category":"public"},{"id":"202465100000101249","name":"탑동 제2공원(공연장앞)","lat":33.518148,"lng":126.523955,"roadAddr":"제주특별자치도 제주시 중앙로 2","openHours":"상시","maleToilets":12,"femaleToilets":12,"disabled":true,"diaperTable":true,"emergencyBell":true,"cctv":true,"managerTel":"0647283605","source":"public","category":"public"},{"id":"202465100000101122","name":"제주항 연안여객터미널(2층 복도)","lat":33.520041,"lng":126.534226,"roadAddr":"제주특별자치도 제주시 임항로 111","openHours":"정시","maleToilets":7,"femaleToilets":3,"disabled":false,"diaperTable":true,"emergencyBell":true,"cctv":false,"managerTel":"0647108693","source":"public","category":"public"},{"id":"202465100000101644","name":"일도1동","lat":33.515058,"lng":126.526377,"roadAddr":"제주특별자치도 제주시 중앙로7길 15","openHours":"정시","maleToilets":4,"femaleToilets":3,"disabled":false,"diaperTable":false,"emergencyBell":true,"cctv":false,"source":"public","category":"public"},{"id":"202465100000101210","name":"칠성로상점가(제주시 활성화 구역내)","lat":33.514026,"lng":126.526115,"roadAddr":"제주특별자치도 제주시 관덕로13길 12","openHours":"정시","maleToilets":4,"femaleToilets":2,"disabled":true,"diaperTable":false,"emergencyBell":true,"cctv":true,"managerTel":"0647282827","source":"public","category":"public"},{"id":"202465100000101244","name":"사라봉공원(서쪽)","lat":33.518663,"lng":126.54769,"roadAddr":"제주특별자치도 제주시 사라봉동길 74","openHours":"상시","maleToilets":5,"femaleToilets":2,"disabled":false,"diaperTable":false,"emergencyBell":true,"cctv":false,"managerTel":"0647283605","source":"public","category":"public"},{"id":"202465100000101610","name":"자치행정과(소통협력센터)","lat":33.512828,"lng":126.523929,"roadAddr":"제주특별자치도 제주시 관덕로 44","openHours":"정시","maleToilets":20,"femaleToilets":10,"disabled":true,"diaperTable":false,"emergencyBell":true,"cctv":true,"managerTel":"07044577744","source":"public","category":"public"},{"id":"202465100000101618","name":"건강증진과(치매안심센터)","lat":33.4916,"lng":126.520238,"roadAddr":"제주특별자치도 제주시 연삼로 264","openHours":"정시","maleToilets":7,"femaleToilets":6,"disabled":true,"diaperTable":false,"emergencyBell":true,"cctv":false,"source":"public","category":"public"},{"id":"202465100000101650","name":"삼도2동","lat":33.511739,"lng":126.522214,"roadAddr":"제주특별자치도 제주시 관덕로6길 15","openHours":"정시","maleToilets":4,"femaleToilets":5,"disabled":true,"diaperTable":false,"emergencyBell":true,"cctv":false,"source":"public","category":"public"},{"id":"202465100000101172","name":"제주소방서 1층 화장실","lat":33.490889,"lng":126.536659,"roadAddr":"제주특별자치도 제주시 중앙로 342","openHours":"정시","maleToilets":4,"femaleToilets":2,"disabled":true,"diaperTable":false,"emergencyBell":false,"cctv":false,"managerTel":"0647290142","source":"public","category":"public"},{"id":"202465100000101452","name":"아라동 다목적운동장","lat":33.487543,"lng":126.543523,"roadAddr":"제주특별자치도 제주시 아라이동1360-14","openHours":"상시","maleToilets":2,"femaleToilets":1,"disabled":false,"diaperTable":false,"emergencyBell":true,"cctv":false,"managerTel":"0647288202","source":"public","category":"public"},{"id":"202465100000101113","name":"제주항 국제여객터미널(1층 매표소)","lat":33.525837,"lng":126.544079,"roadAddr":"제주특별자치도 제주시 임항로 191","openHours":"정시","maleToilets":10,"femaleToilets":12,"disabled":true,"diaperTable":true,"emergencyBell":true,"cctv":false,"managerTel":"0647108693","source":"public","category":"public"},{"id":"202665100000100013","name":"참사랑문화의집(2~3층)","lat":33.501793,"lng":126.526216,"roadAddr":"제주특별자치도 제주시 서광로29길 17, 제주시참사랑문화의집 (이도일동)","jibunAddr":"제주특별자치도 제주시 이도일동 1664-7 제주시참사랑문화의집","openHours":"정시","maleToilets":4,"femaleToilets":4,"disabled":false,"diaperTable":false,"emergencyBell":false,"cctv":false,"source":"public","category":"public"},{"id":"202665100000100002","name":"동광 제2 공영주차장","lat":33.499597,"lng":126.549439,"roadAddr":"제주특별자치도 제주시 태성로 40 (일도이동)","jibunAddr":"제주특별자치도 제주시 일도이동 112","openHours":"정시","maleToilets":2,"femaleToilets":1,"disabled":false,"diaperTable":false,"emergencyBell":false,"cctv":false,"source":"public","category":"public"},{"id":"202665100000100012","name":"광양공영주차장","lat":33.502277,"lng":126.528997,"roadAddr":"제주특별자치도 제주시 동광로1길 18 (이도일동)","jibunAddr":"제주특별자치도 제주시 이도일동 1257-4","openHours":"상시","maleToilets":4,"femaleToilets":4,"disabled":true,"diaperTable":false,"emergencyBell":false,"cctv":false,"source":"public","category":"public"},{"id":"202665100000100003","name":"동문공설시장 신주차장(증축부, 캐리어보관실 맞은편)","lat":33.512087,"lng":126.528242,"roadAddr":"제주특별자치도 제주시 동문로4길 9, 동문공설시장, 동문공영주차장 (일도일동)","jibunAddr":"제주특별자치도 제주시 일도일동 1103 동문공설시장, 동문공영주차장","openHours":"상시","maleToilets":3,"femaleToilets":2,"disabled":true,"diaperTable":false,"emergencyBell":false,"cctv":false,"source":"public","category":"public"},{"id":"202465100000101431","name":"산지천","lat":33.514023,"lng":126.527745,"roadAddr":"제주특별자치도 제주시 관덕로17길 13-1","openHours":"상시","maleToilets":3,"femaleToilets":2,"disabled":false,"diaperTable":false,"emergencyBell":true,"cctv":false,"managerTel":"0647284416","source":"public","category":"public"},{"id":"202465100000101213","name":"동문공설시장 신주차장 (캐리어보관실)","lat":33.512066,"lng":126.528599,"jibunAddr":"제주특별자치도 제주시 일도1동 1104","openHours":"상시","maleToilets":3,"femaleToilets":2,"disabled":true,"diaperTable":true,"emergencyBell":true,"cctv":false,"managerTel":"0647282827","source":"public","category":"public"},{"id":"202465100000101225","name":"주경기장 2층(내3문)","lat":33.495063,"lng":126.518797,"roadAddr":"제주특별자치도 제주시 서광로2길 24","openHours":"상시","maleToilets":3,"femaleToilets":8,"disabled":false,"diaperTable":false,"emergencyBell":true,"cctv":false,"managerTel":"0647283279","source":"public","category":"public"},{"id":"202465100000101607","name":"제주시청6별관","lat":33.500295,"lng":126.531321,"roadAddr":"제주특별자치도 제주시 광양9길 15","openHours":"정시","maleToilets":10,"femaleToilets":7,"disabled":true,"diaperTable":true,"emergencyBell":false,"cctv":true,"managerTel":"0647282424","source":"public","category":"public"},{"id":"202465100000101617","name":"보건행정과","lat":33.4916,"lng":126.520238,"roadAddr":"제주특별자치도 제주시 연삼로 264","openHours":"정시","maleToilets":15,"femaleToilets":15,"disabled":true,"diaperTable":true,"emergencyBell":true,"cctv":false,"source":"public","category":"public"},{"id":"202465100000101239","name":"신산공원2(서쪽, 하천옆)","lat":33.504736,"lng":126.532152,"jibunAddr":"제주특별자치도 제주시 일도2동 915","openHours":"상시","maleToilets":8,"femaleToilets":5,"disabled":true,"diaperTable":true,"emergencyBell":true,"cctv":true,"managerTel":"0647283605","source":"public","category":"public"},{"id":"202465100000101604","name":"제주시청3별관","lat":33.500381,"lng":126.531515,"roadAddr":"제주특별자치도 제주시 광양9길 17","openHours":"정시","maleToilets":22,"femaleToilets":12,"disabled":true,"diaperTable":true,"emergencyBell":false,"cctv":true,"managerTel":"0647282424","source":"public","category":"public"},{"id":"202665100000100014","name":"이도1동청소년문화의집","lat":33.501793,"lng":126.526216,"roadAddr":"제주특별자치도 제주시 서광로29길 17, 제주시참사랑문화의집 (이도일동)","jibunAddr":"제주특별자치도 제주시 이도일동 1664-7 제주시참사랑문화의집","openHours":"정시","maleToilets":1,"femaleToilets":3,"disabled":true,"diaperTable":false,"emergencyBell":false,"cctv":false,"source":"public","category":"public"},{"id":"202665100000100016","name":"도남청소년문화의집","lat":33.492954,"lng":126.527473,"roadAddr":"제주특별자치도 제주시 도남로12길 8, 도남청소년문화의집 (도남동)","jibunAddr":"제주특별자치도 제주시 도남동 57-4 도남청소년문화의집","openHours":"정시","maleToilets":9,"femaleToilets":6,"disabled":true,"diaperTable":false,"emergencyBell":false,"cctv":false,"source":"public","category":"public"},{"id":"202465100000101211","name":"중앙로상점가 주차장 한짓골","lat":33.510628,"lng":126.524161,"roadAddr":"제주특별자치도 제주시 중앙로 85","openHours":"상시","maleToilets":6,"femaleToilets":5,"disabled":true,"diaperTable":false,"emergencyBell":true,"cctv":false,"managerTel":"0647282827","source":"public","category":"public"},{"id":"202465100000101214","name":"동문공설시장 청년몰(입구 밖)","lat":33.512087,"lng":126.528242,"roadAddr":"제주특별자치도 제주시 동문로4길 9","openHours":"상시","maleToilets":5,"femaleToilets":3,"disabled":false,"diaperTable":false,"emergencyBell":true,"cctv":false,"managerTel":"0647282827","source":"public","category":"public"},{"id":"202465100000101126","name":"제주항 5부두 임항창고","lat":33.523378,"lng":126.54082,"roadAddr":"제주특별자치도 제주시 임항로 173","openHours":"상시","maleToilets":4,"femaleToilets":0,"disabled":true,"diaperTable":false,"emergencyBell":true,"cctv":false,"managerTel":"0647108693","source":"public","category":"public"},{"id":"202465100000101196","name":"정든로 공영주차장","lat":33.497569,"lng":126.542397,"roadAddr":"제주특별자치도 제주시 정든로 37","jibunAddr":"제주특별자치도 제주시 이도2동 429-7","openHours":"정시","maleToilets":2,"femaleToilets":1,"disabled":true,"diaperTable":true,"emergencyBell":true,"cctv":false,"managerTel":"0647283823","source":"public","category":"public"},{"id":"202465100000101653","name":"건입동","lat":33.51505,"lng":126.531503,"roadAddr":"제주특별자치도 제주시 만덕로 18","openHours":"정시","maleToilets":6,"femaleToilets":4,"disabled":true,"diaperTable":false,"emergencyBell":false,"cctv":false,"source":"public","category":"public"},{"id":"202465100000101435","name":"그린공원 배드민턴장","lat":33.503911,"lng":126.546519,"roadAddr":"제주특별자치도 제주시 연수로 12","openHours":"상시","maleToilets":1,"femaleToilets":1,"disabled":false,"diaperTable":false,"emergencyBell":true,"cctv":false,"managerTel":"0647288023","source":"public","category":"public"},{"id":"202465100000101645","name":"일도1동 (문화의집)","lat":33.515058,"lng":126.526377,"roadAddr":"제주특별자치도 제주시 중앙로7길 15","openHours":"정시","maleToilets":8,"femaleToilets":4,"disabled":true,"diaperTable":false,"emergencyBell":true,"cctv":false,"source":"public","category":"public"},{"id":"202465100000101258","name":"제40호 어린이공원(탐라교회옆)","lat":33.497491,"lng":126.540794,"jibunAddr":"제주특별자치도 제주시 이도2동 404","openHours":"상시","maleToilets":2,"femaleToilets":0,"disabled":false,"diaperTable":false,"emergencyBell":true,"cctv":false,"managerTel":"0647283605","source":"public","category":"public"},{"id":"202465100000101250","name":"이도근린공원(한마음병원 북측)","lat":33.497815,"lng":126.544489,"roadAddr":"제주특별자치도 제주시 이도공원동길 6","openHours":"상시","maleToilets":7,"femaleToilets":5,"disabled":true,"diaperTable":true,"emergencyBell":true,"cctv":true,"managerTel":"0647283605","source":"public","category":"public"},{"id":"202465100000101174","name":"고용복지플러스센터 화장실","lat":33.504381,"lng":126.527071,"roadAddr":"제주특별자치도 제주시 중앙로 165","openHours":"정시","maleToilets":39,"femaleToilets":18,"disabled":true,"diaperTable":false,"emergencyBell":true,"cctv":true,"managerTel":"0647104452","source":"public","category":"public"},{"id":"202465100000101433","name":"기상청 인근","lat":33.513597,"lng":126.529561,"roadAddr":"제주특별자치도 제주시 만덕로6길 24-6","openHours":"상시","maleToilets":3,"femaleToilets":2,"disabled":false,"diaperTable":false,"emergencyBell":true,"cctv":false,"managerTel":"0647284416","source":"public","category":"public"},{"id":"202465100000101648","name":"이도2동","lat":33.49707,"lng":126.535301,"roadAddr":"제주특별자치도 제주시 오복3길 8","openHours":"정시","maleToilets":9,"femaleToilets":5,"disabled":true,"diaperTable":true,"emergencyBell":true,"cctv":false,"source":"public","category":"public"},{"id":"202465100000101115","name":"제주항 국제여객터미널(2층 출국대기장)","lat":33.525837,"lng":126.544079,"roadAddr":"제주특별자치도 제주시 임항로 191","openHours":"정시","maleToilets":3,"femaleToilets":3,"disabled":true,"diaperTable":true,"emergencyBell":true,"cctv":false,"managerTel":"0647108693","source":"public","category":"public"},{"id":"202465100000101437","name":"칠성공영주차장(칠성로 차없는거리)","lat":33.516515,"lng":126.525247,"roadAddr":"제주특별자치도 제주시 임항로 8","openHours":"상시","maleToilets":4,"femaleToilets":3,"disabled":true,"diaperTable":false,"emergencyBell":true,"cctv":false,"managerTel":"0647284571","source":"public","category":"public"},{"id":"202465100000101125","name":"제주항 3부두 임항창고","lat":33.520436,"lng":126.537617,"roadAddr":"제주특별자치도 제주시 임항로 127","openHours":"상시","maleToilets":4,"femaleToilets":1,"disabled":false,"diaperTable":false,"emergencyBell":true,"cctv":false,"managerTel":"0647108693","source":"public","category":"public"},{"id":"202465100000101434","name":"일도체육공원(근린공원내)","lat":33.503911,"lng":126.546519,"roadAddr":"제주특별자치도 제주시 연수로 12","openHours":"상시","maleToilets":2,"femaleToilets":2,"disabled":false,"diaperTable":false,"emergencyBell":true,"cctv":false,"managerTel":"0647288023","source":"public","category":"public"},{"id":"202465100000101602","name":"제주시청1별관","lat":33.500214,"lng":126.532218,"roadAddr":"제주특별자치도 제주시 광양9길 10","openHours":"정시","maleToilets":19,"femaleToilets":10,"disabled":true,"diaperTable":true,"emergencyBell":false,"cctv":true,"managerTel":"0647282424","source":"public","category":"public"},{"id":"202465100000101203","name":"동문공설시장(시장입구-10번 게이트)","lat":33.512087,"lng":126.528242,"roadAddr":"제주특별자치도 제주시 동문로4길 9","openHours":"상시","maleToilets":7,"femaleToilets":4,"disabled":true,"diaperTable":true,"emergencyBell":true,"cctv":false,"managerTel":"0647282827","source":"public","category":"public"},{"id":"202465100000101188","name":"이도2동 주민센터 앞 주차장","lat":33.49679,"lng":126.534928,"roadAddr":"제주특별자치도 제주시 오복3길 9","openHours":"정시","maleToilets":3,"femaleToilets":3,"disabled":true,"diaperTable":true,"emergencyBell":true,"cctv":false,"managerTel":"0647283827","source":"public","category":"public"},{"id":"202465100000101119","name":"제주항 연안여객터미널(1층 매표소)","lat":33.520041,"lng":126.534226,"roadAddr":"제주특별자치도 제주시 임항로 111","openHours":"정시","maleToilets":11,"femaleToilets":5,"disabled":true,"diaperTable":true,"emergencyBell":true,"cctv":false,"managerTel":"0647108693","source":"public","category":"public"},{"id":"202465100000101117","name":"야외화장실(선용품점)","lat":33.525837,"lng":126.544079,"roadAddr":"제주특별자치도 제주시 임항로 191","openHours":"상시","maleToilets":11,"femaleToilets":10,"disabled":true,"diaperTable":false,"emergencyBell":true,"cctv":false,"managerTel":"0647108693","source":"public","category":"public"},{"id":"202465100000101612","name":"문화예술과(해변공연장)","lat":33.518148,"lng":126.523955,"roadAddr":"제주특별자치도 제주시 중앙로 2","openHours":"정시","maleToilets":12,"femaleToilets":3,"disabled":true,"diaperTable":true,"emergencyBell":true,"cctv":false,"managerTel":"0647283966","source":"public","category":"public"},{"id":"202465100000101444","name":"별도봉산책로","lat":33.518365,"lng":126.557391,"roadAddr":"제주특별자치도 제주시 별도봉길 3-19","openHours":"상시","maleToilets":3,"femaleToilets":2,"disabled":true,"diaperTable":false,"emergencyBell":true,"cctv":false,"managerTel":"0647288153","source":"public","category":"public"},{"id":"202465100000101646","name":"일도2동","lat":33.511689,"lng":126.538094,"roadAddr":"제주특별자치도 제주시 삼성로 134 (일도이동)","jibunAddr":"제주특별자치도 제주시 일도이동 161","openHours":"정시","maleToilets":10,"femaleToilets":6,"disabled":false,"diaperTable":false,"emergencyBell":false,"cctv":false,"source":"public","category":"public"},{"id":"202665100000100015","name":"제주시청소년수련관","lat":33.513792,"lng":126.546509,"roadAddr":"제주특별자치도 제주시 사라봉동길 21-1, 제주시청소년수련관 (건입동)","jibunAddr":"제주특별자치도 제주시 건입동 538 제주시청소년수련관","openHours":"정시","maleToilets":27,"femaleToilets":15,"disabled":true,"diaperTable":false,"emergencyBell":false,"cctv":false,"source":"public","category":"public"},{"id":"202465100000101611","name":"자치행정과(평생학습관)","lat":33.51409,"lng":126.547109,"roadAddr":"제주특별자치도 제주시 사라봉동길 15","openHours":"정시","maleToilets":14,"femaleToilets":7,"disabled":true,"diaperTable":true,"emergencyBell":false,"cctv":false,"managerTel":"0647288686","source":"public","category":"public"},{"id":"202465100000101123","name":"제주항 6부두","lat":33.525837,"lng":126.544079,"roadAddr":"제주특별자치도 제주시 임항로 191","openHours":"상시","maleToilets":5,"femaleToilets":1,"disabled":false,"diaperTable":false,"emergencyBell":true,"cctv":false,"managerTel":"0647108693","source":"public","category":"public"},{"id":"202465100000101224","name":"주경기장 1층(외4문)","lat":33.495063,"lng":126.518797,"roadAddr":"제주특별자치도 제주시 서광로2길 24","openHours":"정시","maleToilets":6,"femaleToilets":7,"disabled":true,"diaperTable":false,"emergencyBell":true,"cctv":false,"managerTel":"0647283279","source":"public","category":"public"},{"id":"202465100000101266","name":"신산공원3(국수거리 게이트볼장 옆)","lat":33.507347,"lng":126.531896,"jibunAddr":"제주특별자치도 제주시 일도2동 995-87","openHours":"상시","maleToilets":4,"femaleToilets":2,"disabled":false,"diaperTable":false,"emergencyBell":true,"cctv":false,"managerTel":"0647283605","source":"public","category":"public"},{"id":"202465100000101222","name":"애향운동장","lat":33.495063,"lng":126.518797,"roadAddr":"제주특별자치도 제주시 서광로2길 24","openHours":"상시","maleToilets":8,"femaleToilets":7,"disabled":true,"diaperTable":false,"emergencyBell":true,"cctv":false,"managerTel":"0647283279","source":"public","category":"public"},{"id":"202665100000100028","name":"제주시 기적의도서관","lat":33.501765,"lng":126.535526,"roadAddr":"제주특별자치도 제주시 동광로12길 19, 제주기적의도서관 (이도이동)","jibunAddr":"제주특별자치도 제주시 이도이동 1128-1 제주기적의도서관","openHours":"정시","maleToilets":5,"femaleToilets":3,"disabled":true,"diaperTable":false,"emergencyBell":false,"cctv":false,"source":"public","category":"public"},{"id":"202465100000101197","name":"동광 공영주차장","lat":33.499926,"lng":126.545362,"roadAddr":"제주특별자치도 제주시 태성로2길 5","jibunAddr":"제주특별자치도 제주시 일도2동 82-8","openHours":"정시","maleToilets":2,"femaleToilets":1,"disabled":true,"diaperTable":true,"emergencyBell":true,"cctv":false,"managerTel":"0647283823","source":"public","category":"public"},{"id":"202465100000101254","name":"시민복지타운","lat":33.489366,"lng":126.527213,"roadAddr":"제주특별자치도 제주시 복지로9길 25","openHours":"상시","maleToilets":5,"femaleToilets":2,"disabled":true,"diaperTable":true,"emergencyBell":true,"cctv":false,"managerTel":"0647283605","source":"public","category":"public"},{"id":"202465100000101192","name":"제주상공회의소 동측 공영주차장 (도남)","lat":33.490435,"lng":126.520097,"jibunAddr":"제주특별자치도 제주시 도남동 574-3","openHours":"정시","maleToilets":2,"femaleToilets":3,"disabled":true,"diaperTable":true,"emergencyBell":true,"cctv":false,"managerTel":"0647283823","source":"public","category":"public"},{"id":"202465100000101124","name":"제주항 9부두","lat":33.52369,"lng":126.545948,"roadAddr":"제주특별자치도 제주시 임항로 197","openHours":"상시","maleToilets":10,"femaleToilets":2,"disabled":false,"diaperTable":false,"emergencyBell":true,"cctv":false,"managerTel":"0647108693","source":"public","category":"public"},{"id":"202465100000101606","name":"제주시청5별관","lat":33.50003,"lng":126.529944,"roadAddr":"제주특별자치도 제주시 광양9길 3","openHours":"정시","maleToilets":17,"femaleToilets":11,"disabled":true,"diaperTable":true,"emergencyBell":false,"cctv":true,"managerTel":"0647282424","source":"public","category":"public"},{"id":"202465100000101112","name":"제주항 국제여객터미널(1층 대합실 스낵)","lat":33.525837,"lng":126.544079,"roadAddr":"제주특별자치도 제주시 임항로 191","openHours":"정시","maleToilets":7,"femaleToilets":8,"disabled":true,"diaperTable":true,"emergencyBell":true,"cctv":false,"managerTel":"0647108693","source":"public","category":"public"},{"id":"202465100000101260","name":"제42호 어린이공원(동광성당동쪽)","lat":33.499983,"lng":126.547287,"roadAddr":"제주특별자치도 제주시 태성로4길 23","openHours":"상시","maleToilets":2,"femaleToilets":0,"disabled":false,"diaperTable":false,"emergencyBell":true,"cctv":false,"managerTel":"0647283605","source":"public","category":"public"},{"id":"202465100000101243","name":"사라봉공원(정상)","lat":33.518663,"lng":126.54769,"roadAddr":"제주특별자치도 제주시 사라봉동길 74","openHours":"상시","maleToilets":6,"femaleToilets":3,"disabled":true,"diaperTable":false,"emergencyBell":true,"cctv":false,"managerTel":"0647283605","source":"public","category":"public"}]