[{"id":"202465200000100574","name":"위미3리 태웃개 화장실","lat":33.270249,"lng":126.691902,"roadAddr":"제주특별자치도 남원읍 위미리69-3","openHours":"상시","maleToilets":2,"femaleToilets":1,"disabled":false,"diaperTable":false,"emergencyBell":true,"cctv":false,"managerTel":"0647604183","source":"public","category":"public"},{"id":"202465200000100344","name":"위미1리 복지회관","lat":33.273799,"lng":126.657191,"roadAddr":"제주특별자치도 서귀포시 남원읍 위미해안로 4-3","openHours":"정시","maleToilets":2,"femaleToilets":1,"disabled":false,"diaperTable":false,"emergencyBell":false,"cctv":false,"managerTel":"0647603943","source":"public","category":"public"},{"id":"202465200000100342","name":"중앙식육식당","lat":33.274795,"lng":126.662178,"roadAddr":"제주특별자치도 서귀포시 남원읍 태위로 138","openHours":"상시","maleToilets":2,"femaleToilets":1,"disabled":false,"diaperTable":false,"emergencyBell":false,"cctv":false,"managerTel":"0647603943","source":"public","category":"public"},{"id":"202465200000100347","name":"동백꽃필무렵","lat":33.272905,"lng":126.674326,"roadAddr":"제주특별자치도 서귀포시 위미중앙로 300번길 8","openHours":"정시","maleToilets":2,"femaleToilets":1,"disabled":false,"diaperTable":false,"emergencyBell":false,"cctv":false,"managerTel":"0647603943","source":"public","category":"public"},{"id":"202465200000100569","name":"위미문화의 집","lat":33.27501,"lng":126.658588,"roadAddr":"제주특별자치도 남원읍 태위로 105","openHours":"정시","maleToilets":5,"femaleToilets":4,"disabled":false,"diaperTable":false,"emergencyBell":true,"cctv":false,"managerTel":"0647604198","source":"public","category":"public"}]