[{"id":"202465200000100408","name":"매일시장주차장","lat":33.250169,"lng":126.563411,"roadAddr":"제주특별자치도 서귀포시 중앙동 277-1","openHours":"상시","maleToilets":7,"femaleToilets":7,"disabled":false,"diaperTable":false,"emergencyBell":true,"cctv":true,"managerTel":"0647602634","source":"public","category":"public"},{"id":"202465200000100481","name":"태평공원 공중화장실","lat":33.250553,"lng":126.570322,"roadAddr":"제주특별자치도 서귀포시 동홍동 402-4","openHours":"상시","maleToilets":3,"femaleToilets":2,"disabled":true,"diaperTable":false,"emergencyBell":true,"cctv":false,"managerTel":"0647603193","source":"public","category":"public"},{"id":"202465200000100322","name":"소라의성","lat":33.245179,"lng":126.576955,"roadAddr":"제주특별자치도 서귀포시 칠십리로 214번길 17-17","openHours":"상시","maleToilets":2,"femaleToilets":2,"disabled":false,"diaperTable":false,"emergencyBell":true,"cctv":false,"managerTel":"0647602654","source":"public","category":"public"},{"id":"202465200000100411","name":"서귀포오일시장-3","lat":33.266521,"lng":126.57329,"roadAddr":"제주특별자치도 서귀포시 토평서로11번길 150 (동홍동)","openHours":"상시","maleToilets":4,"femaleToilets":3,"disabled":false,"diaperTable":false,"emergencyBell":true,"cctv":false,"managerTel":"0647602634","source":"public","category":"public"},{"id":"202465200000100407","name":"매일시장주차장","lat":33.248965,"lng":126.564285,"roadAddr":"제주특별자치도 서귀포시 중앙동 272-49","openHours":"상시","maleToilets":5,"femaleToilets":5,"disabled":false,"diaperTable":true,"emergencyBell":true,"cctv":false,"managerTel":"0647602634","source":"public","category":"public"},{"id":"202465200000100508","name":"정방공영주차빌딩","lat":33.24779,"lng":126.565813,"roadAddr":"제주특별자치도 서귀포시 서귀동 403-6","openHours":"상시","maleToilets":2,"femaleToilets":2,"disabled":false,"diaperTable":true,"emergencyBell":true,"cctv":false,"managerTel":"0647603132","source":"public","category":"public"},{"id":"202465200000100313","name":"서복전시관-주차장","lat":33.245241,"lng":126.571213,"roadAddr":"제주특별자치도 서귀포시 칠십리로 156-13","openHours":"상시","maleToilets":4,"femaleToilets":2,"disabled":false,"diaperTable":false,"emergencyBell":false,"cctv":true,"managerTel":"0647606361","source":"public","category":"public"},{"id":"202465200000100348","name":"멧돌뚝배기","lat":33.251855,"lng":126.605371,"roadAddr":"제주특별자치도 서귀포시 송산동 70","openHours":"08:00~20:00","maleToilets":2,"femaleToilets":1,"disabled":false,"diaperTable":false,"emergencyBell":false,"cctv":false,"managerTel":"0647603943","source":"public","category":"public"},{"id":"202465200000100484","name":"자구리공원 공중화장실","lat":33.242131,"lng":126.567693,"roadAddr":"제주특별자치도 서귀포시 서귀동 15","openHours":"상시","maleToilets":7,"femaleToilets":7,"disabled":true,"diaperTable":true,"emergencyBell":true,"cctv":false,"managerTel":"0647603193","source":"public","category":"public"},{"id":"202465200000100406","name":"소암기념관","lat":33.245124,"lng":126.567421,"roadAddr":"제주특별자치도 서귀포시 소암로 15","openHours":"09:00~18:00","maleToilets":11,"femaleToilets":9,"disabled":true,"diaperTable":true,"emergencyBell":true,"cctv":true,"managerTel":"0647603511","source":"public","category":"public"},{"id":"202465200000100430","name":"서귀주유소","lat":33.248345,"lng":126.569098,"roadAddr":"제주특별자치도 서귀포시 중정로 122(서귀동)","openHours":"상시","maleToilets":3,"femaleToilets":1,"disabled":false,"diaperTable":false,"emergencyBell":true,"cctv":false,"managerTel":"0647606535","source":"public","category":"public"},{"id":"202465200000100403","name":"창작스튜디오","lat":33.245159,"lng":126.564471,"roadAddr":"제주특별자치도 서귀포시 이중섭로 33","openHours":"09:00~18:00","maleToilets":4,"femaleToilets":6,"disabled":true,"diaperTable":true,"emergencyBell":false,"cctv":true,"managerTel":"0647603593","source":"public","category":"public"},{"id":"202465200000100512","name":"동홍1공영주차빌딩","lat":33.250405,"lng":126.568833,"roadAddr":"제주특별자치도 서귀포시 동홍동 395-2","openHours":"상시","maleToilets":5,"femaleToilets":4,"disabled":true,"diaperTable":true,"emergencyBell":false,"cctv":true,"managerTel":"0647603133","source":"public","category":"public"},{"id":"202465200000100312","name":"서복전시관","lat":33.244809,"lng":126.570657,"roadAddr":"제주특별자치도 서귀포시 칠십리로 156-8","openHours":"09:00~18:00","maleToilets":5,"femaleToilets":4,"disabled":true,"diaperTable":true,"emergencyBell":false,"cctv":false,"managerTel":"0647606361","source":"public","category":"public"},{"id":"202465200000100422","name":"대원빌딩","lat":33.247055,"lng":126.563417,"roadAddr":"제주특별자치도 서귀포시 서귀동 418-5","openHours":"상시","maleToilets":4,"femaleToilets":2,"disabled":false,"diaperTable":false,"emergencyBell":true,"cctv":false,"managerTel":"0647606535","source":"public","category":"public"},{"id":"202465200000100382","name":"서귀포기적의도서관","lat":33.254315,"lng":126.569989,"roadAddr":"제주특별자치도 서귀포시 일주동로 8593","openHours":"09:00~18:00","maleToilets":4,"femaleToilets":4,"disabled":true,"diaperTable":true,"emergencyBell":false,"cctv":false,"managerTel":"0647603723","source":"public","category":"public"},{"id":"202465200000100368","name":"서귀포시동홍생활체육관(천지학생체육관)","lat":33.257017,"lng":126.563108,"roadAddr":"제주특별자치도 서귀포시 중앙로 140 (동홍동)","openHours":"06:00~22:00","maleToilets":9,"femaleToilets":8,"disabled":false,"diaperTable":false,"emergencyBell":true,"cctv":false,"managerTel":"0647625230","source":"public","category":"public"},{"id":"202465200000100616","name":"송산동주민센터","lat":33.245033,"lng":126.566006,"roadAddr":"제주특별자치도 서귀포시 소암로 4","openHours":"상시","maleToilets":2,"femaleToilets":2,"disabled":false,"diaperTable":false,"emergencyBell":true,"cctv":false,"managerTel":"0647604513","source":"public","category":"public"},{"id":"202465200000100405","name":"이중섭미술관","lat":33.245862,"lng":126.564875,"roadAddr":"제주특별자치도 서귀포시 이중섭로 27-3","openHours":"09:00~18:00","maleToilets":4,"femaleToilets":6,"disabled":true,"diaperTable":true,"emergencyBell":false,"cctv":false,"managerTel":"0647603567","source":"public","category":"public"},{"id":"202465200000100392","name":"정방폭포화장실","lat":33.244606,"lng":126.573226,"roadAddr":"제주특별자치도 서귀포시 칠십리로 214번길 35-1","openHours":"상시","maleToilets":8,"femaleToilets":7,"disabled":false,"diaperTable":true,"emergencyBell":true,"cctv":false,"managerTel":"0647606341","source":"public","category":"public"},{"id":"202465200000100636","name":"산지물 야외화장실","lat":33.264379,"lng":126.565029,"roadAddr":"제주특별자치도 중산간동로 7971-1(동홍동 1285)","openHours":"상시","maleToilets":2,"femaleToilets":2,"disabled":true,"diaperTable":false,"emergencyBell":true,"cctv":false,"managerTel":"0647604692","source":"public","category":"public"},{"id":"202465200000100409","name":"서귀포오일시장-사무실","lat":33.266521,"lng":126.57329,"roadAddr":"제주특별자치도 서귀포시 토평서로11번길 150 (동홍동)","openHours":"상시","maleToilets":3,"femaleToilets":2,"disabled":true,"diaperTable":true,"emergencyBell":true,"cctv":false,"managerTel":"0647602634","source":"public","category":"public"},{"id":"202465200000100617","name":"정방동주민센터 공중화장실","lat":33.24586,"lng":126.565104,"roadAddr":"제주특별자치도 서귀포시 태평로421번길 7","openHours":"09:00~18:00","maleToilets":5,"femaleToilets":2,"disabled":true,"diaperTable":true,"emergencyBell":true,"cctv":false,"managerTel":"0647604543","source":"public","category":"public"},{"id":"202465200000100412","name":"서귀포오일시장-2","lat":33.266521,"lng":126.57329,"roadAddr":"제주특별자치도 서귀포시 토평서로11번길 150 (동홍동)","openHours":"상시","maleToilets":4,"femaleToilets":3,"disabled":false,"diaperTable":false,"emergencyBell":true,"cctv":false,"managerTel":"0647602634","source":"public","category":"public"},{"id":"202465200000100297","name":"송산청소년문화의집","lat":33.245033,"lng":126.566006,"roadAddr":"제주특별자치도 서귀포시 소암로 4","openHours":"09:00~20:00","maleToilets":4,"femaleToilets":2,"disabled":false,"diaperTable":false,"emergencyBell":true,"cctv":false,"managerTel":"0647604891","source":"public","category":"public"},{"id":"202465200000100476","name":"동광공원 공중화장실","lat":33.257519,"lng":126.5766,"roadAddr":"제주특별자치도 서귀포시 동홍동 100-3","openHours":"상시","maleToilets":2,"femaleToilets":1,"disabled":false,"diaperTable":false,"emergencyBell":true,"cctv":false,"managerTel":"0647603193","source":"public","category":"public"},{"id":"202465200000100637","name":"동홍동 행정 복지센터","lat":33.257853,"lng":126.568919,"roadAddr":"제주특별자치도 동홍로 104","openHours":"09:00~18:00","maleToilets":18,"femaleToilets":10,"disabled":true,"diaperTable":false,"emergencyBell":true,"cctv":false,"managerTel":"0647604692","source":"public","category":"public"},{"id":"202465200000100295","name":"동홍청소년문화의집","lat":33.266285,"lng":126.567049,"roadAddr":"제주특별자치도 서귀포시 중산간동로 7950","openHours":"09:00~20:00","maleToilets":2,"femaleToilets":3,"disabled":true,"diaperTable":false,"emergencyBell":true,"cctv":false,"managerTel":"0647603476","source":"public","category":"public"},{"id":"202465200000100423","name":"청수빌딩(정원다방, 채플린)","lat":33.248276,"lng":126.566212,"roadAddr":"제주특별자치도 서귀포시 서귀동 204-2","openHours":"상시","maleToilets":3,"femaleToilets":1,"disabled":false,"diaperTable":false,"emergencyBell":true,"cctv":false,"managerTel":"0647606535","source":"public","category":"public"},{"id":"202465200000100619","name":"정모시쉼터 공중화장실2","lat":33.24634,"lng":126.571568,"roadAddr":"제주특별자치도 서귀포시 서귀동 109","openHours":"상시","maleToilets":2,"femaleToilets":3,"disabled":false,"diaperTable":false,"emergencyBell":true,"cctv":false,"managerTel":"0647604543","source":"public","category":"public"},{"id":"202465200000100289","name":"서귀포종합사회복지관","lat":33.249954,"lng":126.574223,"roadAddr":"제주특별자치도 서귀포시 태평로 512번길 9","openHours":"09:00~18:00","maleToilets":4,"femaleToilets":2,"disabled":true,"diaperTable":false,"emergencyBell":true,"cctv":true,"managerTel":"0647602524","source":"public","category":"public"},{"id":"202465200000100410","name":"서귀포오일시장-4 (주차빌딩)","lat":33.266521,"lng":126.57329,"roadAddr":"제주특별자치도 서귀포시 토평서로11번길 150 (동홍동)","openHours":"상시","maleToilets":3,"femaleToilets":5,"disabled":true,"diaperTable":true,"emergencyBell":true,"cctv":false,"managerTel":"0647602634","source":"public","category":"public"},{"id":"202465200000100434","name":"나드리마트","lat":33.257515,"lng":126.571829,"roadAddr":"제주특별자치도 서귀포시 동홍중앙로 77","openHours":"상시","maleToilets":2,"femaleToilets":1,"disabled":false,"diaperTable":false,"emergencyBell":false,"cctv":false,"managerTel":"0647606535","source":"public","category":"public"},{"id":"202465200000100446","name":"소남머리","lat":33.250951,"lng":126.604776,"roadAddr":"제주특별자치도 서귀포시 송산동 99-2","openHours":"상시","maleToilets":2,"femaleToilets":1,"disabled":false,"diaperTable":false,"emergencyBell":true,"cctv":false,"managerTel":"0647606535","source":"public","category":"public"},{"id":"202465200000100413","name":"서귀포오일시장-1","lat":33.266521,"lng":126.57329,"roadAddr":"제주특별자치도 서귀포시 토평서로11번길 150 (동홍동)","openHours":"상시","maleToilets":4,"femaleToilets":3,"disabled":false,"diaperTable":false,"emergencyBell":true,"cctv":false,"managerTel":"0647602634","source":"public","category":"public"},{"id":"202465200000100288","name":"서귀포시자기주도학습지원센터","lat":33.251295,"lng":126.570323,"roadAddr":"제주특별자치도 서귀포시 동홍중앙로7번길 19","openHours":"09:00~18:00","maleToilets":6,"femaleToilets":4,"disabled":true,"diaperTable":false,"emergencyBell":true,"cctv":false,"managerTel":"0647603962","source":"public","category":"public"},{"id":"202465200000100292","name":"서귀포시노인복지회관","lat":33.253988,"lng":126.570696,"roadAddr":"제주특별자치도 서귀포시 태평로537번길 40-9","openHours":"상시","maleToilets":4,"femaleToilets":1,"disabled":true,"diaperTable":false,"emergencyBell":true,"cctv":true,"managerTel":"0647602382","source":"public","category":"public"}]