[{"id":"202465200000100421","name":"보목동어촌계","lat":33.239646,"lng":126.607924,"roadAddr":"제주특별자치도 서귀포시 보목동 566-3","openHours":"상시","maleToilets":5,"femaleToilets":3,"disabled":false,"diaperTable":false,"emergencyBell":true,"cctv":false,"managerTel":"0647606535","source":"public","category":"public"},{"id":"202465200000100624","name":"쇠소깍 공영주차장 화장실","lat":33.254093,"lng":126.622297,"roadAddr":"제주특별자치도 서귀포시 하효동 990-1","openHours":"상시","maleToilets":10,"femaleToilets":8,"disabled":false,"diaperTable":false,"emergencyBell":true,"cctv":false,"managerTel":"0647604642","source":"public","category":"public"},{"id":"202465200000100511","name":"쇠소깍 공영","lat":33.254093,"lng":126.622297,"roadAddr":"제주특별자치도 서귀포시 하효동 990-1","openHours":"상시","maleToilets":10,"femaleToilets":8,"disabled":false,"diaperTable":false,"emergencyBell":true,"cctv":false,"managerTel":"0647603132","source":"public","category":"public"},{"id":"202465200000100343","name":"신례2리마을회관","lat":33.265096,"lng":126.640786,"roadAddr":"제주특별자치도 서귀포시 남원읍 공천포로 69-1","openHours":"상시","maleToilets":2,"femaleToilets":1,"disabled":false,"diaperTable":false,"emergencyBell":false,"cctv":false,"managerTel":"0647603943","source":"public","category":"public"},{"id":"202465200000100383","name":"동부도서관","lat":33.261758,"lng":126.608318,"roadAddr":"제주특별자치도 서귀포시 일주동로 8232(신효동)","openHours":"정시","maleToilets":10,"femaleToilets":6,"disabled":false,"diaperTable":false,"emergencyBell":false,"cctv":false,"managerTel":"0647603694","source":"public","category":"public"},{"id":"202465200000100445","name":"제지기오름","lat":33.241771,"lng":126.610079,"roadAddr":"제주특별자치도 서귀포시 보목동 275-1","openHours":"상시","maleToilets":3,"femaleToilets":2,"disabled":false,"diaperTable":false,"emergencyBell":true,"cctv":false,"managerTel":"0647606535","source":"public","category":"public"},{"id":"202465200000100681","name":"국립농산물품질관리원 제주지원 서귀포사무소","lat":33.265586,"lng":126.613548,"roadAddr":"제주특별자치도 서귀포시 신효중앙로17","openHours":"정시","maleToilets":4,"femaleToilets":3,"disabled":false,"diaperTable":false,"emergencyBell":false,"cctv":false,"managerTel":"0647354900","source":"public","category":"public"},{"id":"202465200000100623","name":"효돈동주민센터","lat":33.2632,"lng":126.615542,"roadAddr":"제주특별자치도 서귀포시 하효동 152-1","openHours":"정시","maleToilets":2,"femaleToilets":2,"disabled":false,"diaperTable":true,"emergencyBell":false,"cctv":false,"managerTel":"0647604627","source":"public","category":"public"},{"id":"202465200000100367","name":"효돈축구공원","lat":33.258365,"lng":126.610369,"roadAddr":"제주특별자치도 서귀포시 효돈순환로311-29","openHours":"상시","maleToilets":17,"femaleToilets":17,"disabled":false,"diaperTable":false,"emergencyBell":true,"cctv":false,"managerTel":"0647603319","source":"public","category":"public"},{"id":"202465200000100625","name":"쇠소깍 안내소 화장실","lat":33.251424,"lng":126.622285,"roadAddr":"제주특별자치도  서귀포시 하효동 997","openHours":"상시","maleToilets":2,"femaleToilets":1,"disabled":false,"diaperTable":false,"emergencyBell":true,"cctv":false,"managerTel":"0647604642","source":"public","category":"public"},{"id":"202465200000100626","name":"쇠소깍화장실(던킨앞)","lat":33.25225,"lng":126.623007,"roadAddr":"제주특별자치도  서귀포시 하효동 995","openHours":"상시","maleToilets":4,"femaleToilets":4,"disabled":false,"diaperTable":false,"emergencyBell":true,"cctv":false,"managerTel":"0647604642","source":"public","category":"public"},{"id":"202465200000100627","name":"하효항 화장실","lat":33.250583,"lng":126.620883,"roadAddr":"제주특별자치도  서귀포시 하효동 999","openHours":"상시","maleToilets":2,"femaleToilets":2,"disabled":false,"diaperTable":false,"emergencyBell":true,"cctv":false,"managerTel":"0647604642","source":"public","category":"public"},{"id":"202465200000100308","name":"하효청소년문화의집","lat":33.262019,"lng":126.618911,"roadAddr":"제주특별자치도 서귀포시 하효중앙로 132","openHours":"정시","maleToilets":2,"femaleToilets":1,"disabled":false,"diaperTable":false,"emergencyBell":true,"cctv":false,"managerTel":"0647604888","source":"public","category":"public"}]