[{"id":"202465200000100665","name":"성산일출봉","lat":33.462044,"lng":126.935294,"roadAddr":"제주특별자치도  서귀포시 성산읍 성산리 114-3","openHours":"정시","maleToilets":10,"femaleToilets":11,"disabled":false,"diaperTable":true,"emergencyBell":true,"cctv":false,"managerTel":"0647107922","source":"public","category":"public"},{"id":"202465200000100664","name":"성산일출봉","lat":33.462959,"lng":126.936159,"roadAddr":"제주특별자치도  서귀포시 성산읍 성산리 102-1","openHours":"정시","maleToilets":19,"femaleToilets":14,"disabled":false,"diaperTable":false,"emergencyBell":true,"cctv":false,"managerTel":"0647107922","source":"public","category":"public"},{"id":"202465200000100583","name":"오조 올레(펌프장)","lat":33.462555,"lng":126.91478,"roadAddr":"제주특별자치도 서귀포시 성산읍 오조리 258지선","openHours":"상시","maleToilets":4,"femaleToilets":4,"disabled":false,"diaperTable":false,"emergencyBell":true,"cctv":false,"managerTel":"0647604262","source":"public","category":"public"},{"id":"202465200000100417","name":"성산포항 공중화장실","lat":33.472928,"lng":126.934506,"roadAddr":"제주특별자치도 서귀포시 성산읍 성산등용로 130-21","openHours":"상시","maleToilets":4,"femaleToilets":4,"disabled":true,"diaperTable":false,"emergencyBell":true,"cctv":false,"managerTel":"0647602765","source":"public","category":"public"},{"id":"202465200000100582","name":"오조 한도교","lat":33.469025,"lng":126.923372,"roadAddr":"제주특별자치도 서귀포시 성산읍 오조리 2-4","openHours":"상시","maleToilets":2,"femaleToilets":2,"disabled":false,"diaperTable":false,"emergencyBell":true,"cctv":false,"managerTel":"0647604262","source":"public","category":"public"},{"id":"202465200000100585","name":"갑문소공원(한도교화장실)","lat":33.467764,"lng":126.929149,"roadAddr":"제주특별자치도 서귀포시 성산읍 성산등용로 65","openHours":"상시","maleToilets":5,"femaleToilets":5,"disabled":false,"diaperTable":false,"emergencyBell":true,"cctv":false,"managerTel":"0647604281","source":"public","category":"public"},{"id":"202465200000100416","name":"성산포항여객터미널","lat":33.472928,"lng":126.934506,"roadAddr":"제주특별자치도 서귀포시 성산읍 성산등용로 130-21","openHours":"정시","maleToilets":35,"femaleToilets":43,"disabled":true,"diaperTable":false,"emergencyBell":true,"cctv":false,"managerTel":"0647602765","source":"public","category":"public"},{"id":"202465200000100519","name":"성산보건지소","lat":33.446555,"lng":126.915748,"roadAddr":"제주특별자치도 서귀포시 성산읍 고성오조로 42","openHours":"정시","maleToilets":6,"femaleToilets":6,"disabled":false,"diaperTable":true,"emergencyBell":false,"cctv":false,"managerTel":"0647606151","source":"public","category":"public"},{"id":"202465200000100331","name":"쏠레민박","lat":33.470127,"lng":126.93012,"roadAddr":"제주특별자치도 서귀포시 성산읍 성산등용로 96-1","openHours":"정시","maleToilets":1,"femaleToilets":0,"disabled":false,"diaperTable":false,"emergencyBell":false,"cctv":false,"managerTel":"0647603943","source":"public","category":"public"},{"id":"202465200000100588","name":"오조리 올레길 공중화장실","lat":33.462076,"lng":126.919243,"roadAddr":"제주특별자치도 서귀포시 성산읍 오조리 214","openHours":"상시","maleToilets":2,"femaleToilets":2,"disabled":false,"diaperTable":false,"emergencyBell":true,"cctv":false,"managerTel":"0647604262","source":"public","category":"public"},{"id":"202465200000100330","name":"충남식당","lat":33.469835,"lng":126.930052,"roadAddr":"제주특별자치도 서귀포시 성산읍 성산등용로 94","openHours":"정시","maleToilets":1,"femaleToilets":0,"disabled":false,"diaperTable":false,"emergencyBell":false,"cctv":false,"managerTel":"0647603943","source":"public","category":"public"},{"id":"202465200000100332","name":"오조리사무소","lat":33.461486,"lng":126.914987,"roadAddr":"제주특별자치도 서귀포시 성산읍 오조로 85","openHours":"정시","maleToilets":2,"femaleToilets":0,"disabled":false,"diaperTable":false,"emergencyBell":false,"cctv":false,"managerTel":"0647603943","source":"public","category":"public"}]