[{"id":"202465100000101430","name":"오봉리 전흘동 광장","lat":33.519128,"lng":126.950347,"jibunAddr":"제주특별자치도 제주시 우도면 연평리 890-2","openHours":"상시","maleToilets":3,"femaleToilets":3,"disabled":true,"diaperTable":true,"emergencyBell":true,"cctv":false,"managerTel":"0647284342","source":"public","category":"public"},{"id":"202465100000101429","name":"천진항","lat":33.494617,"lng":126.950122,"roadAddr":"제주특별자치도 제주시 우도해안길 94-4","jibunAddr":"제주특별자치도 제주시 우도면 연평리 1789-1번지선","openHours":"상시","maleToilets":3,"femaleToilets":3,"disabled":true,"diaperTable":true,"emergencyBell":true,"cctv":false,"managerTel":"0647284342","source":"public","category":"public"},{"id":"202465100000101422","name":"도항선 대합실","lat":33.492805,"lng":126.951541,"roadAddr":"제주특별자치도 제주시 우도해안길 70","jibunAddr":"제주특별자치도 제주시 우도면 연평리 1737-13","openHours":"상시","maleToilets":5,"femaleToilets":2,"disabled":true,"diaperTable":false,"emergencyBell":true,"cctv":false,"managerTel":"0647284342","source":"public","category":"public"},{"id":"202465100000101424","name":"산호사","lat":33.501902,"lng":126.943806,"jibunAddr":"제주특별자치도 제주시 우도면 연평리 2565","openHours":"상시","maleToilets":3,"femaleToilets":2,"disabled":false,"diaperTable":false,"emergencyBell":true,"cctv":false,"managerTel":"0647284342","source":"public","category":"public"},{"id":"202465100000101426","name":"하고수동 탈의장","lat":33.513858,"lng":126.957347,"roadAddr":"제주특별자치도 제주시 우도해안길 807","jibunAddr":"제주특별자치도 제주시 우도면 연평리 1185-5","openHours":"상시","maleToilets":2,"femaleToilets":2,"disabled":true,"diaperTable":false,"emergencyBell":true,"cctv":false,"managerTel":"0647284342","source":"public","category":"public"},{"id":"202465100000101416","name":"홍조단괴 탈의장(서빈백사)","lat":33.503027,"lng":126.943312,"roadAddr":"제주특별자치도 제주시 우도해안길 256","jibunAddr":"제주특별자치도 제주시 우도면 연평리 2512-3","openHours":"상시","maleToilets":5,"femaleToilets":5,"disabled":true,"diaperTable":false,"emergencyBell":true,"cctv":false,"managerTel":"0647284342","source":"public","category":"public"},{"id":"202465100000101642","name":"우도 주민자치센터","lat":33.507153,"lng":126.955873,"roadAddr":"제주특별자치도 제주시 영일진사길 15-5","openHours":"09:00~18:00","maleToilets":3,"femaleToilets":4,"disabled":true,"diaperTable":false,"emergencyBell":false,"cctv":false,"source":"public","category":"public"},{"id":"202465100000101423","name":"톨칸이","lat":33.491531,"lng":126.956232,"jibunAddr":"제주특별자치도 제주시 우도면 연평리 1723","openHours":"상시","maleToilets":2,"femaleToilets":2,"disabled":false,"diaperTable":false,"emergencyBell":true,"cctv":false,"managerTel":"0647284342","source":"public","category":"public"},{"id":"202465100000101643","name":"우도 생활문화센터","lat":33.507153,"lng":126.955873,"roadAddr":"제주특별자치도 제주시 우도면 영일진사길 15-5","jibunAddr":"제주특별자치도 제주시 우도면 연평리 1393","openHours":"09:00~18:00","maleToilets":4,"femaleToilets":4,"disabled":true,"diaperTable":false,"emergencyBell":false,"cctv":false,"source":"public","category":"public"},{"id":"202465100000101415","name":"하우목동항","lat":33.509712,"lng":126.943122,"roadAddr":"제주특별자치도 제주시 우도해안길 353","jibunAddr":"제주특별자치도 제주시 우도면 연평리 2391-1","openHours":"상시","maleToilets":5,"femaleToilets":3,"disabled":true,"diaperTable":false,"emergencyBell":true,"cctv":false,"managerTel":"0647284342","source":"public","category":"public"},{"id":"202465100000101641","name":"우도면","lat":33.506471,"lng":126.952978,"roadAddr":"제주특별자치도 제주시 우도로 153","openHours":"09:00~18:00","maleToilets":10,"femaleToilets":3,"disabled":false,"diaperTable":false,"emergencyBell":false,"cctv":true,"source":"public","category":"public"}]