[{"id":"202465100000101412","name":"대서광장(공연장)","lat":33.962674,"lng":126.295629,"roadAddr":"제주특별자치도 제주시 추자로 37","jibunAddr":"제주특별자치도 제주시 추자면 대서리 147-5지선","openHours":"상시","maleToilets":3,"femaleToilets":0,"disabled":false,"diaperTable":true,"emergencyBell":true,"cctv":false,"managerTel":"0647284283","source":"public","category":"public"},{"id":"202465100000101408","name":"영흥리(광장)","lat":33.96004,"lng":126.297518,"roadAddr":"제주특별자치도 제주시 추자로 107","jibunAddr":"제주특별자치도 제주시 추자면 영흥리 367-14","openHours":"상시","maleToilets":3,"femaleToilets":0,"disabled":false,"diaperTable":true,"emergencyBell":true,"cctv":false,"managerTel":"0647284283","source":"public","category":"public"},{"id":"202465100000101400","name":"등대공원","lat":33.958035,"lng":126.29839,"roadAddr":"제주특별자치도 제주시 추자면 영흥4길 46","openHours":"상시","maleToilets":3,"femaleToilets":0,"disabled":false,"diaperTable":true,"emergencyBell":true,"cctv":false,"managerTel":"0647284283","source":"public","category":"public"},{"id":"202465100000101393","name":"봉글레산","lat":33.963952,"lng":126.290065,"jibunAddr":"제주특별자치도 제주시 추자면 대서리 산175","openHours":"상시","maleToilets":2,"femaleToilets":1,"disabled":false,"diaperTable":false,"emergencyBell":false,"cctv":false,"managerTel":"0647284283","source":"public","category":"public"},{"id":"202465100000101398","name":"후포 해안변 공원","lat":33.962342,"lng":126.289542,"roadAddr":"제주특별자치도 제주시 추자면 대서 5길 87","openHours":"상시","maleToilets":5,"femaleToilets":0,"disabled":false,"diaperTable":true,"emergencyBell":true,"cctv":false,"managerTel":"0647284283","source":"public","category":"public"},{"id":"202465100000101392","name":"메지박","lat":33.96464,"lng":126.285776,"jibunAddr":"제주특별자치도 제주시 추자면 대서리 365","openHours":"상시","maleToilets":3,"femaleToilets":0,"disabled":false,"diaperTable":false,"emergencyBell":false,"cctv":false,"managerTel":"0647284283","source":"public","category":"public"},{"id":"202465100000101391","name":"목게","lat":33.961219,"lng":126.286638,"jibunAddr":"제주특별자치도 제주시 추자면 대서리 산186","openHours":"상시","maleToilets":3,"femaleToilets":0,"disabled":false,"diaperTable":true,"emergencyBell":true,"cctv":false,"managerTel":"0647284283","source":"public","category":"public"},{"id":"202465100000101397","name":"상추자대합실","lat":33.962506,"lng":126.297481,"roadAddr":"제주특별자치도 제주시 추자면 추자로 3","openHours":"상시","maleToilets":13,"femaleToilets":0,"disabled":true,"diaperTable":true,"emergencyBell":true,"cctv":false,"managerTel":"0647284283","source":"public","category":"public"},{"id":"202465100000101406","name":"대서광장","lat":33.961983,"lng":126.29426,"jibunAddr":"제주특별자치도 제주시 추자면 대서리 147-16","openHours":"상시","maleToilets":5,"femaleToilets":0,"disabled":false,"diaperTable":true,"emergencyBell":true,"cctv":false,"managerTel":"0647284283","source":"public","category":"public"},{"id":"202465100000101640","name":"추자면","lat":33.963531,"lng":126.296078,"roadAddr":"제주특별자치도 제주시 추자로 26","openHours":"09:00~18:00","maleToilets":5,"femaleToilets":4,"disabled":true,"diaperTable":false,"emergencyBell":false,"cctv":false,"source":"public","category":"public"},{"id":"202665100000100025","name":"추자청소년문화의집","lat":33.961363,"lng":126.293094,"roadAddr":"제주특별자치도 제주시 추자면 대서6길 30, 추자청소년문화의집","jibunAddr":"제주특별자치도 제주시 추자면 대서리 173-5 추자청소년문화의집","openHours":"(평일)09:00~20:00+(주말)09:00~18:00)","maleToilets":4,"femaleToilets":2,"disabled":false,"diaperTable":false,"emergencyBell":false,"cctv":false,"source":"public","category":"public"}]