[{"id":"202459050000100180","name":"용호항","lat":34.435479,"lng":126.345931,"roadAddr":"전남광주통합특별시 진도군 고군면 금계리","jibunAddr":"전남광주통합특별시 진도군 고군면 금계리 7-7","openHours":"상시","maleToilets":3,"femaleToilets":2,"disabled":false,"diaperTable":false,"emergencyBell":false,"cctv":false,"source":"public","category":"public"},{"id":"202459050000100182","name":"회동주차장","lat":34.423303,"lng":126.344819,"roadAddr":"전남광주통합특별시 진도군 고군면 진도대로 1528","jibunAddr":"전남광주통합특별시 진도군 고군면 금계리 607-1","openHours":"상시","maleToilets":10,"femaleToilets":7,"disabled":false,"diaperTable":false,"emergencyBell":false,"cctv":false,"source":"public","category":"public"},{"id":"202459050000100183","name":"모나리주차장","lat":34.422422,"lng":126.345293,"roadAddr":"전남광주통합특별시 진도군 고군면 회동길 27","jibunAddr":"전남광주통합특별시 진도군 고군면 금계리 724-1","openHours":"상시","maleToilets":12,"femaleToilets":7,"disabled":true,"diaperTable":true,"emergencyBell":false,"cctv":false,"source":"public","category":"public"},{"id":"202459050000100184","name":"회동본부","lat":34.423112,"lng":126.34797,"roadAddr":"전남광주통합특별시 진도군 고군면 회동길 81-6","jibunAddr":"전남광주통합특별시 진도군 고군면 금계리 1212-15","openHours":"상시","maleToilets":18,"femaleToilets":12,"disabled":true,"diaperTable":true,"emergencyBell":true,"cctv":false,"source":"public","category":"public"},{"id":"202459050000100185","name":"뽕할머니상","lat":34.427224,"lng":126.351358,"roadAddr":"전남광주통합특별시 진도군 고군면 신비의바닷길148","jibunAddr":"전남광주통합특별시 진도군 고군면 금계리 92-5","openHours":"상시","maleToilets":10,"femaleToilets":10,"disabled":true,"diaperTable":true,"emergencyBell":true,"cctv":false,"source":"public","category":"public"},{"id":"202459050000100186","name":"해안도로입구","lat":34.43766,"lng":126.354875,"roadAddr":"전남광주통합특별시 진도군 고군면 신비의바닷길13","jibunAddr":"전남광주통합특별시 진도군 고군면 금계리 153-1","openHours":"상시","maleToilets":15,"femaleToilets":17,"disabled":true,"diaperTable":false,"emergencyBell":true,"cctv":false,"source":"public","category":"public"},{"id":"202459050000100187","name":"가계샤워장","lat":34.435479,"lng":126.345931,"roadAddr":"전남광주통합특별시 진도군고군면 금계리","jibunAddr":"전남광주통합특별시 진도군 고군면 금계리 153-2","openHours":"상시","maleToilets":22,"femaleToilets":10,"disabled":false,"diaperTable":true,"emergencyBell":false,"cctv":false,"source":"public","category":"public"},{"id":"202459050000100188","name":"가계주차장","lat":34.43766,"lng":126.354875,"roadAddr":"전남광주통합특별시 진도군 고군면 신비의바닷길13","jibunAddr":"전남광주통합특별시 진도군 고군면 금계리 153-1","openHours":"상시","maleToilets":19,"femaleToilets":10,"disabled":true,"diaperTable":true,"emergencyBell":false,"cctv":false,"source":"public","category":"public"}]