[{"id":"202458750000100390","name":"유토피아주유소","lat":34.751832,"lng":126.475023,"roadAddr":"전남광주통합특별시 영암군 삼호읍 녹색로 993","jibunAddr":"전남광주통합특별시 영암군 삼호읍 녹색로 993","openHours":"06:00~21:00","maleToilets":2,"femaleToilets":1,"disabled":false,"diaperTable":false,"emergencyBell":false,"cctv":false,"managerTel":"0614628877","source":"public","category":"public"},{"id":"202458750000100398","name":"해양주유소","lat":34.73604,"lng":126.511111,"roadAddr":"전남광주통합특별시 영암군 삼호읍 녹색로 1391-6","jibunAddr":"전남광주통합특별시 영암군 삼호읍 녹색로 1391-6","openHours":"06:00~21:00","maleToilets":3,"femaleToilets":2,"disabled":false,"diaperTable":false,"emergencyBell":false,"cctv":true,"managerTel":"0614640296","source":"public","category":"public"},{"id":"202458750000100401","name":"용앙주유소","lat":34.74618,"lng":126.476664,"roadAddr":"전남광주통합특별시 영암군 삼호읍 삼호중앙로 241","jibunAddr":"전남광주통합특별시 영암군 삼호읍 삼호중앙로 241","openHours":"06:00~21:00","maleToilets":2,"femaleToilets":2,"disabled":false,"diaperTable":false,"emergencyBell":false,"cctv":false,"managerTel":"0614625188","source":"public","category":"public"},{"id":"202458750000100389","name":"삼호농협주유소","lat":34.740941,"lng":126.492502,"roadAddr":"전남광주통합특별시 영암군 삼호읍 녹색로 1210","jibunAddr":"전남광주통합특별시 영암군 삼호읍 녹색로 1210","openHours":"06:00~21:00","maleToilets":4,"femaleToilets":2,"disabled":true,"diaperTable":false,"emergencyBell":false,"cctv":true,"managerTel":"0614615151","source":"public","category":"public"},{"id":"202458750000100452","name":"삼호보건지소","lat":34.74854,"lng":126.475218,"roadAddr":"전남광주통합특별시 영암군 삼호읍 세가래1길 10-6","jibunAddr":"전남광주통합특별시 영암군 삼호읍 세가래1길 10-6","openHours":"09:00~18:00","maleToilets":3,"femaleToilets":2,"disabled":true,"diaperTable":false,"emergencyBell":false,"cctv":false,"managerTel":"0614706524","source":"public","category":"public"}]