[{"id":"202457800000100500","name":"유달유원지 B(원형)","lat":34.78774,"lng":126.367328,"roadAddr":"전남광주통합특별시 목포시 해양대학로 59 (죽교동)","jibunAddr":"전남광주통합특별시 목포시 죽교동 465-142","openHours":"00:00~24:00","maleToilets":5,"femaleToilets":2,"disabled":false,"diaperTable":true,"emergencyBell":true,"cctv":true,"managerTel":"0612708433","source":"public","category":"public"},{"id":"202457800000100507","name":"북항주차장","lat":34.803019,"lng":126.367951,"roadAddr":"전남광주통합특별시 목포시 북항로 160 (죽교동)","jibunAddr":"전남광주통합특별시 목포시 죽교동 620-112","openHours":"00:00~24:00","maleToilets":5,"femaleToilets":5,"disabled":true,"diaperTable":false,"emergencyBell":true,"cctv":true,"managerTel":"0612708433","source":"public","category":"public"},{"id":"202457800000100508","name":"북항횟집거리","lat":34.804037,"lng":126.366908,"roadAddr":"전남광주통합특별시 목포시 북항로 176 (죽교동)","jibunAddr":"전남광주통합특별시 목포시 죽교동 620-225","openHours":"00:00~24:00","maleToilets":6,"femaleToilets":6,"disabled":false,"diaperTable":false,"emergencyBell":true,"cctv":true,"managerTel":"0612708433","source":"public","category":"public"},{"id":"202457800000100513","name":"국도시점놀이터(근대역사1관)","lat":34.787092,"lng":126.382018,"roadAddr":"전남광주통합특별시 목포시 영산로29번길 3 (대의동2가)","jibunAddr":"전남광주통합특별시 목포시 대의동2가 1-127","openHours":"00:00~24:00","maleToilets":3,"femaleToilets":3,"disabled":true,"diaperTable":false,"emergencyBell":true,"cctv":true,"managerTel":"0612708433","source":"public","category":"public"},{"id":"202457800000100517","name":"유달유원지 A(기와집형)","lat":34.788112,"lng":126.367169,"roadAddr":"전남광주통합특별시 목포시 해양대학로 65 (죽교동)","jibunAddr":"전남광주통합특별시 목포시 죽교동 465-20","openHours":"00:00~24:00","maleToilets":6,"femaleToilets":5,"disabled":true,"diaperTable":false,"emergencyBell":true,"cctv":true,"managerTel":"0612708433","source":"public","category":"public"},{"id":"202457800000100518","name":"서산동연희네","lat":34.781163,"lng":126.378294,"roadAddr":"전남광주통합특별시 목포시 해안로163번길 31-3 (금화동)","jibunAddr":"전남광주통합특별시 목포시 금화동 2-8","openHours":"00:00~24:00","maleToilets":3,"femaleToilets":2,"disabled":true,"diaperTable":true,"emergencyBell":true,"cctv":true,"managerTel":"0612708433","source":"public","category":"public"},{"id":"202457800000100522","name":"노적봉주차장화장실","lat":34.789061,"lng":126.381252,"roadAddr":"전남광주통합특별시 목포시 노적봉길 45, 노적봉 (측후동)","jibunAddr":"전남광주통합특별시 목포시 측후동 4 노적봉","openHours":"00:00~24:00","maleToilets":7,"femaleToilets":7,"disabled":true,"diaperTable":false,"emergencyBell":true,"cctv":false,"managerTel":"0612708374","source":"public","category":"public"},{"id":"202457800000100525","name":"목포세무서","lat":34.792708,"lng":126.384614,"roadAddr":"전남광주통합특별시 목포시 호남로58번길 19 (대안동)","jibunAddr":"전남광주통합특별시 목포시 대안동 3-2","openHours":"09:00~18:00","maleToilets":5,"femaleToilets":6,"disabled":true,"diaperTable":false,"emergencyBell":false,"cctv":false,"managerTel":"0612411200","source":"public","category":"public"},{"id":"202457800000100384","name":"유달산우체국","lat":34.787027,"lng":126.382578,"roadAddr":"전남광주통합특별시 목포시 영산로 33번길","openHours":"09:00~18:00","maleToilets":2,"femaleToilets":2,"disabled":false,"diaperTable":false,"emergencyBell":false,"cctv":false,"managerTel":"0612432003","source":"public","category":"public"},{"id":"202457800000100385","name":"유달동주민센터","lat":34.783461,"lng":126.380224,"roadAddr":"전남광주통합특별시 목포시 유동로 19, 유달동행정복지센터 (서산동)","jibunAddr":"전남광주통합특별시 목포시 서산동 2-25 유달동행정복지센터","openHours":"09:00~18:00","maleToilets":3,"femaleToilets":2,"disabled":true,"diaperTable":false,"emergencyBell":false,"cctv":false,"managerTel":"0612704725","source":"public","category":"public"},{"id":"202457800000100396","name":"역전파출소","lat":34.79038,"lng":126.385762,"roadAddr":"전남광주통합특별시 목포시 영산로 88-1 (호남동)","jibunAddr":"전남광주통합특별시 목포시 호남동 482","openHours":"00:00~24:00","maleToilets":2,"femaleToilets":2,"disabled":false,"diaperTable":false,"emergencyBell":false,"cctv":false,"managerTel":"0612441475","source":"public","category":"public"},{"id":"202457800000100397","name":"양동우체국","lat":34.797807,"lng":126.380134,"roadAddr":"전남광주통합특별시 목포시 북항로 30, 목포양동우체국 (양동)","jibunAddr":"전남광주통합특별시 목포시 양동 144-7 목포양동우체국","openHours":"09:00~18:00","maleToilets":2,"femaleToilets":2,"disabled":false,"diaperTable":false,"emergencyBell":false,"cctv":false,"managerTel":"0612425205","source":"public","category":"public"},{"id":"202457800000100527","name":"목포상공회의소","lat":34.785082,"lng":126.382113,"roadAddr":"전남광주통합특별시 목포시 해안로173번길 29, 상공회의소 (중동2가)","jibunAddr":"전남광주통합특별시 목포시 중동2가 1-1 상공회의소","openHours":"09:00~18:00","maleToilets":3,"femaleToilets":2,"disabled":true,"diaperTable":false,"emergencyBell":false,"cctv":false,"managerTel":"0612428581","source":"public","category":"public"},{"id":"202457800000100439","name":"달성각화장실","lat":34.789386,"lng":126.378168,"roadAddr":"전남광주통합특별시 목포시 달성각","jibunAddr":"전남광주통합특별시 목포시 죽교동 산 44","openHours":"00:00~24:00","maleToilets":2,"femaleToilets":2,"disabled":false,"diaperTable":false,"emergencyBell":true,"cctv":false,"managerTel":"0612708374","source":"public","category":"public"},{"id":"202457800000100440","name":"달성공원화장실","lat":34.793645,"lng":126.374041,"roadAddr":"전남광주통합특별시 목포시 달성공원","jibunAddr":"전남광주통합특별시 목포시 죽교동 185","openHours":"00:00~24:00","maleToilets":6,"femaleToilets":7,"disabled":true,"diaperTable":false,"emergencyBell":true,"cctv":false,"managerTel":"0612708374","source":"public","category":"public"},{"id":"202457800000100441","name":"대학루화장실","lat":34.788771,"lng":126.379737,"roadAddr":"전남광주통합특별시 목포시 대학루","jibunAddr":"전남광주통합특별시 목포시 죽교동 399-129","openHours":"00:00~24:00","maleToilets":4,"femaleToilets":6,"disabled":false,"diaperTable":false,"emergencyBell":true,"cctv":false,"managerTel":"0612708374","source":"public","category":"public"},{"id":"202457800000100443","name":"유달산주차장화장실","lat":34.789808,"lng":126.37891,"roadAddr":"전남광주통합특별시 목포시 유달산","jibunAddr":"전남광주통합특별시 목포시 죽교동 360-3","openHours":"00:00~24:00","maleToilets":1,"femaleToilets":2,"disabled":false,"diaperTable":false,"emergencyBell":true,"cctv":false,"managerTel":"0612708374","source":"public","category":"public"},{"id":"202457800000100444","name":"조각공원화장실","lat":34.795495,"lng":126.373897,"roadAddr":"전남광주통합특별시 목포시 조각공원","jibunAddr":"전남광주통합특별시 목포시 죽교동 113","openHours":"00:00~24:00","maleToilets":5,"femaleToilets":4,"disabled":true,"diaperTable":false,"emergencyBell":true,"cctv":false,"managerTel":"0612708374","source":"public","category":"public"},{"id":"202457800000100445","name":"죽교공원화장실","lat":34.797222,"lng":126.372028,"roadAddr":"전남광주통합특별시 목포시 유달로 321 (죽교동)","jibunAddr":"전남광주통합특별시 목포시 죽교동 30-5","openHours":"00:00~24:00","maleToilets":2,"femaleToilets":1,"disabled":true,"diaperTable":false,"emergencyBell":true,"cctv":false,"managerTel":"0612708374","source":"public","category":"public"},{"id":"202457800000100446","name":"유선각화장실","lat":34.780987,"lng":126.380083,"roadAddr":"전남광주통합특별시 목포시 해안로","jibunAddr":"전남광주통합특별시 목포시 죽교동 403-6","openHours":"00:00~24:00","maleToilets":2,"femaleToilets":2,"disabled":false,"diaperTable":false,"emergencyBell":true,"cctv":false,"managerTel":"0612708374","source":"public","category":"public"},{"id":"202457800000100447","name":"어민동산화장실","lat":34.796122,"lng":126.368528,"roadAddr":"전남광주통합특별시 목포시 해양대학로 188 (죽교동)","jibunAddr":"전남광주통합특별시 목포시 죽교동 506-135","openHours":"00:00~24:00","maleToilets":3,"femaleToilets":2,"disabled":false,"diaperTable":false,"emergencyBell":true,"cctv":false,"managerTel":"0612708374","source":"public","category":"public"},{"id":"202457800000100452","name":"목포시보건소","lat":34.804423,"lng":126.373728,"roadAddr":"전남광주통합특별시 목포시 원산로45번길 5, 목포시보건소 (산정동)","jibunAddr":"전남광주통합특별시 목포시 산정동 1676 목포시보건소","openHours":"09:00~18:00","maleToilets":3,"femaleToilets":2,"disabled":true,"diaperTable":false,"emergencyBell":false,"cctv":false,"managerTel":"0612708911","source":"public","category":"public"},{"id":"202457800000100455","name":"북항물량장(2호,해경북항파출소)","lat":34.801544,"lng":126.363832,"roadAddr":"전남광주통합특별시 목포시 고하대로597번길 27 (죽교동)","jibunAddr":"전남광주통합특별시 목포시 죽교동 549-44","openHours":"00:00~24:00","maleToilets":5,"femaleToilets":3,"disabled":false,"diaperTable":false,"emergencyBell":false,"cctv":true,"managerTel":"0612708433","source":"public","category":"public"},{"id":"202457800000100497","name":"연안여객선터미널1층","lat":34.782131,"lng":126.384297,"roadAddr":"전남광주통합특별시 목포시 해안로 182, 목포항연안여객터미널 (항동)","jibunAddr":"전남광주통합특별시 목포시 항동 6-10 목포항연안여객터미널","openHours":"00:00~24:00","maleToilets":6,"femaleToilets":3,"disabled":true,"diaperTable":false,"emergencyBell":true,"cctv":true,"managerTel":"0612708433","source":"public","category":"public"},{"id":"202457800000100498","name":"인어바위","lat":34.782296,"lng":126.368739,"roadAddr":"전남광주통합특별시 목포시 해안로 25 (온금동)","jibunAddr":"전남광주통합특별시 목포시 온금동 165-16","openHours":"00:00~24:00","maleToilets":5,"femaleToilets":5,"disabled":true,"diaperTable":false,"emergencyBell":true,"cctv":true,"managerTel":"0612708433","source":"public","category":"public"},{"id":"202457800000100409","name":"산정파출소","lat":34.804049,"lng":126.384609,"roadAddr":"전남광주통합특별시 목포시 마파지로 90, 산정지구대 (산정동)","jibunAddr":"전남광주통합특별시 목포시 산정동 178-5 산정지구대","openHours":"00:00~24:00","maleToilets":2,"femaleToilets":2,"disabled":false,"diaperTable":false,"emergencyBell":false,"cctv":false,"managerTel":"0612733474","source":"public","category":"public"},{"id":"202457800000100421","name":"목포해상케이블카고하도스테이션","lat":34.774388,"lng":126.360715,"roadAddr":"전남광주통합특별시 목포시 고하도안길 186 (달동)","jibunAddr":"전남광주통합특별시 목포시 달동 산 191-3","openHours":"08:00~20:00","maleToilets":11,"femaleToilets":20,"disabled":true,"diaperTable":false,"emergencyBell":false,"cctv":true,"managerTel":"0612442600","source":"public","category":"public"},{"id":"202457800000100422","name":"목포해상케이블카 북항스테이션","lat":34.79949,"lng":126.370028,"roadAddr":"전남광주통합특별시 목포시 해양대학로 240 (죽교동)","jibunAddr":"전남광주통합특별시 목포시 죽교동 516-66","openHours":"08:00~20:00","maleToilets":13,"femaleToilets":20,"disabled":true,"diaperTable":false,"emergencyBell":false,"cctv":true,"managerTel":"0612442600","source":"public","category":"public"},{"id":"202457800000100423","name":"목포해상케이블카 유달산승강장","lat":34.788722,"lng":126.379423,"roadAddr":"전남광주통합특별시 목포시 유달로 119-1, 유달산승강장 (온금동)","jibunAddr":"전남광주통합특별시 목포시 온금동 6-13 유달산승강장","openHours":"08:00~20:00","maleToilets":7,"femaleToilets":16,"disabled":true,"diaperTable":false,"emergencyBell":false,"cctv":true,"managerTel":"0612442600","source":"public","category":"public"},{"id":"202457800000100424","name":"목포항국제여객선터미널","lat":34.780441,"lng":126.382356,"roadAddr":"전남광주통합특별시 목포시 해안로148번길 14, 목포국제여객터미널 (해안동1가)","jibunAddr":"전남광주통합특별시 목포시 해안동1가 10-6 목포국제여객터미널","openHours":"00:00~24:00","maleToilets":14,"femaleToilets":16,"disabled":true,"diaperTable":false,"emergencyBell":false,"cctv":false,"managerTel":"0612406060","source":"public","category":"public"},{"id":"202457800000100427","name":"목포지방해양수산청(북항분실)","lat":34.804314,"lng":126.365583,"roadAddr":"전남광주통합특별시 목포시 북항로181번길 6-1","openHours":"00:00~23:00","maleToilets":3,"femaleToilets":2,"disabled":true,"diaperTable":false,"emergencyBell":false,"cctv":false,"managerTel":"0612801608","source":"public","category":"public"},{"id":"202457800000100364","name":"한국은행","lat":34.792621,"lng":126.386043,"roadAddr":"전남광주통합특별시 목포시 영산로 109 (명륜동)","jibunAddr":"전남광주통합특별시 목포시 명륜동 3-1","openHours":"09:00~18:00","maleToilets":3,"femaleToilets":2,"disabled":true,"diaperTable":false,"emergencyBell":false,"cctv":false,"managerTel":"0612411000","source":"public","category":"public"},{"id":"202657800000100001","name":"북항어선물양장","lat":34.801028,"lng":126.356081,"roadAddr":"전남광주통합특별시 목포시 고하대로597번길 122-5 (죽교동)","jibunAddr":"전남광주통합특별시 목포시 죽교동 692-1","openHours":"00:00~24:00","maleToilets":4,"femaleToilets":4,"disabled":true,"diaperTable":false,"emergencyBell":true,"cctv":false,"managerTel":"0612801608","source":"public","category":"public"},{"id":"202457800000100374","name":"창평우체국","lat":34.792726,"lng":126.38373,"roadAddr":"전남광주통합특별시 목포시 수문로20번길 10, 창평동우체국 (창평동)","jibunAddr":"전남광주통합특별시 목포시 창평동 10-7 창평동우체국","openHours":"09:00~17:00","maleToilets":2,"femaleToilets":2,"disabled":false,"diaperTable":false,"emergencyBell":false,"cctv":false,"managerTel":"0612429205","source":"public","category":"public"},{"id":"202457800000100546","name":"국립호남권생물자원관야외화장실","lat":34.766942,"lng":126.366391,"roadAddr":"전남광주통합특별시 목포시 고하도안길 99, 국립호남권생물자원관 (달동)","jibunAddr":"전남광주통합특별시 목포시 달동 1357 국립호남권생물자원관","openHours":"09:30~17:30","maleToilets":4,"femaleToilets":5,"disabled":true,"diaperTable":false,"emergencyBell":false,"cctv":true,"managerTel":"0612887836","source":"public","category":"public"},{"id":"202457800000100305","name":"S-OIL 청호주유소","lat":34.802369,"lng":126.378173,"roadAddr":"전남광주통합특별시 목포시 청호로 110-1 (산정동)","jibunAddr":"전남광주통합특별시 목포시 산정동 1785-9","openHours":"06:00~22:00","maleToilets":3,"femaleToilets":2,"disabled":false,"diaperTable":false,"emergencyBell":false,"cctv":false,"managerTel":"0612725189","source":"public","category":"public"},{"id":"202457800000100549","name":"국립목포검역소","lat":34.784049,"lng":126.383173,"roadAddr":"전남광주통합특별시 목포시 해안로177번길 20, 목포검역소 (항동)","jibunAddr":"전남광주통합특별시 목포시 항동 6-15 목포검역소","openHours":"09:00~18:00","maleToilets":3,"femaleToilets":2,"disabled":true,"diaperTable":false,"emergencyBell":false,"cctv":false,"managerTel":"0612440941","source":"public","category":"public"},{"id":"202457800000100552","name":"119 경동안전센터","lat":34.785577,"lng":126.38069,"roadAddr":"전남광주통합특별시 목포시 유동로42번길 1, 경동119안전센터 (경동2가)","jibunAddr":"전남광주통합특별시 목포시 경동2가 1-2 경동119안전센터","openHours":"09:00~18:00","maleToilets":3,"femaleToilets":2,"disabled":true,"diaperTable":false,"emergencyBell":false,"cctv":false,"managerTel":"0612800931","source":"public","category":"public"},{"id":"202457800000100553","name":"목포문화원","lat":34.788858,"lng":126.386192,"roadAddr":"전남광주통합특별시 목포시 해안로249번길 34 (상락동1가)","jibunAddr":"전남광주통합특별시 목포시 상락동1가 10-2","openHours":"09:00~18:00","maleToilets":3,"femaleToilets":2,"disabled":true,"diaperTable":false,"emergencyBell":false,"cctv":false,"managerTel":"0612440044","source":"public","category":"public"},{"id":"202457800000100375","name":"중앙파출소","lat":34.794618,"lng":126.379913,"roadAddr":"전남광주통합특별시 목포시 영산로121번길 61 (남교동)","jibunAddr":"전남광주통합특별시 목포시 남교동 11-2","openHours":"00:00~24:00","maleToilets":2,"femaleToilets":2,"disabled":false,"diaperTable":false,"emergencyBell":false,"cctv":false,"managerTel":"0612441292","source":"public","category":"public"},{"id":"202457800000100376","name":"죽교파출소","lat":34.801039,"lng":126.37172,"roadAddr":"전남광주통합특별시 목포시 북항로 117, 죽교파출소 (죽교동)","jibunAddr":"전남광주통합특별시 목포시 죽교동 580-50 죽교파출소","openHours":"00:00~24:00","maleToilets":2,"femaleToilets":2,"disabled":false,"diaperTable":false,"emergencyBell":false,"cctv":false,"managerTel":"0612441365","source":"public","category":"public"},{"id":"202457800000100377","name":"죽교동주민센터","lat":34.79981,"lng":126.375077,"roadAddr":"전남광주통합특별시 목포시 북항로81번길 6, 죽교동행정복지센터 (죽교동)","jibunAddr":"전남광주통합특별시 목포시 죽교동 39-2 죽교동행정복지센터","openHours":"00:00~23:00","maleToilets":3,"femaleToilets":2,"disabled":true,"diaperTable":false,"emergencyBell":false,"cctv":false,"managerTel":"0612704745","source":"public","category":"public"},{"id":"202457800000100378","name":"죽교동우체국","lat":34.803883,"lng":126.373739,"roadAddr":"전남광주통합특별시 목포시 원산로 39, 목포죽교동우체국 (산정동)","jibunAddr":"전남광주통합특별시 목포시 산정동 1676-1 목포죽교동우체국","openHours":"09:00~18:00","maleToilets":2,"femaleToilets":2,"disabled":false,"diaperTable":false,"emergencyBell":false,"cctv":false,"managerTel":"0612744450","source":"public","category":"public"},{"id":"202457800000100338","name":"신안비치호텔","lat":34.785939,"lng":126.368504,"roadAddr":"전남광주통합특별시 목포시 해안로 2 (죽교동)","jibunAddr":"전남광주통합특별시 목포시 죽교동 440-4","openHours":"00:00~24:00","maleToilets":5,"femaleToilets":1,"disabled":false,"diaperTable":false,"emergencyBell":false,"cctv":false,"managerTel":"0612433399","source":"public","category":"public"},{"id":"202457800000100339","name":"신안주유소","lat":34.803652,"lng":126.366357,"roadAddr":"전남광주통합특별시 목포시 북항로 175 (죽교동)","jibunAddr":"전남광주통합특별시 목포시 죽교동 620-173","openHours":"06:00~22:00","maleToilets":3,"femaleToilets":2,"disabled":false,"diaperTable":false,"emergencyBell":false,"cctv":false,"managerTel":"0612430255","source":"public","category":"public"},{"id":"202457800000100399","name":"신안군교육지원청","lat":34.784508,"lng":126.38108,"roadAddr":"전남광주통합특별시 목포시 해안로165번길 25 (중동2가)","jibunAddr":"전남광주통합특별시 목포시 중동2가 6-1","openHours":"09:00~18:00","maleToilets":3,"femaleToilets":2,"disabled":true,"diaperTable":false,"emergencyBell":false,"cctv":false,"managerTel":"0612403656","source":"public","category":"public"},{"id":"202457800000100401","name":"서해어업관리단","lat":34.783815,"lng":126.383491,"roadAddr":"전남광주통합특별시 목포시 해안로 177번길 14","openHours":"09:00~18:00","maleToilets":3,"femaleToilets":2,"disabled":true,"diaperTable":false,"emergencyBell":false,"cctv":false,"managerTel":"0612407912","source":"public","category":"public"},{"id":"202457800000100301","name":"GS칼텍스 제일주유소","lat":34.804008,"lng":126.38341,"roadAddr":"전남광주통합특별시 목포시 양을로 75 (산정동)","jibunAddr":"전남광주통합특별시 목포시 산정동 183-14","openHours":"06:00~22:00","maleToilets":3,"femaleToilets":2,"disabled":false,"diaperTable":false,"emergencyBell":false,"cctv":false,"managerTel":"0612768855","source":"public","category":"public"},{"id":"202457800000100566","name":"엘아지빌딩","lat":34.791644,"lng":126.385721,"roadAddr":"전남광주통합특별시 목포시 영산로 101 (명륜동)","jibunAddr":"전남광주통합특별시 목포시 명륜동 5-1","openHours":"09:00~18:00","maleToilets":2,"femaleToilets":2,"disabled":false,"diaperTable":false,"emergencyBell":false,"cctv":false,"managerTel":"0612709000","source":"public","category":"public"},{"id":"202457800000100317","name":"대성주유소","lat":34.79833,"lng":126.381994,"roadAddr":"전남광주통합특별시 목포시 청호로 57 (대성동)","jibunAddr":"전남광주통합특별시 목포시 대성동 127-114","openHours":"06:00~22:00","maleToilets":3,"femaleToilets":2,"disabled":false,"diaperTable":false,"emergencyBell":false,"cctv":false,"managerTel":"0612454005","source":"public","category":"public"},{"id":"202457800000100323","name":"목포YMCA","lat":34.788855,"lng":126.384597,"roadAddr":"전남광주통합특별시 목포시 영산로 67-2 (무안동)","jibunAddr":"전남광주통합특별시 목포시 무안동 5-11","openHours":"09:00~19:30","maleToilets":2,"femaleToilets":2,"disabled":false,"diaperTable":false,"emergencyBell":false,"cctv":false,"managerTel":"0612438331","source":"public","category":"public"},{"id":"202457800000100362","name":"항동시장","lat":34.786135,"lng":126.385403,"roadAddr":"전남광주통합특별시 목포시 수강로12번길 1 (수강동2가)","jibunAddr":"전남광주통합특별시 목포시 수강동2가 2-8","openHours":"00:00~24:00","maleToilets":3,"femaleToilets":1,"disabled":false,"diaperTable":false,"emergencyBell":false,"cctv":false,"managerTel":"0612808647","source":"public","category":"public"},{"id":"202457800000100535","name":"목원동트윈스타","lat":34.793168,"lng":126.382906,"roadAddr":"전남광주통합특별시 목포시 수문로 32 (남교동)","jibunAddr":"전남광주통합특별시 목포시 남교동 164","openHours":"00:00~24:00","maleToilets":21,"femaleToilets":18,"disabled":true,"diaperTable":false,"emergencyBell":false,"cctv":false,"managerTel":"0612704625","source":"public","category":"public"},{"id":"202457800000100538","name":"대성동주민센터","lat":34.798951,"lng":126.383922,"roadAddr":"전남광주통합특별시 목포시 마파지로 18-5 (대성동)","jibunAddr":"전남광주통합특별시 목포시 대성동 27-23","openHours":"09:00~18:00","maleToilets":3,"femaleToilets":1,"disabled":false,"diaperTable":false,"emergencyBell":false,"cctv":false,"managerTel":"0612704625","source":"public","category":"public"},{"id":"202457800000100542","name":"근로복지공단 목포지사","lat":34.783677,"lng":126.381167,"roadAddr":"전남광주통합특별시 목포시 해안로165번길 17-2, 근로복지공단 (유동)","jibunAddr":"전남광주통합특별시 목포시 유동 9-1 근로복지공단","openHours":"09:00~18:00","maleToilets":2,"femaleToilets":2,"disabled":false,"diaperTable":false,"emergencyBell":false,"cctv":false,"managerTel":"06115880075","source":"public","category":"public"}]