[{"id":"202458900000100012","name":"법성포 숲쟁이공원","lat":35.364544,"lng":126.442579,"roadAddr":"전남광주통합특별시 영광군 법성명 숲쟁이길 8","jibunAddr":"전남광주통합특별시 영광군 법성면 진내리 114","openHours":"상시","maleToilets":8,"femaleToilets":6,"disabled":false,"diaperTable":false,"emergencyBell":true,"cctv":false,"managerTel":"0613505655","source":"public","category":"public"},{"id":"202458900000100014","name":"숲쟁이꽃동산제2주차장","lat":35.364474,"lng":126.436185,"roadAddr":"전남광주통합특별시 영광군 법성면 숲쟁이길 81","jibunAddr":"전남광주통합특별시 영광군 법성면 진내리 589-10","openHours":"상시","maleToilets":2,"femaleToilets":2,"disabled":false,"diaperTable":false,"emergencyBell":true,"cctv":false,"managerTel":"0613505655","source":"public","category":"public"},{"id":"202458900000100015","name":"백제불교최초도래지 팔각정화장실","lat":35.361945,"lng":126.431136,"roadAddr":"전남광주통합특별시 영광군 법성면 백제문화로 203","jibunAddr":"전남광주통합특별시 영광군 법성면 진내리 809","openHours":"상시","maleToilets":7,"femaleToilets":4,"disabled":false,"diaperTable":false,"emergencyBell":false,"cctv":false,"managerTel":"0613505655","source":"public","category":"public"},{"id":"202458900000100016","name":"백제불교최초도래지 간다라유물전시관화장실","lat":35.361821,"lng":126.431421,"roadAddr":"전남광주통합특별시 영광군 법성면 진내리 832","jibunAddr":"전남광주통합특별시 영광군 법성면 진내리 832","openHours":"상시","maleToilets":5,"femaleToilets":4,"disabled":false,"diaperTable":false,"emergencyBell":false,"cctv":false,"managerTel":"0613505655","source":"public","category":"public"},{"id":"202458900000100043","name":"법성포뉴타운 1교","lat":35.361192,"lng":126.44134,"roadAddr":"전남광주통합특별시 영광군 법성면 법성포로 7","jibunAddr":"전남광주통합특별시 영광군 법성면 법성리 1210-1","openHours":"상시","maleToilets":7,"femaleToilets":6,"disabled":true,"diaperTable":false,"emergencyBell":true,"cctv":false,"managerTel":"0613504941","source":"public","category":"public"},{"id":"202458900000100044","name":"법성포뉴타운 소공원","lat":35.358305,"lng":126.444975,"roadAddr":"전남광주통합특별시 영광군 법성면 법성포로 719","jibunAddr":"전남광주통합특별시 영광군 법성면 법성리 1229","openHours":"상시","maleToilets":7,"femaleToilets":6,"disabled":true,"diaperTable":false,"emergencyBell":true,"cctv":false,"managerTel":"0613504941","source":"public","category":"public"},{"id":"202458900000100045","name":"법성포뉴타운 2지구","lat":35.36038,"lng":126.433175,"roadAddr":"전남광주통합특별시 영광군 법성면 굴비로1길 101","jibunAddr":"전남광주통합특별시 영광군 법성면 진내리 1005","openHours":"상시","maleToilets":6,"femaleToilets":6,"disabled":true,"diaperTable":false,"emergencyBell":true,"cctv":false,"managerTel":"0613504941","source":"public","category":"public"}]