[{"id":"202446000000100034","name":"어사 공중화장실","lat":36.550405,"lng":126.466226,"roadAddr":"충청남도 홍성군 서부면 남당항로361번길9-13","jibunAddr":"충청남도 홍성군 서부면 어사리 732-25","openHours":"상시","maleToilets":5,"femaleToilets":4,"disabled":true,"diaperTable":true,"emergencyBell":true,"cctv":false,"managerTel":"0416309789","source":"public","category":"public"},{"id":"202446000000100031","name":"장동 공중화장실","lat":36.560852,"lng":126.470601,"roadAddr":"충청남도 홍성군 서부면 궁리포구자전거길596","jibunAddr":"충청남도 홍성군 서부면 거차리 405-38","openHours":"상시","maleToilets":3,"femaleToilets":2,"disabled":false,"diaperTable":false,"emergencyBell":false,"cctv":false,"managerTel":"0416309789","source":"public","category":"public"},{"id":"202446000000100033","name":"어사노을공원 공중화장실","lat":36.556225,"lng":126.468575,"roadAddr":"충청남도 홍성군 서부면 남당항자전거길51","jibunAddr":"충청남도 홍성군 서부면 어사리 490-1","openHours":"상시","maleToilets":5,"femaleToilets":4,"disabled":true,"diaperTable":true,"emergencyBell":true,"cctv":true,"managerTel":"0416309789","source":"public","category":"public"},{"id":"202446000000100042","name":"죽도(선착장) 공중화장실","lat":36.520602,"lng":126.439358,"roadAddr":"충청남도 홍성군 서부면 죽도길 121","jibunAddr":"충청남도 홍성군 서부면 죽도리 58","openHours":"상시","maleToilets":5,"femaleToilets":4,"disabled":true,"diaperTable":false,"emergencyBell":true,"cctv":false,"managerTel":"0416309789","source":"public","category":"public"},{"id":"202446000000100039","name":"남당항구(외항) 공중화장실","lat":36.534963,"lng":126.466932,"jibunAddr":"충청남도 홍성군 서부면 남당리 863-1","openHours":"상시","maleToilets":5,"femaleToilets":4,"disabled":true,"diaperTable":true,"emergencyBell":false,"cctv":true,"managerTel":"0416309789","source":"public","category":"public"},{"id":"202446000000100036","name":"남당1 공중화장실","lat":36.538831,"lng":126.472283,"roadAddr":"충청남도 홍성군 서부면 남당항로213번길1-1","jibunAddr":"충청남도 홍성군 서부면 남당리 859-3","openHours":"상시","maleToilets":10,"femaleToilets":10,"disabled":true,"diaperTable":true,"emergencyBell":true,"cctv":true,"managerTel":"0416309789","source":"public","category":"public"},{"id":"202446000000100032","name":"남당2 공중화장실","lat":36.541984,"lng":126.47189,"roadAddr":"충청남도 홍성군 서부면 남당항로241번길","jibunAddr":"충청남도 홍성군 서부면 남당리 578-2","openHours":"상시","maleToilets":10,"femaleToilets":10,"disabled":true,"diaperTable":true,"emergencyBell":true,"cctv":true,"managerTel":"0416309789","source":"public","category":"public"}]