[{"id":"202446200000100055","name":"영목전망대","lat":36.401947,"lng":126.422028,"roadAddr":"충청남도 태안군 고남면 안면대로 4506, 영목항전망대","jibunAddr":"충청남도 태안군 고남면 고남리 268-72 영목항전망대","openHours":"09:00~18:00","maleToilets":5,"femaleToilets":10,"disabled":true,"diaperTable":false,"emergencyBell":true,"cctv":false,"managerTel":"0416702761","source":"public","category":"public"},{"id":"202346200000100516","name":"고남생활체육관","lat":36.422573,"lng":126.403239,"roadAddr":"충청남도 태안군 고남면 옷점길 297","jibunAddr":"충청남도 태안군 고남면 고남리 2110-1","openHours":"상시","maleToilets":5,"femaleToilets":6,"disabled":true,"diaperTable":false,"emergencyBell":false,"cctv":false,"managerTel":"0416705594","source":"public","category":"public"},{"id":"202346200000100762","name":"영목항바다민박","lat":36.399923,"lng":126.425062,"roadAddr":"충청남도 태안군 고남면 영목항로 88","jibunAddr":"충청남도 태안군 고남면 고남리 359-9","openHours":"상시","maleToilets":3,"femaleToilets":3,"disabled":false,"diaperTable":false,"emergencyBell":false,"cctv":false,"managerTel":"0416705594","source":"public","category":"public"},{"id":"202346200000100764","name":"가경주항","lat":36.407348,"lng":126.411466,"roadAddr":"충청남도 태안군 고남면 가경주길 47-111","jibunAddr":"충청남도 태안군 고남면 고남리 474-2","openHours":"상시","maleToilets":2,"femaleToilets":2,"disabled":true,"diaperTable":false,"emergencyBell":false,"cctv":false,"managerTel":"0416702613","source":"public","category":"public"},{"id":"202346200000100515","name":"영목항첨단간이","lat":36.399558,"lng":126.427555,"roadAddr":"충청남도 태안군 고남면 영목항로 65","jibunAddr":"충청남도 태안군 고남면 고남리 334-66","openHours":"상시","maleToilets":5,"femaleToilets":5,"disabled":false,"diaperTable":true,"emergencyBell":false,"cctv":false,"managerTel":"0416705594","source":"public","category":"public"},{"id":"202346200000100761","name":"영목항수변공원","lat":36.400316,"lng":126.422309,"roadAddr":"충청남도 태안군 고남면 월고지길 8-23","jibunAddr":"충청남도 태안군 고남면 고남리 369-11","openHours":"상시","maleToilets":5,"femaleToilets":3,"disabled":true,"diaperTable":true,"emergencyBell":true,"cctv":false,"managerTel":"0416705594","source":"public","category":"public"},{"id":"202346200000100514","name":"영목항정류소","lat":36.40074,"lng":126.42622,"roadAddr":"충청남도 태안군 고남면 영목항로 30-23","jibunAddr":"충청남도 태안군 고남면 고남리 333","openHours":"상시","maleToilets":3,"femaleToilets":3,"disabled":false,"diaperTable":false,"emergencyBell":false,"cctv":false,"managerTel":"0416705594","source":"public","category":"public"},{"id":"202346200000100760","name":"고남소재지","lat":36.423656,"lng":126.4066,"roadAddr":"충청남도 태안군 고남면 옷점길 3, 공중화장실","jibunAddr":"충청남도 태안군 고남면 고남리 1234-2","openHours":"상시","maleToilets":4,"femaleToilets":3,"disabled":true,"diaperTable":true,"emergencyBell":true,"cctv":false,"managerTel":"0416705594","source":"public","category":"public"},{"id":"202346200000100763","name":"옷점항","lat":36.41477,"lng":126.397324,"roadAddr":"충청남도 태안군 고남면 옷점길 179","jibunAddr":"충청남도 태안군 고남면 고남리 1862-2","openHours":"상시","maleToilets":2,"femaleToilets":2,"disabled":true,"diaperTable":false,"emergencyBell":false,"cctv":false,"managerTel":"0416702613","source":"public","category":"public"}]