[{"id":"202445100000100983","name":"오천면사무소 공중화장실","lat":36.436622,"lng":126.523491,"roadAddr":"충청남도 보령시 오천면 솟재길 281","jibunAddr":"충청남도 보령시 오천면 소성리 496","openHours":"09:00~18:00","maleToilets":5,"femaleToilets":0,"disabled":false,"diaperTable":false,"emergencyBell":false,"cctv":false,"managerTel":"0419304601","source":"public","category":"public"},{"id":"202445100000100895","name":"충청수영성","lat":36.438597,"lng":126.521984,"roadAddr":"충청남도 보령시 오천면 소성안길 47","jibunAddr":"충청남도 보령시 오천면 소성리 691-59","openHours":"상시","maleToilets":4,"femaleToilets":0,"disabled":false,"diaperTable":false,"emergencyBell":true,"cctv":false,"managerTel":"0419304601","source":"public","category":"public"},{"id":"202445100000100992","name":"오천항 주차장 공중화장실","lat":36.439899,"lng":126.522097,"jibunAddr":"충청남도 보령시 오천면 소성리 691-2","openHours":"상시","maleToilets":5,"femaleToilets":1,"disabled":true,"diaperTable":false,"emergencyBell":false,"cctv":false,"managerTel":"0419304601","source":"public","category":"public"},{"id":"202445100000100993","name":"소성리 주택가 공중화장실","lat":36.438047,"lng":126.521267,"jibunAddr":"충청남도 보령시 오천면 소성리 691-110","openHours":"상시","maleToilets":2,"femaleToilets":0,"disabled":false,"diaperTable":false,"emergencyBell":false,"cctv":false,"managerTel":"0419304601","source":"public","category":"public"},{"id":"202445100000100982","name":"오천농협 공중화장실","lat":36.437826,"lng":126.522137,"roadAddr":"충청남도 보령시 오천면 충청수영로 829-1","jibunAddr":"충청남도 보령시 오천면 소성리 690-7","openHours":"09:00~18:00","maleToilets":4,"femaleToilets":0,"disabled":false,"diaperTable":false,"emergencyBell":false,"cctv":false,"managerTel":"0419304601","source":"public","category":"public"},{"id":"202445100000100663","name":"오천119안전센터 화장실","lat":36.437126,"lng":126.530348,"roadAddr":"충청남도 보령시 오천면 충청수영로 701","jibunAddr":"충청남도 보령시 오천면 소성리 136","openHours":"상시","maleToilets":2,"femaleToilets":1,"disabled":true,"diaperTable":true,"emergencyBell":false,"cctv":true,"managerTel":"0419300402","source":"public","category":"public"},{"id":"202445100000100990","name":"원전약수터 공중화장실","lat":36.438776,"lng":126.53091,"jibunAddr":"충청남도 보령시 오천면 소성리 880","openHours":"상시","maleToilets":2,"femaleToilets":0,"disabled":false,"diaperTable":false,"emergencyBell":false,"cctv":false,"managerTel":"0419304601","source":"public","category":"public"},{"id":"202445100000101000","name":"효성주유소 공중화장실","lat":36.450538,"lng":126.554607,"roadAddr":"충청남도 보령시 오천면 도미항로 375","jibunAddr":"충청남도 보령시 오천면 교성리 212-4","openHours":"상시","maleToilets":1,"femaleToilets":0,"disabled":false,"diaperTable":false,"emergencyBell":false,"cctv":false,"managerTel":"0419304601","source":"public","category":"public"},{"id":"202445100000100991","name":"오천항 공중화장실","lat":36.439235,"lng":126.520342,"jibunAddr":"충청남도 보령시 오천면 소성리 700-87","openHours":"상시","maleToilets":9,"femaleToilets":1,"disabled":true,"diaperTable":false,"emergencyBell":false,"cctv":false,"managerTel":"0419304601","source":"public","category":"public"},{"id":"202445100000100989","name":"선림사 공중화장실","lat":36.438229,"lng":126.549938,"roadAddr":"충청남도 보령시 오천면 충청수영로 521-63, 공중화장실","jibunAddr":"충청남도 보령시 오천면 소성리 5 공중화장실","openHours":"상시","maleToilets":2,"femaleToilets":0,"disabled":false,"diaperTable":false,"emergencyBell":false,"cctv":false,"managerTel":"0419304601","source":"public","category":"public"}]