[{"id":"202258450000100092","name":"염포야영장","lat":34.430214,"lng":127.494444,"roadAddr":"전남 고흥군 봉래면 우주로 3844","jibunAddr":"전남 고흥군 봉래면 외초리 311","openHours":"상시","maleToilets":10,"femaleToilets":6,"disabled":false,"diaperTable":false,"emergencyBell":true,"cctv":false,"managerTel":"0615545474","source":"public","category":"public"},{"id":"202258450000100094","name":"염포하촌물양장","lat":34.415619,"lng":127.492819,"roadAddr":"전남광주통합특별시 고흥군 봉래면 우주로 4049","jibunAddr":"전남광주통합특별시 고흥군 봉래면 외초리 산 309-3","openHours":"상시","maleToilets":4,"femaleToilets":2,"disabled":false,"diaperTable":false,"emergencyBell":true,"cctv":false,"managerTel":"0618305026","source":"public","category":"public"},{"id":"202258450000100095","name":"염포해수욕장","lat":34.433042,"lng":127.492503,"roadAddr":"전남광주통합특별시 고흥군 봉래면 우주로 3810-12","jibunAddr":"전남광주통합특별시 고흥군 봉래면 외초리 333-3","openHours":"상시","maleToilets":4,"femaleToilets":2,"disabled":false,"diaperTable":false,"emergencyBell":true,"cctv":false,"managerTel":"0618305696","source":"public","category":"public"},{"id":"202258450000100096","name":"봉래산시름재","lat":34.43215,"lng":127.522355,"jibunAddr":"전남 고흥군 봉래면 예내리 산87-11","openHours":"상시","maleToilets":3,"femaleToilets":3,"disabled":false,"diaperTable":false,"emergencyBell":false,"cctv":false,"managerTel":"0618305696","source":"public","category":"public"},{"id":"202258450000100097","name":"봉래산주차장","lat":34.45136,"lng":127.503397,"roadAddr":"전남광주통합특별시 고흥군 봉래면 하반로 240-42","jibunAddr":"전남광주통합특별시 고흥군 봉래면 예내리 산 212-18","openHours":"상시","maleToilets":2,"femaleToilets":2,"disabled":true,"diaperTable":false,"emergencyBell":true,"cctv":false,"managerTel":"0618305696","source":"public","category":"public"},{"id":"202458450000100039","name":"중촌선착장","lat":34.423535,"lng":127.492667,"roadAddr":"전남광주통합특별시 고흥군 봉래면 우주로 3944","jibunAddr":"전남광주통합특별시 고흥군 봉래면 외초리 249","openHours":"상시","maleToilets":4,"femaleToilets":3,"disabled":true,"diaperTable":false,"emergencyBell":false,"cctv":false,"managerTel":"0618305026","source":"public","category":"public"}]