[{"id":"202458700000100765","name":"농업기술센터","lat":34.558393,"lng":126.589677,"roadAddr":"전남광주통합특별시 해남군 해남읍 땅끝대로 77-22","jibunAddr":"전남광주통합특별시 해남군 해남읍 땅끝대로 77-22","openHours":"정시","maleToilets":13,"femaleToilets":7,"disabled":true,"diaperTable":false,"emergencyBell":false,"cctv":false,"source":"public","category":"public"},{"id":"202458700000100743","name":"한국병원","lat":34.566926,"lng":126.59573,"roadAddr":"전남광주통합특별시 해남군 해남읍 중앙2로 123 (고도리, 해남한국병원)","jibunAddr":"전남광주통합특별시 해남군 해남읍 중앙2로 123 (고도리, 해남한국병원)","openHours":"정시","maleToilets":3,"femaleToilets":1,"disabled":true,"diaperTable":false,"emergencyBell":false,"cctv":false,"source":"public","category":"public"},{"id":"202458700000100744","name":"하나로마트 해남농협","lat":34.571954,"lng":126.597234,"roadAddr":"전남광주통합특별시 해남군 해남읍 중앙1로 181 (성내리, 해남농협)","jibunAddr":"전남광주통합특별시 해남군 해남읍 중앙1로 181 (성내리, 해남농협)","openHours":"정시","maleToilets":6,"femaleToilets":4,"disabled":true,"diaperTable":false,"emergencyBell":false,"cctv":false,"source":"public","category":"public"},{"id":"202458700000100745","name":"현대장례식장","lat":34.578802,"lng":126.581799,"roadAddr":"전남광주통합특별시 해남군 해남읍 남부순환로 345 (용정리, 현대장례식장)","jibunAddr":"전남광주통합특별시 해남군 해남읍 남부순환로 345 (용정리, 현대장례식장)","openHours":"정시","maleToilets":7,"femaleToilets":3,"disabled":false,"diaperTable":false,"emergencyBell":false,"cctv":false,"source":"public","category":"public"},{"id":"202458700000100746","name":"국제장례식장","lat":34.574453,"lng":126.581225,"roadAddr":"전남광주통합특별시 해남군 해남읍 남부순환로 321-37 (용정리, 국제장례식장)","jibunAddr":"전남광주통합특별시 해남군 해남읍 남부순환로 321-37 (용정리, 국제장례식장)","openHours":"정시","maleToilets":2,"femaleToilets":2,"disabled":false,"diaperTable":false,"emergencyBell":false,"cctv":false,"source":"public","category":"public"},{"id":"202458700000100748","name":"천지주유소","lat":34.548163,"lng":126.576231,"roadAddr":"전남광주통합특별시 해남군 해남읍 해남화산로 139","jibunAddr":"전남광주통합특별시 해남군 해남읍 해남화산로 139","openHours":"정시","maleToilets":3,"femaleToilets":2,"disabled":false,"diaperTable":false,"emergencyBell":false,"cctv":false,"source":"public","category":"public"},{"id":"202458700000100749","name":"좋은주유소","lat":34.583322,"lng":126.570903,"roadAddr":"전남광주통합특별시 해남군 해남읍 명량로 2904","jibunAddr":"전남광주통합특별시 해남군 해남읍 명량로 2904","openHours":"정시","maleToilets":4,"femaleToilets":2,"disabled":true,"diaperTable":false,"emergencyBell":true,"cctv":false,"source":"public","category":"public"},{"id":"202458700000100750","name":"대흥주유소","lat":34.567949,"lng":126.605608,"roadAddr":"전남광주통합특별시 해남군 해남읍 남부순환로 38","jibunAddr":"전남광주통합특별시 해남군 해남읍 남부순환로 38","openHours":"정시","maleToilets":2,"femaleToilets":0,"disabled":false,"diaperTable":false,"emergencyBell":false,"cctv":false,"source":"public","category":"public"},{"id":"202458700000100751","name":"해남수협주유소","lat":34.556342,"lng":126.58492,"roadAddr":"전남광주통합특별시 해남군 해남읍 땅끝대로 141","jibunAddr":"전남광주통합특별시 해남군 해남읍 땅끝대로 141","openHours":"정시","maleToilets":3,"femaleToilets":1,"disabled":true,"diaperTable":false,"emergencyBell":false,"cctv":false,"source":"public","category":"public"},{"id":"202458700000100752","name":"호남주유소","lat":34.565166,"lng":126.600426,"roadAddr":"전남광주통합특별시 해남군 해남읍 남부순환로 102","jibunAddr":"전남광주통합특별시 해남군 해남읍 남부순환로 102","openHours":"정시","maleToilets":2,"femaleToilets":0,"disabled":false,"diaperTable":false,"emergencyBell":false,"cctv":false,"source":"public","category":"public"},{"id":"202458700000100753","name":"학동주유소","lat":34.580746,"lng":126.579664,"roadAddr":"전남광주통합특별시 해남군 해남읍 명량로 2994","jibunAddr":"전남광주통합특별시 해남군 해남읍 명량로 2994","openHours":"정시","maleToilets":3,"femaleToilets":2,"disabled":true,"diaperTable":false,"emergencyBell":false,"cctv":false,"source":"public","category":"public"},{"id":"202458700000100754","name":"해남농협주유소","lat":34.565973,"lng":126.604361,"roadAddr":"전남광주통합특별시 해남군 해남읍 남부순환로 64","jibunAddr":"전남광주통합특별시 해남군 해남읍 남부순환로 64","openHours":"정시","maleToilets":4,"femaleToilets":2,"disabled":true,"diaperTable":false,"emergencyBell":false,"cctv":false,"source":"public","category":"public"},{"id":"202458700000100755","name":"해남읍사무소","lat":34.565148,"lng":126.599188,"roadAddr":"전남광주통합특별시 해남군 해남읍 남부순환로 114","jibunAddr":"전남광주통합특별시 해남군 해남읍 남부순환로 114","openHours":"정시","maleToilets":7,"femaleToilets":3,"disabled":true,"diaperTable":false,"emergencyBell":false,"cctv":false,"source":"public","category":"public"},{"id":"202458700000100756","name":"축산사업소","lat":34.564852,"lng":126.587445,"roadAddr":"전남광주통합특별시 해남군 해남읍 용머리길 14-37","jibunAddr":"전남광주통합특별시 해남군 해남읍 용머리길 14-37","openHours":"정시","maleToilets":3,"femaleToilets":1,"disabled":false,"diaperTable":false,"emergencyBell":false,"cctv":false,"source":"public","category":"public"},{"id":"202458700000100660","name":"해남세무서 공중화장실","lat":34.571321,"lng":126.606145,"roadAddr":"전남광주통합특별시 해남군 해남읍 중앙1로 18, 해남세무서","jibunAddr":"전남광주통합특별시 해남군 해남읍 해리 441-1 해남세무서","openHours":"정시","maleToilets":20,"femaleToilets":20,"disabled":true,"diaperTable":false,"emergencyBell":false,"cctv":true,"source":"public","category":"public"},{"id":"202458700000100827","name":"5일시장(어물전)","lat":34.568258,"lng":126.596313,"roadAddr":"전남광주통합특별시 해남군 해남읍 중앙2로 100-2","jibunAddr":"전남광주통합특별시 해남군 해남읍 중앙2로 100-2","openHours":"정시","maleToilets":5,"femaleToilets":2,"disabled":false,"diaperTable":false,"emergencyBell":false,"cctv":false,"source":"public","category":"public"},{"id":"202458700000100828","name":"5일시장(주차장)","lat":34.568258,"lng":126.596313,"roadAddr":"전남광주통합특별시 해남군 해남읍 중앙2로 100-2","jibunAddr":"전남광주통합특별시 해남군 해남읍 중앙2로 100-2","openHours":"정시","maleToilets":3,"femaleToilets":2,"disabled":true,"diaperTable":false,"emergencyBell":false,"cctv":false,"source":"public","category":"public"},{"id":"202458700000100829","name":"5일시장(채소전)","lat":34.568258,"lng":126.596313,"roadAddr":"전남광주통합특별시 해남군 해남읍 중앙2로 100-2","jibunAddr":"전남광주통합특별시 해남군 해남읍 중앙2로 100-2","openHours":"정시","maleToilets":10,"femaleToilets":11,"disabled":true,"diaperTable":true,"emergencyBell":true,"cctv":true,"source":"public","category":"public"},{"id":"202458700000100830","name":"문화예술회관","lat":34.573238,"lng":126.599961,"roadAddr":"전남광주통합특별시 해남군 해남읍 군청길 4","jibunAddr":"전남광주통합특별시 해남군 해남읍 군청길 4","openHours":"정시","maleToilets":33,"femaleToilets":24,"disabled":true,"diaperTable":false,"emergencyBell":false,"cctv":false,"source":"public","category":"public"},{"id":"202458700000100831","name":"해남군청","lat":34.573238,"lng":126.599961,"roadAddr":"전남광주통합특별시 해남군 해남읍 군청길 4","jibunAddr":"전남광주통합특별시 해남군 해남읍 군청길 4","openHours":"정시","maleToilets":63,"femaleToilets":46,"disabled":true,"diaperTable":false,"emergencyBell":true,"cctv":false,"source":"public","category":"public"},{"id":"202458700000100834","name":"해남노인종합복지관","lat":34.575008,"lng":126.593845,"roadAddr":"전남광주통합특별시 해남군 해남읍 서림길 16","jibunAddr":"전남광주통합특별시 해남군 해남읍 서림길 16","openHours":"정시","maleToilets":6,"femaleToilets":2,"disabled":true,"diaperTable":true,"emergencyBell":true,"cctv":false,"source":"public","category":"public"},{"id":"202458700000100803","name":"해남공원","lat":34.575582,"lng":126.592181,"roadAddr":"전남광주통합특별시 해남군 해남읍 구교리 308","jibunAddr":"전남광주통합특별시 해남군 해남읍 구교리 308","openHours":"정시","maleToilets":5,"femaleToilets":5,"disabled":true,"diaperTable":false,"emergencyBell":true,"cctv":true,"source":"public","category":"public"},{"id":"202458700000100804","name":"서림공원 1","lat":34.573342,"lng":126.593014,"roadAddr":"전남광주통합특별시 해남군 해남읍 남외리 17 (공업고등학교 앞)","jibunAddr":"전남광주통합특별시 해남군 해남읍 남외리 17 (공업고등학교 앞)","openHours":"정시","maleToilets":6,"femaleToilets":4,"disabled":false,"diaperTable":false,"emergencyBell":false,"cctv":false,"source":"public","category":"public"},{"id":"202458700000100805","name":"서림공원 2","lat":34.573342,"lng":126.593014,"roadAddr":"전남광주통합특별시 해남군 해남읍 남외리 17 (단군전 앞)","jibunAddr":"전남광주통합특별시 해남군 해남읍 남외리 17 (단군전 앞)","openHours":"정시","maleToilets":3,"femaleToilets":1,"disabled":true,"diaperTable":false,"emergencyBell":false,"cctv":false,"source":"public","category":"public"},{"id":"202458700000100816","name":"평남사거리","lat":34.564842,"lng":126.601879,"roadAddr":"전남광주통합특별시 해남군 해남읍 고도리 457-18","jibunAddr":"전남광주통합특별시 해남군 해남읍 고도리 457-18","openHours":"정시","maleToilets":2,"femaleToilets":1,"disabled":false,"diaperTable":false,"emergencyBell":true,"cctv":false,"source":"public","category":"public"},{"id":"202458700000100817","name":"고도리정류소","lat":34.565266,"lng":126.596397,"roadAddr":"전남광주통합특별시 해남군 해남읍 고도리 389-2","jibunAddr":"전남광주통합특별시 해남군 해남읍 고도리 389-2","openHours":"정시","maleToilets":3,"femaleToilets":3,"disabled":false,"diaperTable":false,"emergencyBell":true,"cctv":false,"source":"public","category":"public"}]