[{"id":"202458750000100376","name":"미암복지회관","lat":34.698698,"lng":126.573212,"roadAddr":"전남광주통합특별시 영암군 미암면 곤미현로 937, 미암면복지회관","jibunAddr":"전남광주통합특별시 영암군 미암면 곤미현로 937, 미암면복지회관","openHours":"정시","maleToilets":4,"femaleToilets":2,"disabled":false,"diaperTable":false,"emergencyBell":false,"cctv":false,"managerTel":"0614711736","source":"public","category":"public"},{"id":"202458750000100369","name":"서영암농협","lat":34.699545,"lng":126.569039,"roadAddr":"전남광주통합특별시 영암군 미암면 미중로 15-7","jibunAddr":"전남광주통합특별시 영암군 미암면 미중로 15-7","openHours":"정시","maleToilets":3,"femaleToilets":2,"disabled":false,"diaperTable":false,"emergencyBell":false,"cctv":true,"managerTel":"0614711553","source":"public","category":"public"},{"id":"202458750000100492","name":"미암면사무소","lat":34.699259,"lng":126.571506,"roadAddr":"전남광주통합특별시 영암군 미암면 미중로 39","jibunAddr":"전남광주통합특별시 영암군 미암면 미중로 39","openHours":"상시","maleToilets":8,"femaleToilets":2,"disabled":false,"diaperTable":false,"emergencyBell":false,"cctv":false,"managerTel":"0614706453","source":"public","category":"public"},{"id":"202458750000100511","name":"미암우체국","lat":34.698937,"lng":126.569127,"roadAddr":"전남광주통합특별시 영암군 미암면 미중로 15-5","jibunAddr":"전남광주통합특별시 영암군 미암면 미중로 15-5","openHours":"정시","maleToilets":2,"femaleToilets":1,"disabled":true,"diaperTable":false,"emergencyBell":false,"cctv":true,"managerTel":"0614725002","source":"public","category":"public"},{"id":"202458750000100439","name":"미암진료소","lat":34.702468,"lng":126.596028,"roadAddr":"전남광주통합특별시 영암군 미암면 미촌길 45","jibunAddr":"전남광주통합특별시 영암군 미암면 미촌길 45","openHours":"정시","maleToilets":2,"femaleToilets":1,"disabled":false,"diaperTable":false,"emergencyBell":false,"cctv":false,"managerTel":"0614706524","source":"public","category":"public"},{"id":"202458750000100453","name":"미암보건지소","lat":34.699259,"lng":126.571506,"roadAddr":"전남광주통합특별시 영암군 미암면 미중로 39","jibunAddr":"전남광주통합특별시 영암군 미암면 미중로 39","openHours":"정시","maleToilets":4,"femaleToilets":2,"disabled":false,"diaperTable":false,"emergencyBell":false,"cctv":false,"managerTel":"0614706524","source":"public","category":"public"}]