[{"id":"202258450000100138","name":"동두산체육공원","lat":34.525315,"lng":127.13696,"roadAddr":"전남광주통합특별시 고흥군 도양읍 동두메2길 12-15, 기타운동시설","jibunAddr":"전남광주통합특별시 고흥군 도양읍 봉암리 2240-101 기타운동시설","openHours":"상시","maleToilets":3,"femaleToilets":1,"disabled":false,"diaperTable":false,"emergencyBell":true,"cctv":false,"managerTel":"0618306188","source":"public","category":"public"},{"id":"202258450000100139","name":"녹동시장","lat":34.527955,"lng":127.137408,"roadAddr":"전남 고흥군 도양읍 녹동시장길 39","jibunAddr":"전남 고흥군 도양읍 봉암리 2699-6","openHours":"상시","maleToilets":8,"femaleToilets":6,"disabled":true,"diaperTable":false,"emergencyBell":true,"cctv":false,"managerTel":"0618305353","source":"public","category":"public"},{"id":"202258450000100133","name":"녹동신항","lat":34.522838,"lng":127.14432,"roadAddr":"전남 고흥군 도양읍 비봉로 266-16","jibunAddr":"전남 고흥군 도양읍 봉암리 3907","openHours":"상시","maleToilets":9,"femaleToilets":10,"disabled":true,"diaperTable":false,"emergencyBell":true,"cctv":false,"managerTel":"0618305026","source":"public","category":"public"},{"id":"202258450000100136","name":"바다정원","lat":34.526389,"lng":127.135065,"roadAddr":"전남광주통합특별시 고흥군 도양읍 비봉로 168","jibunAddr":"전남광주통합특별시 고흥군 도양읍 봉암리 2792-2","openHours":"상시","maleToilets":7,"femaleToilets":7,"disabled":true,"diaperTable":true,"emergencyBell":true,"cctv":false,"managerTel":"0618305026","source":"public","category":"public"},{"id":"202258450000100141","name":"도양읍사무소","lat":34.529534,"lng":127.138984,"roadAddr":"전남 고흥군 도양읍 녹동남촌2길 14","jibunAddr":"전남 고흥군 도양읍 봉암리 2699-2","openHours":"09:00~18:00","maleToilets":16,"femaleToilets":9,"disabled":true,"diaperTable":false,"emergencyBell":true,"cctv":false,"managerTel":"0618406466","source":"public","category":"public"},{"id":"202458450000100044","name":"금산선착장주차장","lat":34.524275,"lng":127.136158,"roadAddr":"전남광주통합특별시 고흥군 도양읍 비봉로 194","jibunAddr":"전남광주통합특별시 고흥군 도양읍 봉암리 2792-9","openHours":"상시","maleToilets":4,"femaleToilets":2,"disabled":true,"diaperTable":false,"emergencyBell":true,"cctv":false,"managerTel":"0618305026","source":"public","category":"public"},{"id":"202458450000100046","name":"상화도항","lat":34.504361,"lng":127.148187,"roadAddr":"전남광주통합특별시 고흥군 도양읍 상화도길 91, 상화도마을회관","jibunAddr":"전남광주통합특별시 고흥군 도양읍 봉암리 2829 상화도마을회관","openHours":"상시","maleToilets":2,"femaleToilets":1,"disabled":false,"diaperTable":false,"emergencyBell":false,"cctv":false,"managerTel":"0618305026","source":"public","category":"public"},{"id":"202358450000100098","name":"도양노인게이트볼장","lat":34.525706,"lng":127.145626,"jibunAddr":"전남광주통합특별시 고흥군 도양읍 봉암리 3737","openHours":"09:00~18:00","maleToilets":0,"femaleToilets":3,"disabled":false,"diaperTable":false,"emergencyBell":false,"cctv":false,"source":"public","category":"public"},{"id":"202458450000100007","name":"도양우체국","lat":34.529189,"lng":127.136944,"roadAddr":"전남광주통합특별시 고흥군 도양읍 녹동남촌2길 26","jibunAddr":"전남광주통합특별시 고흥군 도양읍 봉암리 2695-9","openHours":"09:00~18:00","maleToilets":5,"femaleToilets":2,"disabled":false,"diaperTable":false,"emergencyBell":false,"cctv":false,"managerTel":"0618440100","source":"public","category":"public"},{"id":"202458450000100028","name":"녹동공영버스터미널","lat":34.533129,"lng":127.139053,"roadAddr":"전남광주통합특별시 고흥군 도양읍 천마로 57, 녹동버스 공용정류장","jibunAddr":"전남광주통합특별시 고흥군 도양읍 봉암리 1613-1 녹동버스 공용정류장","openHours":"상시","maleToilets":8,"femaleToilets":6,"disabled":false,"diaperTable":false,"emergencyBell":true,"cctv":false,"managerTel":"0618305358","source":"public","category":"public"},{"id":"202358450000100077","name":"고흥군립남부도서관","lat":34.527569,"lng":127.141463,"roadAddr":"전남광주통합특별시 고흥군 도양읍 녹동신항8길 5-4, 고흥군립남부도서관","jibunAddr":"전남광주통합특별시 고흥군 도양읍 봉암리 3273 고흥군립남부도서관","openHours":"09:00~21:00(매주 월요일 미개방)","maleToilets":12,"femaleToilets":6,"disabled":true,"diaperTable":true,"emergencyBell":true,"cctv":true,"managerTel":"0618306952","source":"public","category":"public"},{"id":"202258450000100050","name":"도양보건지소","lat":34.529534,"lng":127.138984,"roadAddr":"전남 고흥군 도양읍 녹동남촌2길 14","jibunAddr":"전남 고흥군 도양읍 봉암리 2699-2","openHours":"09:00~18:00","maleToilets":3,"femaleToilets":2,"disabled":true,"diaperTable":false,"emergencyBell":true,"cctv":false,"managerTel":"0618306745","source":"public","category":"public"},{"id":"202258450000100056","name":"녹동신항여객선터미널","lat":34.522838,"lng":127.14432,"roadAddr":"전남 고흥군 도양읍 비봉로 266-16","jibunAddr":"전남 고흥군 도양읍 봉암리 3907","openHours":"상시","maleToilets":10,"femaleToilets":11,"disabled":true,"diaperTable":true,"emergencyBell":true,"cctv":false,"managerTel":"0618406466","source":"public","category":"public"},{"id":"202258450000100039","name":"명품주유소","lat":34.530902,"lng":127.140571,"roadAddr":"전남 고흥군 도양읍 우주항공로 80","jibunAddr":"전남 고흥군 도양읍 봉암리 1617-7","openHours":"06:00~21:00","maleToilets":2,"femaleToilets":2,"disabled":false,"diaperTable":false,"emergencyBell":false,"cctv":false,"managerTel":"0618406466","source":"public","category":"public"}]