[{"id":"202458500000101401","name":"회천주유소","lat":34.671348,"lng":127.086611,"roadAddr":"전남광주통합특별시 보성군 회천면 남부관광로 2331","jibunAddr":"전남광주통합특별시 보성군 회천면 율포리 312 번지1 호","openHours":"정시","maleToilets":0,"femaleToilets":0,"disabled":false,"diaperTable":false,"emergencyBell":false,"cctv":false,"managerTel":"0618528320","source":"public","category":"public"},{"id":"202458500000101034","name":"회천면사무소 화장실","lat":34.668767,"lng":127.085349,"roadAddr":"전남광주통합특별시 보성군 회천면 남부관광로 2295","jibunAddr":"전남광주통합특별시 보성군 회천면","openHours":"정시","maleToilets":8,"femaleToilets":4,"disabled":true,"diaperTable":true,"emergencyBell":true,"cctv":true,"managerTel":"0618508405","source":"public","category":"public"},{"id":"202458500000101035","name":"봉서계곡 화장실","lat":34.663823,"lng":127.048827,"roadAddr":"전남광주통합특별시 보성군 회천면 봉서동길","jibunAddr":"전남광주통합특별시 보성군 회천면 봉강리 907-5","openHours":"정시","maleToilets":3,"femaleToilets":1,"disabled":false,"diaperTable":false,"emergencyBell":false,"cctv":false,"managerTel":"0618508405","source":"public","category":"public"},{"id":"202458500000101005","name":"회령시장","lat":34.67053,"lng":127.063386,"roadAddr":"전남광주통합특별시 보성군 회천면 시장길 20-4","jibunAddr":"전남광주통합특별시 보성군 회천면 회령리 486-1","openHours":"상시","maleToilets":3,"femaleToilets":2,"disabled":false,"diaperTable":false,"emergencyBell":true,"cctv":false,"managerTel":"0618505332","source":"public","category":"public"},{"id":"202458500000101006","name":"군학샤워","lat":34.664015,"lng":127.069592,"roadAddr":"전남광주통합특별시 보성군 회천면 남부관광로","jibunAddr":"전남광주통합특별시 보성군 회천면 전일리 874-16","openHours":"상시","maleToilets":6,"femaleToilets":3,"disabled":false,"diaperTable":false,"emergencyBell":true,"cctv":false,"managerTel":"0618505332","source":"public","category":"public"},{"id":"202458500000101007","name":"회천생태공원","lat":34.663307,"lng":127.07027,"roadAddr":"전남광주통합특별시 보성군 회천면 남부관광로 2126","jibunAddr":"전남광주통합특별시 보성군 회천면 벽교리 827-3","openHours":"상시","maleToilets":4,"femaleToilets":2,"disabled":true,"diaperTable":false,"emergencyBell":true,"cctv":false,"managerTel":"0618505332","source":"public","category":"public"},{"id":"202458500000101008","name":"명교해수욕장","lat":34.664015,"lng":127.069592,"roadAddr":"전남광주통합특별시 보성군 회천면 남부관광로","jibunAddr":"전남광주통합특별시 보성군 회천면 벽교리 520-11","openHours":"상시","maleToilets":2,"femaleToilets":2,"disabled":false,"diaperTable":false,"emergencyBell":true,"cctv":false,"managerTel":"0618505332","source":"public","category":"public"},{"id":"202458500000101009","name":"갈매기의 꿈","lat":34.667039,"lng":127.083294,"roadAddr":"전남광주통합특별시 보성군 회천면 남부관광로 2268","jibunAddr":"전남광주통합특별시 보성군 회천면 율포리 476-25","openHours":"상시","maleToilets":4,"femaleToilets":3,"disabled":true,"diaperTable":false,"emergencyBell":true,"cctv":false,"managerTel":"0618505332","source":"public","category":"public"},{"id":"202458600000100571","name":"용곡마을","lat":34.635151,"lng":127.045953,"roadAddr":"전남광주통합특별시 장흥군 안양면 용곡길 85","jibunAddr":"전남광주통합특별시 장흥군 안양면 수문리 32-35","openHours":"상시","maleToilets":2,"femaleToilets":1,"disabled":false,"diaperTable":false,"emergencyBell":false,"cctv":false,"managerTel":"0618606054","source":"public","category":"public"}]