[{"id":"202458750000100410","name":"삼화휴게소","lat":34.824525,"lng":126.695672,"roadAddr":"전남광주통합특별시 영암군 덕진면 예향로 1796","jibunAddr":"전남광주통합특별시 영암군 덕진면 예향로 1796","openHours":"상시","maleToilets":7,"femaleToilets":3,"disabled":false,"diaperTable":false,"emergencyBell":false,"cctv":false,"managerTel":"0614725185","source":"public","category":"public"},{"id":"202458750000100377","name":"덕진우체국","lat":34.81934,"lng":126.697915,"roadAddr":"전남광주통합특별시 영암군 덕진면 새터신정길 72, 덕진우체국","jibunAddr":"전남광주통합특별시 영암군 덕진면 새터신정길 72, 덕진우체국","openHours":"08:00~18:00","maleToilets":3,"femaleToilets":1,"disabled":false,"diaperTable":false,"emergencyBell":false,"cctv":true,"managerTel":"0614730702","source":"public","category":"public"},{"id":"202458750000100531","name":"전라남도 소방항공대","lat":34.829357,"lng":126.703429,"roadAddr":"전남광주통합특별시 영암군 덕진면 소방항공대길 99","jibunAddr":"전남광주통합특별시 영암군 덕진면 소방항공대길 99","openHours":"상시","maleToilets":4,"femaleToilets":2,"disabled":false,"diaperTable":false,"emergencyBell":false,"cctv":false,"managerTel":"0618605159","source":"public","category":"public"},{"id":"202458750000100532","name":"산림청항공대","lat":34.828751,"lng":126.701604,"roadAddr":"전남광주통합특별시 영암군 덕진면 소방항공대길 95","jibunAddr":"전남광주통합특별시 영암군 덕진면 소방항공대길 95","openHours":"09:00~18:00","maleToilets":6,"femaleToilets":2,"disabled":false,"diaperTable":false,"emergencyBell":false,"cctv":false,"managerTel":"0614705002","source":"public","category":"public"},{"id":"202458750000100533","name":"덕진면 복지회관","lat":34.816874,"lng":126.697002,"roadAddr":"전남광주통합특별시 영암군 덕진면 내촌길 9-2","jibunAddr":"전남광주통합특별시 영암군 덕진면 내촌길 9-2","openHours":"09:00~18:00","maleToilets":4,"femaleToilets":2,"disabled":true,"diaperTable":false,"emergencyBell":false,"cctv":false,"managerTel":"0614711062","source":"public","category":"public"},{"id":"202458750000100435","name":"제일충전소","lat":34.815087,"lng":126.698377,"roadAddr":"전남광주통합특별시 영암군 영암읍 예향로 1687","jibunAddr":"전남광주통합특별시 영암군 영암읍 예향로 1687","openHours":"06:00~21:00","maleToilets":2,"femaleToilets":2,"disabled":false,"diaperTable":false,"emergencyBell":false,"cctv":true,"managerTel":"0614734747","source":"public","category":"public"},{"id":"202458750000100437","name":"영암농산물 품질관리소","lat":34.805133,"lng":126.69923,"roadAddr":"전남광주통합특별시 영암군 영암읍 낭주로 195","jibunAddr":"전남광주통합특별시 영암군 영암읍 낭주로 195","openHours":"06:00~21:00","maleToilets":13,"femaleToilets":3,"disabled":false,"diaperTable":false,"emergencyBell":false,"cctv":true,"managerTel":"0614703000","source":"public","category":"public"},{"id":"202458750000100461","name":"덕진보건지소","lat":34.819116,"lng":126.696826,"roadAddr":"전남광주통합특별시 영암군 덕진면 예향로 1731","jibunAddr":"전남광주통합특별시 영암군 덕진면 예향로 1731","openHours":"09:00~18:00","maleToilets":2,"femaleToilets":1,"disabled":true,"diaperTable":false,"emergencyBell":false,"cctv":false,"managerTel":"0614706524","source":"public","category":"public"},{"id":"202458750000100360","name":"영암종합운동장","lat":34.804907,"lng":126.700677,"roadAddr":"전남광주통합특별시 영암군 영암읍 여운재로 21, 공설운동장","jibunAddr":"전남광주통합특별시 영암군 영암읍 여운재로 21, 공설운동장","openHours":"상시","maleToilets":12,"femaleToilets":13,"disabled":true,"diaperTable":false,"emergencyBell":false,"cctv":true,"managerTel":"0614706491","source":"public","category":"public"},{"id":"202458750000100500","name":"덕진면 행정복지센터","lat":34.819116,"lng":126.696826,"roadAddr":"전남광주통합특별시 영암군 덕진면 예향로 1731","jibunAddr":"전남광주통합특별시 영암군 덕진면 예향로 1731","openHours":"09:00~18:00","maleToilets":3,"femaleToilets":1,"disabled":true,"diaperTable":false,"emergencyBell":true,"cctv":false,"managerTel":"0614706133","source":"public","category":"public"},{"id":"202458750000100438","name":"영암군 공설운동장","lat":34.804907,"lng":126.700677,"roadAddr":"전남광주통합특별시 영암군 영암읍 여운재로 21","jibunAddr":"전남광주통합특별시 영암군 영암읍 여운재로 21","openHours":"09:00~18:00","maleToilets":12,"femaleToilets":13,"disabled":true,"diaperTable":false,"emergencyBell":false,"cctv":false,"managerTel":"0614706493","source":"public","category":"public"},{"id":"202458750000100451","name":"장암진료소","lat":34.805977,"lng":126.731296,"roadAddr":"전남광주통합특별시 영암군 영암읍 마당바우로 105","jibunAddr":"전남광주통합특별시 영암군 영암읍 마당바우로 105","openHours":"09:00~18:00","maleToilets":1,"femaleToilets":1,"disabled":false,"diaperTable":false,"emergencyBell":false,"cctv":false,"managerTel":"0614706524","source":"public","category":"public"}]