[{"id":"202557950000100037","name":"한국의원","lat":34.942105,"lng":126.603267,"roadAddr":"전남광주통합특별시 나주시 공산면 공산로","openHours":"09:00-18:00","maleToilets":4,"femaleToilets":0,"disabled":false,"diaperTable":false,"emergencyBell":false,"cctv":false,"managerTel":"0613347688","source":"public","category":"public"},{"id":"202557950000100038","name":"공산주유소","lat":34.942105,"lng":126.603267,"roadAddr":"전남광주통합특별시 나주시 공산면 공산로","openHours":"09:00-18:00","maleToilets":2,"femaleToilets":1,"disabled":false,"diaperTable":false,"emergencyBell":false,"cctv":false,"managerTel":"0613353007","source":"public","category":"public"},{"id":"202557950000100039","name":"공산농협하나로마트","lat":34.942105,"lng":126.603267,"roadAddr":"전남광주통합특별시 나주시 공산면 공산로","openHours":"09:00-18:00","maleToilets":3,"femaleToilets":2,"disabled":false,"diaperTable":false,"emergencyBell":false,"cctv":false,"managerTel":"0613353007","source":"public","category":"public"},{"id":"202557950000100040","name":"농협자재백화점","lat":34.942105,"lng":126.603267,"roadAddr":"전남광주통합특별시 나주시 공산면 공산로","openHours":"09:00-18:00","maleToilets":4,"femaleToilets":2,"disabled":false,"diaperTable":false,"emergencyBell":false,"cctv":false,"managerTel":"0613353007","source":"public","category":"public"},{"id":"202557950000100041","name":"공산농협","lat":34.942105,"lng":126.603267,"roadAddr":"전남광주통합특별시 나주시 공산면 공산로","openHours":"09:00-18:00","maleToilets":3,"femaleToilets":1,"disabled":true,"diaperTable":false,"emergencyBell":false,"cctv":false,"managerTel":"0613353007","source":"public","category":"public"},{"id":"202557950000100042","name":"공산의원","lat":34.942105,"lng":126.603267,"roadAddr":"전남광주통합특별시 나주시 공산면 공산로","openHours":"09:00-18:00","maleToilets":2,"femaleToilets":1,"disabled":false,"diaperTable":false,"emergencyBell":false,"cctv":false,"managerTel":"0613357475","source":"public","category":"public"},{"id":"202557950000100180","name":"동강보건지소","lat":34.939378,"lng":126.563602,"roadAddr":"전남광주통합특별시 나주시 동강면 인동길 28","openHours":"09:00-18:00","maleToilets":4,"femaleToilets":2,"disabled":false,"diaperTable":false,"emergencyBell":false,"cctv":true,"managerTel":"0613394139","source":"public","category":"public"},{"id":"202557950000100181","name":"동강면사무소","lat":34.939378,"lng":126.563602,"roadAddr":"전남광주통합특별시 나주시 동강면 인동길 28","openHours":"09:00-18:00","maleToilets":3,"femaleToilets":2,"disabled":false,"diaperTable":false,"emergencyBell":false,"cctv":false,"managerTel":"0613393547","source":"public","category":"public"},{"id":"202557950000100186","name":"동강성당","lat":34.938674,"lng":126.568508,"roadAddr":"전남광주통합특별시 나주시 동강면 동강로 617-14","openHours":"09:00-18:00","maleToilets":2,"femaleToilets":2,"disabled":false,"diaperTable":false,"emergencyBell":false,"cctv":false,"managerTel":"0613359365","source":"public","category":"public"},{"id":"202557950000100187","name":"동강의원","lat":34.937331,"lng":126.565643,"roadAddr":"전남광주통합특별시 나주시 동강면 동강로 599","openHours":"09:00-18:00","maleToilets":2,"femaleToilets":1,"disabled":false,"diaperTable":false,"emergencyBell":false,"cctv":false,"managerTel":"0613360059","source":"public","category":"public"},{"id":"202557950000100188","name":"제일의원","lat":34.93676,"lng":126.564809,"roadAddr":"전남광주통합특별시 나주시 동강면 동강로 590","openHours":"09:00-18:00","maleToilets":2,"femaleToilets":2,"disabled":false,"diaperTable":false,"emergencyBell":true,"cctv":true,"managerTel":"0613360160","source":"public","category":"public"},{"id":"202557950000100189","name":"동강농협","lat":34.936889,"lng":126.563986,"roadAddr":"전남광주통합특별시 나주시 동강면 동강로 585","openHours":"09:00-18:00","maleToilets":6,"femaleToilets":4,"disabled":false,"diaperTable":false,"emergencyBell":false,"cctv":false,"managerTel":"0613357531","source":"public","category":"public"},{"id":"202557950000100030","name":"공산면복지회관","lat":34.942105,"lng":126.603267,"roadAddr":"전남광주통합특별시 나주시 공산면 공산로","openHours":"09:00-18:00","maleToilets":2,"femaleToilets":2,"disabled":false,"diaperTable":false,"emergencyBell":false,"cctv":false,"managerTel":"0613393698","source":"public","category":"public"},{"id":"202557950000100031","name":"공산면사무소","lat":34.942105,"lng":126.603267,"roadAddr":"전남광주통합특별시 나주시 공산면 공산로","openHours":"09:00-18:00","maleToilets":2,"femaleToilets":2,"disabled":true,"diaperTable":false,"emergencyBell":false,"cctv":false,"managerTel":"0613393698","source":"public","category":"public"},{"id":"202557950000100032","name":"나주영상테마파크 제2주차장","lat":34.966466,"lng":126.601127,"roadAddr":"전남광주통합특별시 나주시 공산면 덕음로","openHours":"상시","maleToilets":5,"femaleToilets":3,"disabled":false,"diaperTable":false,"emergencyBell":true,"cctv":false,"managerTel":"0613398581","source":"public","category":"public"},{"id":"202557950000100033","name":"공산정류소(승강장)","lat":34.942105,"lng":126.603267,"roadAddr":"전남광주통합특별시 나주시 공산면 공산로","openHours":"상시","maleToilets":3,"femaleToilets":3,"disabled":false,"diaperTable":false,"emergencyBell":true,"cctv":false,"managerTel":"0613398841","source":"public","category":"public"},{"id":"202557950000100034","name":"공산5일시장","lat":34.966466,"lng":126.601127,"roadAddr":"전남광주통합특별시 나주시 공산면 덕음로","openHours":"상시","maleToilets":3,"femaleToilets":3,"disabled":true,"diaperTable":true,"emergencyBell":false,"cctv":false,"managerTel":"0613398163","source":"public","category":"public"},{"id":"202557950000100035","name":"우습제 공중화장실","lat":34.945133,"lng":126.587658,"roadAddr":"전남광주통합특별시 나주시 공산면 동촌리","openHours":"상시","maleToilets":4,"femaleToilets":3,"disabled":false,"diaperTable":false,"emergencyBell":true,"cctv":false,"managerTel":"0613398581","source":"public","category":"public"},{"id":"202557950000100028","name":"나주영상테마파크","lat":34.966466,"lng":126.601127,"roadAddr":"전남광주통합특별시 나주시 공산면 덕음로","openHours":"09:00-18:00","maleToilets":5,"femaleToilets":5,"disabled":false,"diaperTable":false,"emergencyBell":false,"cctv":false,"managerTel":"0613398581","source":"public","category":"public"},{"id":"202557950000100029","name":"농어민체육센터","lat":34.942105,"lng":126.603267,"roadAddr":"전남광주통합특별시 나주시 공산면 공산로","openHours":"09:00-18:00","maleToilets":6,"femaleToilets":2,"disabled":true,"diaperTable":false,"emergencyBell":false,"cctv":false,"managerTel":"0613394521","source":"public","category":"public"}]