[{"id":"202557950000100235","name":"세지면사무소 외부 공중화장실","lat":34.919654,"lng":126.749712,"roadAddr":"전남광주통합특별시 나주시 세지면 동창로 130-12","openHours":"상시","maleToilets":2,"femaleToilets":1,"disabled":true,"diaperTable":false,"emergencyBell":true,"cctv":false,"managerTel":"0613393622","source":"public","category":"public"},{"id":"202557950000100238","name":"중앙교회","lat":34.919103,"lng":126.743345,"roadAddr":"전남광주통합특별시 나주시 세지면 세영로 8","openHours":"09:00 ~ 18:00","maleToilets":6,"femaleToilets":3,"disabled":true,"diaperTable":false,"emergencyBell":false,"cctv":false,"managerTel":"0613315152","source":"public","category":"public"},{"id":"202557950000100242","name":"CU세지터미널점","lat":34.920885,"lng":126.748263,"roadAddr":"전남광주통합특별시 나주시 세지면 동창로 142","openHours":"상시","maleToilets":3,"femaleToilets":2,"disabled":true,"diaperTable":false,"emergencyBell":false,"cctv":false,"source":"public","category":"public"},{"id":"202557950000100243","name":"동창5일시장 화장실","lat":34.920157,"lng":126.747169,"roadAddr":"전남광주통합특별시 나주시 세지면 동창로 135-10","openHours":"상시","maleToilets":0,"femaleToilets":1,"disabled":true,"diaperTable":true,"emergencyBell":true,"cctv":false,"managerTel":"0613310084","source":"public","category":"public"},{"id":"202557950000100239","name":"백제주유소","lat":34.922207,"lng":126.747905,"roadAddr":"전남광주통합특별시 나주시 세지면 동창로 154","openHours":"09:00 ~ 18:00","maleToilets":3,"femaleToilets":2,"disabled":true,"diaperTable":false,"emergencyBell":false,"cctv":true,"managerTel":"0613315188","source":"public","category":"public"},{"id":"202557950000100240","name":"세지우체국","lat":34.920279,"lng":126.748585,"roadAddr":"전남광주통합특별시 나주시 세지면 동창로 130-5","openHours":"09:00 ~ 18:00","maleToilets":2,"femaleToilets":1,"disabled":true,"diaperTable":false,"emergencyBell":false,"cctv":false,"managerTel":"0613315002","source":"public","category":"public"},{"id":"202557950000100241","name":"세지농협","lat":34.919622,"lng":126.749028,"roadAddr":"전남광주통합특별시 나주시 세지면 동창로 130-2","openHours":"09:00 ~ 18:00","maleToilets":4,"femaleToilets":2,"disabled":true,"diaperTable":false,"emergencyBell":false,"cctv":false,"managerTel":"0613315080","source":"public","category":"public"}]