[{"id":"202458750000100528","name":"금정새마을금고","lat":34.862357,"lng":126.74908,"roadAddr":"전남광주통합특별시 영암군 금정면 용두로 9","jibunAddr":"전남광주통합특별시 영암군 금정면 용두로 9","openHours":"정시","maleToilets":2,"femaleToilets":1,"disabled":false,"diaperTable":false,"emergencyBell":false,"cctv":true,"managerTel":"0614722200","source":"public","category":"public"},{"id":"202458750000100529","name":"금정우체국","lat":34.862262,"lng":126.749237,"roadAddr":"전남광주통합특별시 영암군 금정면 용두로 5","jibunAddr":"전남광주통합특별시 영암군 금정면 용두로 5","openHours":"정시","maleToilets":1,"femaleToilets":1,"disabled":true,"diaperTable":false,"emergencyBell":false,"cctv":false,"managerTel":"0614722002","source":"public","category":"public"},{"id":"202458750000100530","name":"금정농협","lat":34.863362,"lng":126.749005,"roadAddr":"전남광주통합특별시 영암군 금정면 용두로 24","jibunAddr":"전남광주통합특별시 영암군 금정면 용두로 24","openHours":"정시","maleToilets":3,"femaleToilets":1,"disabled":true,"diaperTable":false,"emergencyBell":false,"cctv":true,"managerTel":"0614721777","source":"public","category":"public"},{"id":"202458750000100460","name":"금정보건지소","lat":34.861771,"lng":126.748847,"roadAddr":"전남광주통합특별시 영암군 금정면 용두로 11-17","jibunAddr":"전남광주통합특별시 영암군 금정면 용두로 11-17","openHours":"정시","maleToilets":2,"femaleToilets":2,"disabled":true,"diaperTable":false,"emergencyBell":false,"cctv":false,"managerTel":"0614706524","source":"public","category":"public"},{"id":"202458750000100463","name":"금정공중화장실","lat":34.862734,"lng":126.749113,"roadAddr":"전남광주통합특별시 영암군 금정면 용두로 10-1","jibunAddr":"전남광주통합특별시 영암군 금정면 용두로 10-1","openHours":"상시","maleToilets":5,"femaleToilets":5,"disabled":false,"diaperTable":false,"emergencyBell":false,"cctv":false,"managerTel":"0614706190","source":"public","category":"public"},{"id":"202458750000100499","name":"금정면 행정복지센터","lat":34.862941,"lng":126.748896,"roadAddr":"전남광주통합특별시 영암군 금정면 용두로 14","jibunAddr":"전남광주통합특별시 영암군 금정면 용두로 14","openHours":"상시","maleToilets":6,"femaleToilets":2,"disabled":true,"diaperTable":false,"emergencyBell":true,"cctv":false,"managerTel":"0614706173","source":"public","category":"public"}]