[{"id":"202358250000100274","name":"(유)모우리주유소","lat":35.150493,"lng":126.793548,"roadAddr":"전남광주통합특별시 광산구 소촌로 68 (소촌동)","jibunAddr":"전남광주통합특별시 광산구 소촌동 378-2","openHours":"24시간","maleToilets":3,"femaleToilets":1,"disabled":false,"diaperTable":false,"emergencyBell":false,"cctv":false,"managerTel":"0629417319","source":"public","category":"public"},{"id":"202358250000100036","name":"송정테니스장","lat":35.149985,"lng":126.802911,"roadAddr":"전남광주통합특별시 광산구 금봉로 22-21","jibunAddr":"전남광주통합특별시 광산구 소촌동 93-2","openHours":"24시간","maleToilets":4,"femaleToilets":3,"disabled":false,"diaperTable":true,"emergencyBell":true,"cctv":false,"managerTel":"0629609924","source":"public","category":"public"},{"id":"202358250000100037","name":"송정공원2","lat":35.146664,"lng":126.799524,"roadAddr":"전남광주통합특별시 광산구 송정공원로 8-25 (소촌동)","jibunAddr":"전남광주통합특별시 광산구 소촌동 산4-1","openHours":"24시간","maleToilets":5,"femaleToilets":3,"disabled":false,"diaperTable":true,"emergencyBell":true,"cctv":true,"managerTel":"0629608705","source":"public","category":"public"},{"id":"202358250000100038","name":"송정공원1","lat":35.146664,"lng":126.799524,"roadAddr":"전남광주통합특별시 광산구 송정공원로 8-25 (소촌동)","jibunAddr":"전남광주통합특별시 광산구 소촌동 산4-1","openHours":"24시간","maleToilets":5,"femaleToilets":3,"disabled":false,"diaperTable":true,"emergencyBell":true,"cctv":true,"managerTel":"0629608705","source":"public","category":"public"},{"id":"202358250000100297","name":"신촌주유소","lat":35.150153,"lng":126.807137,"roadAddr":"전남광주통합특별시 광산구 사암로 63 (신촌동)","jibunAddr":"전남광주통합특별시 광산구 신촌동 885-5","openHours":"24시간","maleToilets":4,"femaleToilets":2,"disabled":false,"diaperTable":false,"emergencyBell":false,"cctv":false,"managerTel":"0629426166","source":"public","category":"public"},{"id":"202358250000100300","name":"크로바주유소","lat":35.155792,"lng":126.80705,"roadAddr":"전남광주통합특별시 광산구 사암로 127 (우산동)","jibunAddr":"전남광주통합특별시 광산구 우산동 1478","openHours":"24시간","maleToilets":4,"femaleToilets":2,"disabled":false,"diaperTable":false,"emergencyBell":false,"cctv":false,"managerTel":"0629420046","source":"public","category":"public"},{"id":"202358250000100301","name":"마트몰송헌지점㈜주유소","lat":35.153634,"lng":126.807648,"roadAddr":"전남광주통합특별시 광산구 사암로 104 (우산동)","jibunAddr":"전남광주통합특별시 광산구 우산동 1613-1","openHours":"24시간","maleToilets":1,"femaleToilets":0,"disabled":false,"diaperTable":false,"emergencyBell":false,"cctv":false,"managerTel":"0629453700","source":"public","category":"public"},{"id":"202358250000100259","name":"you주유소","lat":35.144687,"lng":126.790931,"roadAddr":"전남광주통합특별시 광산구 어등대로 667 (소촌동)","jibunAddr":"전남광주통합특별시 광산구 소촌동 593-1","openHours":"24시간","maleToilets":3,"femaleToilets":1,"disabled":false,"diaperTable":false,"emergencyBell":false,"cctv":false,"managerTel":"0629418980","source":"public","category":"public"},{"id":"202358250000100260","name":"전송주유소","lat":35.151022,"lng":126.786706,"roadAddr":"전남광주통합특별시 광산구 어등대로 583 (운수동)","jibunAddr":"전남광주통합특별시 광산구 운수동 25-7","openHours":"24시간","maleToilets":4,"femaleToilets":2,"disabled":false,"diaperTable":false,"emergencyBell":false,"cctv":false,"managerTel":"0629414466","source":"public","category":"public"},{"id":"202358250000100264","name":"태평양주유소","lat":35.125452,"lng":126.787553,"roadAddr":"전남광주통합특별시 광산구 송도로 92 (황룡동)","jibunAddr":"전남광주통합특별시 광산구 황룡동 397-2","openHours":"24시간","maleToilets":4,"femaleToilets":2,"disabled":false,"diaperTable":false,"emergencyBell":false,"cctv":false,"managerTel":"0629424844","source":"public","category":"public"},{"id":"202358250000100265","name":"송정농협주유소","lat":35.139491,"lng":126.800292,"roadAddr":"전남광주통합특별시 광산구 송도로 295 (송정동)","jibunAddr":"전남광주통합특별시 광산구 송정동 585-2","openHours":"24시간","maleToilets":3,"femaleToilets":2,"disabled":false,"diaperTable":false,"emergencyBell":false,"cctv":false,"managerTel":"0629426110","source":"public","category":"public"},{"id":"202358250000100266","name":"진영주유소","lat":35.139066,"lng":126.800552,"roadAddr":"전남광주통합특별시 광산구 송도로 292 (송정동)","jibunAddr":"전남광주통합특별시 광산구 송정동 547-33","openHours":"24시간","maleToilets":2,"femaleToilets":1,"disabled":false,"diaperTable":false,"emergencyBell":false,"cctv":false,"managerTel":"0629425189","source":"public","category":"public"},{"id":"202358250000100267","name":"한진주유소","lat":35.135107,"lng":126.797595,"roadAddr":"전남광주통합특별시 광산구 송도로 244 (송정동)","jibunAddr":"전남광주통합특별시 광산구 송정동 890-6","openHours":"24시간","maleToilets":4,"femaleToilets":2,"disabled":false,"diaperTable":false,"emergencyBell":false,"cctv":false,"managerTel":"0629412567","source":"public","category":"public"},{"id":"202358250000100268","name":"장미주유소","lat":35.132546,"lng":126.795243,"roadAddr":"전남광주통합특별시 광산구 송도로 205 (도산동)","jibunAddr":"전남광주통합특별시 광산구 도산동 887-1","openHours":"24시간","maleToilets":4,"femaleToilets":2,"disabled":false,"diaperTable":false,"emergencyBell":false,"cctv":false,"managerTel":"0629422007","source":"public","category":"public"},{"id":"202358250000100269","name":"송정현대주유소","lat":35.126344,"lng":126.788396,"roadAddr":"전남광주통합특별시 광산구 송도로 104 (도산동)","jibunAddr":"전남광주통합특별시 광산구 도산동 1125-23","openHours":"24시간","maleToilets":4,"femaleToilets":0,"disabled":false,"diaperTable":false,"emergencyBell":false,"cctv":false,"managerTel":"0629455182","source":"public","category":"public"},{"id":"202358250000100019","name":"도루메 어린이공원","lat":35.130565,"lng":126.788794,"roadAddr":"전남광주통합특별시 광산구 남동길 40 (도산동)","jibunAddr":"전남광주통합특별시 광산구 도산동 1287-5","openHours":"24시간","maleToilets":1,"femaleToilets":0,"disabled":true,"diaperTable":true,"emergencyBell":true,"cctv":false,"managerTel":"0629608711","source":"public","category":"public"},{"id":"202358250000100020","name":"임방울 어린이공원","lat":35.128336,"lng":126.789613,"roadAddr":"전남광주통합특별시 광산구 남동길 8 (도산동)","jibunAddr":"전남광주통합특별시 광산구 도산동 1296-1","openHours":"24시간","maleToilets":1,"femaleToilets":0,"disabled":true,"diaperTable":true,"emergencyBell":true,"cctv":false,"managerTel":"0629608711","source":"public","category":"public"},{"id":"202358250000100275","name":"차사랑주유소","lat":35.142234,"lng":126.825905,"roadAddr":"전남광주통합특별시 광산구 상무대로 551 (우산동)","jibunAddr":"전남광주통합특별시 광산구 우산동 221-1","openHours":"24시간","maleToilets":4,"femaleToilets":2,"disabled":false,"diaperTable":false,"emergencyBell":false,"cctv":false,"managerTel":"0629425121","source":"public","category":"public"},{"id":"202358250000100276","name":"영진에너지","lat":35.143539,"lng":126.818457,"roadAddr":"전남광주통합특별시 광산구 상무대로 483 (우산동)","jibunAddr":"전남광주통합특별시 광산구 우산동 179-9","openHours":"24시간","maleToilets":4,"femaleToilets":2,"disabled":false,"diaperTable":false,"emergencyBell":false,"cctv":false,"managerTel":"0629410061","source":"public","category":"public"},{"id":"202358250000100277","name":"오렌지LPG충전소","lat":35.144138,"lng":126.81687,"roadAddr":"전남광주통합특별시 광산구 상무대로 467 (신촌동)","jibunAddr":"전남광주통합특별시 광산구 신촌동 682-5","openHours":"24시간","maleToilets":3,"femaleToilets":1,"disabled":false,"diaperTable":false,"emergencyBell":false,"cctv":false,"managerTel":"0629449500","source":"public","category":"public"},{"id":"202358250000100278","name":"공항LPG충전소","lat":35.144287,"lng":126.814226,"roadAddr":"전남광주통합특별시 광산구 상무대로 441 (신촌동)","jibunAddr":"전남광주통합특별시 광산구 신촌동 682-13","openHours":"24시간","maleToilets":5,"femaleToilets":2,"disabled":false,"diaperTable":false,"emergencyBell":false,"cctv":false,"managerTel":"0629442300","source":"public","category":"public"},{"id":"202358250000100279","name":"㈜바른에너지공항주유소","lat":35.144516,"lng":126.813593,"roadAddr":"전남광주통합특별시 광산구 상무대로 435-2 (신촌동)","jibunAddr":"전남광주통합특별시 광산구 신촌동 682-110","openHours":"24시간","maleToilets":3,"femaleToilets":1,"disabled":false,"diaperTable":false,"emergencyBell":false,"cctv":false,"managerTel":"0629453800","source":"public","category":"public"},{"id":"202358250000100280","name":"신공항LPG충전소","lat":35.143928,"lng":126.810187,"roadAddr":"전남광주통합특별시 광산구 상무대로 404 (신촌동)","jibunAddr":"전남광주통합특별시 광산구 신촌동 689-1","openHours":"24시간","maleToilets":3,"femaleToilets":1,"disabled":false,"diaperTable":false,"emergencyBell":false,"cctv":false,"managerTel":"0629411095","source":"public","category":"public"},{"id":"202358250000100281","name":"이칠주유소","lat":35.14374,"lng":126.807141,"roadAddr":"전남광주통합특별시 광산구 상무대로 378 (신촌동)","jibunAddr":"전남광주통합특별시 광산구 신촌동 1127","openHours":"24시간","maleToilets":4,"femaleToilets":2,"disabled":false,"diaperTable":false,"emergencyBell":false,"cctv":false,"managerTel":"0629447286","source":"public","category":"public"},{"id":"202358250000100282","name":"슈퍼크린주유소","lat":35.143746,"lng":126.806335,"roadAddr":"전남광주통합특별시 광산구 상무대로 372 (신촌동)","jibunAddr":"전남광주통합특별시 광산구 신촌동 1125-5","openHours":"24시간","maleToilets":4,"femaleToilets":0,"disabled":false,"diaperTable":false,"emergencyBell":false,"cctv":false,"managerTel":"0629435121","source":"public","category":"public"},{"id":"202358250000100247","name":"대각주유소","lat":35.156093,"lng":126.799461,"roadAddr":"전남광주통합특별시 광산구 용아로 143 (소촌동)","jibunAddr":"전남광주통합특별시 광산구 소촌동 185","openHours":"24시간","maleToilets":4,"femaleToilets":2,"disabled":false,"diaperTable":false,"emergencyBell":false,"cctv":false,"managerTel":"0627123280","source":"public","category":"public"},{"id":"202358250000100004","name":"송정5일시장1","lat":35.136226,"lng":126.79773,"roadAddr":"전남광주통합특별시 광산구 광산로30번길 80 (송정동)","jibunAddr":"전남광주통합특별시 광산구 송정동 232-6","openHours":"24시간","maleToilets":9,"femaleToilets":6,"disabled":true,"diaperTable":true,"emergencyBell":true,"cctv":false,"managerTel":"0629603866","source":"public","category":"public"},{"id":"202358250000100005","name":"송정5일시장2","lat":35.137293,"lng":126.797998,"roadAddr":"전남광주통합특별시 광산구 내상로 56-5 (송정동)","jibunAddr":"전남광주통합특별시 광산구 송정동 233","openHours":"24시간","maleToilets":6,"femaleToilets":3,"disabled":true,"diaperTable":true,"emergencyBell":true,"cctv":false,"managerTel":"0629603866","source":"public","category":"public"},{"id":"202358250000100006","name":"송정매일시장상가 주차타워","lat":35.140526,"lng":126.794927,"roadAddr":"전남광주통합특별시 광산구 내상로 10 (송정동)","jibunAddr":"전남광주통합특별시 광산구 송정동 792-8","openHours":"24시간","maleToilets":2,"femaleToilets":1,"disabled":true,"diaperTable":true,"emergencyBell":true,"cctv":false,"managerTel":"0629609916","source":"public","category":"public"},{"id":"202358250000100007","name":"광산로제2공영주차장","lat":35.139463,"lng":126.796942,"roadAddr":"전남광주통합특별시 광산구 광산로 48-2","jibunAddr":"전남광주통합특별시 광산구 송정동 805-9","openHours":"24시간","maleToilets":1,"femaleToilets":1,"disabled":true,"diaperTable":false,"emergencyBell":true,"cctv":true,"managerTel":"0629609916","source":"public","category":"public"},{"id":"202358250000100008","name":"송정역1913시장 주차타워","lat":35.13662,"lng":126.792679,"roadAddr":"전남광주통합특별시 광산구 송정로 14 (송정동)","jibunAddr":"전남광주통합특별시 광산구 송정동 857-1","openHours":"24시간","maleToilets":3,"femaleToilets":3,"disabled":true,"diaperTable":true,"emergencyBell":true,"cctv":false,"managerTel":"0629609916","source":"public","category":"public"},{"id":"202358250000100009","name":"1913송정역시장2","lat":35.136053,"lng":126.792034,"roadAddr":"전남광주통합특별시 광산구 송정로8번길 21-7 (송정동)","jibunAddr":"전남광주통합특별시 광산구 송정동 986-17","openHours":"24시간","maleToilets":3,"femaleToilets":4,"disabled":true,"diaperTable":false,"emergencyBell":true,"cctv":false,"managerTel":"0629603866","source":"public","category":"public"},{"id":"202358250000100174","name":"광주열린병원","lat":35.137733,"lng":126.799153,"roadAddr":"전남광주통합특별시 광산구 송도로 271-1 (송정동)","jibunAddr":"전남광주통합특별시 광산구 송정동 560-5","openHours":"24시간","maleToilets":6,"femaleToilets":3,"disabled":false,"diaperTable":false,"emergencyBell":false,"cctv":true,"managerTel":"0626109000","source":"public","category":"public"},{"id":"202358250000100175","name":"빛장례식장","lat":35.14007,"lng":126.792639,"roadAddr":"전남광주통합특별시 광산구 상무대로 231 (송정동)","jibunAddr":"전남광주통합특별시 광산구 송정동 1364","openHours":"24시간","maleToilets":2,"femaleToilets":1,"disabled":false,"diaperTable":true,"emergencyBell":false,"cctv":false,"managerTel":"0624521364","source":"public","category":"public"},{"id":"202358250000100212","name":"기아오토큐(송정점)","lat":35.135682,"lng":126.795944,"roadAddr":"전남광주통합특별시 광산구 송정로 43 (송정동)","jibunAddr":"전남광주통합특별시 광산구 송정동 893-46","openHours":"24시간","maleToilets":2,"femaleToilets":1,"disabled":false,"diaperTable":false,"emergencyBell":false,"cctv":false,"managerTel":"0629438287","source":"public","category":"public"},{"id":"202358250000100213","name":"농협중앙회 광산지점","lat":35.139429,"lng":126.794798,"roadAddr":"전남광주통합특별시 광산구 광산로29번길 8 (송정동)","jibunAddr":"전남광주통합특별시 광산구 송정동 830-4","openHours":"24시간","maleToilets":4,"femaleToilets":4,"disabled":false,"diaperTable":false,"emergencyBell":false,"cctv":false,"managerTel":"0629418071","source":"public","category":"public"},{"id":"202358250000100214","name":"송정농협 중앙지점","lat":35.139209,"lng":126.799588,"roadAddr":"전남광주통합특별시 광산구 광산로68번길 38 (송정동)","jibunAddr":"전남광주통합특별시 광산구 송정동 566-3","openHours":"24시간","maleToilets":4,"femaleToilets":4,"disabled":false,"diaperTable":false,"emergencyBell":false,"cctv":false,"managerTel":"0629440801","source":"public","category":"public"},{"id":"202358250000100217","name":"송정요양병원","lat":35.14292,"lng":126.795503,"roadAddr":"전남광주통합특별시 광산구 상무대로 271 (소촌동)","jibunAddr":"전남광주통합특별시 광산구 소촌동 523-16","openHours":"24시간","maleToilets":5,"femaleToilets":3,"disabled":false,"diaperTable":true,"emergencyBell":false,"cctv":true,"managerTel":"0629456006","source":"public","category":"public"},{"id":"202358250000100218","name":"기아오토큐(소촌점)","lat":35.149012,"lng":126.793829,"roadAddr":"전남광주통합특별시 광산구 소촌로 52 (소촌동)","jibunAddr":"전남광주통합특별시 광산구 소촌동 396","openHours":"24시간","maleToilets":3,"femaleToilets":1,"disabled":false,"diaperTable":false,"emergencyBell":false,"cctv":false,"managerTel":"0629438587","source":"public","category":"public"},{"id":"202358250000100160","name":"광주송정역(지하철역)","lat":35.138412,"lng":126.792044,"roadAddr":"전남광주통합특별시 광산구 상무대로 201-99","jibunAddr":"전남광주통합특별시 광산구 송정동 1003-12","openHours":"24시간","maleToilets":9,"femaleToilets":9,"disabled":false,"diaperTable":false,"emergencyBell":false,"cctv":true,"source":"public","category":"public"},{"id":"202358250000100161","name":"도산역","lat":35.131406,"lng":126.787282,"roadAddr":"전남광주통합특별시 광산구 상무대로 지하 125-99 (도산동)","jibunAddr":"전남광주통합특별시 광산구 도산동 1023-3","openHours":"24시간","maleToilets":16,"femaleToilets":16,"disabled":false,"diaperTable":false,"emergencyBell":false,"cctv":true,"managerTel":"0622339168","source":"public","category":"public"},{"id":"202358250000100173","name":"송정사랑병원","lat":35.134229,"lng":126.797333,"roadAddr":"전남광주통합특별시 광산구 송도로 232 (송정동)","jibunAddr":"전남광주통합특별시 광산구 송정동 896","openHours":"24시간","maleToilets":7,"femaleToilets":3,"disabled":true,"diaperTable":false,"emergencyBell":false,"cctv":false,"managerTel":"0629499000","source":"public","category":"public"},{"id":"202358250000100136","name":"신흥동행정복지센터","lat":35.145338,"lng":126.800498,"roadAddr":"전남광주통합특별시 광산구 신흥동안길 9 (신촌동)","jibunAddr":"전남광주통합특별시 광산구 신촌동 1083","openHours":"09:00~18:00","maleToilets":0,"femaleToilets":0,"disabled":true,"diaperTable":true,"emergencyBell":false,"cctv":true,"managerTel":"0629607633","source":"public","category":"public"},{"id":"202358250000100141","name":"광산구청","lat":35.139646,"lng":126.793523,"roadAddr":"전남광주통합특별시 광산구 광산로29번길 15 (송정동)","jibunAddr":"전남광주통합특별시 광산구 송정동 833-8","openHours":"09:00~18:00","maleToilets":82,"femaleToilets":39,"disabled":true,"diaperTable":true,"emergencyBell":false,"cctv":true,"managerTel":"06296082062","source":"public","category":"public"},{"id":"202358250000100143","name":"송정2동행정복지센터","lat":35.13708,"lng":126.796906,"roadAddr":"전남광주통합특별시 광산구 광산로30번길 65 (송정동)","jibunAddr":"전남광주통합특별시 광산구 송정동 884-1","openHours":"09:00~18:00","maleToilets":2,"femaleToilets":2,"disabled":true,"diaperTable":false,"emergencyBell":true,"cctv":true,"managerTel":"0629607615","source":"public","category":"public"},{"id":"202358250000100144","name":"송정1동행정복지센터","lat":35.141889,"lng":126.800868,"roadAddr":"전남광주통합특별시 광산구 광산로 92(송정동)","jibunAddr":"전남광주통합특별시 광산구 송정동 653","openHours":"09:00~18:00","maleToilets":4,"femaleToilets":2,"disabled":false,"diaperTable":false,"emergencyBell":false,"cctv":false,"managerTel":"0629607609","source":"public","category":"public"},{"id":"202358250000100145","name":"광산구문화예술회관","lat":35.140519,"lng":126.799256,"roadAddr":"전남광주통합특별시 광산구 광산로68번길 13 (송정동)","jibunAddr":"전남광주통합특별시 광산구 송정동 582-1","openHours":"09:00~18:00","maleToilets":4,"femaleToilets":4,"disabled":false,"diaperTable":false,"emergencyBell":false,"cctv":false,"managerTel":"0629608860","source":"public","category":"public"},{"id":"202358250000100146","name":"송정도서관","lat":35.144927,"lng":126.799782,"roadAddr":"전남광주통합특별시 광산구 송정공원로 8-13 (소촌동)","jibunAddr":"전남광주통합특별시 광산구 소촌동 산4-1","openHours":"09:00~18:00","maleToilets":4,"femaleToilets":4,"disabled":false,"diaperTable":false,"emergencyBell":false,"cctv":false,"managerTel":"0629408925","source":"public","category":"public"},{"id":"202358250000100147","name":"광산구 구민회관","lat":35.142489,"lng":126.795118,"roadAddr":"전남광주통합특별시 광산구 상무대로 265 (소촌동)","jibunAddr":"전남광주통합특별시 광산구 소촌동 528-14","openHours":"09:00~18:00","maleToilets":8,"femaleToilets":8,"disabled":false,"diaperTable":false,"emergencyBell":false,"cctv":false,"managerTel":"0629608969","source":"public","category":"public"},{"id":"202358250000100150","name":"광산구행복나루노인복지관","lat":35.13486,"lng":126.795149,"roadAddr":"전남광주통합특별시 광산구 송정로52번길 20 (도산동)","jibunAddr":"전남광주통합특별시 광산구 도산동 925-1","openHours":"09:00~18:00","maleToilets":4,"femaleToilets":4,"disabled":false,"diaperTable":false,"emergencyBell":false,"cctv":false,"managerTel":"0629609967","source":"public","category":"public"},{"id":"202358250000100151","name":"도산동행정복지센터","lat":35.12951,"lng":126.791852,"roadAddr":"전남광주통합특별시 광산구 도산로 12 (도산동)","jibunAddr":"전남광주통합특별시 광산구 도산동 1084-5","openHours":"09:00~18:00","maleToilets":4,"femaleToilets":3,"disabled":false,"diaperTable":false,"emergencyBell":false,"cctv":true,"managerTel":"0629607624","source":"public","category":"public"},{"id":"202358250000100155","name":"광주공항","lat":35.139951,"lng":126.810775,"roadAddr":"전남광주통합특별시 광산구 상무대로 420-25 (신촌동)","jibunAddr":"전남광주통합특별시 광산구 신촌동 698-9","openHours":"공항운영시간","maleToilets":33,"femaleToilets":28,"disabled":true,"diaperTable":true,"emergencyBell":true,"cctv":true,"source":"public","category":"public"},{"id":"202358250000100156","name":"공항역","lat":35.144065,"lng":126.811707,"roadAddr":"전남광주통합특별시 광산구 상무대로 지하 416-99 (신촌동)","jibunAddr":"전남광주통합특별시 광산구 신촌동 682-29","openHours":"24시간","maleToilets":10,"femaleToilets":11,"disabled":false,"diaperTable":false,"emergencyBell":false,"cctv":true,"managerTel":"0622339165","source":"public","category":"public"},{"id":"202358250000100157","name":"송정공원역","lat":35.143933,"lng":126.801721,"roadAddr":"전남광주통합특별시 광산구 상무대로 329 (신촌동)","jibunAddr":"전남광주통합특별시 광산구 신촌동 1090-18","openHours":"24시간","maleToilets":10,"femaleToilets":11,"disabled":false,"diaperTable":false,"emergencyBell":false,"cctv":true,"managerTel":"0622339166","source":"public","category":"public"},{"id":"202358250000100159","name":"송정역","lat":35.137243,"lng":126.790683,"roadAddr":"전남광주통합특별시 광산구 상무대로 201 (송정동)","jibunAddr":"전남광주통합특별시 광산구 송정동 1003-1","openHours":"24시간","maleToilets":13,"femaleToilets":13,"disabled":false,"diaperTable":true,"emergencyBell":false,"cctv":true,"managerTel":"0629420420","source":"public","category":"public"},{"id":"202358250000100361","name":"바다양푼이 송정점","lat":35.134774,"lng":126.796667,"roadAddr":"전남광주통합특별시 광산구 송정로 56","jibunAddr":"전남광주통합특별시 광산구 송정동 875-4","openHours":"11:00~22:00","maleToilets":3,"femaleToilets":2,"disabled":false,"diaperTable":false,"emergencyBell":false,"cctv":false,"managerTel":"0629446200","source":"public","category":"public"},{"id":"202458250000100001","name":"송정메타세콰이어길","lat":35.136519,"lng":126.805019,"roadAddr":"전남광주통합특별시 광산구 송정외로 185 (송정동)","jibunAddr":"전남광주통합특별시 광산구 송정동 75-38","openHours":"상시","maleToilets":1,"femaleToilets":1,"disabled":true,"diaperTable":true,"emergencyBell":true,"cctv":false,"source":"public","category":"public"},{"id":"202358250000100114","name":"모아교회","lat":35.138863,"lng":126.804013,"roadAddr":"전남광주통합특별시 광산구 용보로49번안길 58","jibunAddr":"전남광주통합특별시 광산구 송정동 447-1","openHours":"24시간","maleToilets":2,"femaleToilets":2,"disabled":false,"diaperTable":false,"emergencyBell":false,"cctv":false,"source":"public","category":"public"},{"id":"202358250000100117","name":"송정세차파크","lat":35.126633,"lng":126.786761,"roadAddr":"전남광주통합특별시 광산구 송도로85번길 30","jibunAddr":"전남광주통합특별시 광산구 도산동 1216-2","openHours":"24시간","maleToilets":2,"femaleToilets":1,"disabled":false,"diaperTable":false,"emergencyBell":false,"cctv":false,"managerTel":"07081918181","source":"public","category":"public"}]