[{"id":"202557950000100073","name":"금천농협(남부농협)","lat":35.014243,"lng":126.765173,"roadAddr":"전남광주통합특별시 나주시 금천면 광암1길 8","openHours":"09:00~16:30","maleToilets":4,"femaleToilets":2,"disabled":false,"diaperTable":false,"emergencyBell":false,"cctv":false,"managerTel":"0613317176","source":"public","category":"public"},{"id":"202557950000100013","name":"한전KDN 옥외화장실","lat":35.022819,"lng":126.782114,"roadAddr":"전남광주통합특별시 나주시 빛가람로 661","openHours":"09:00-18:00","maleToilets":5,"femaleToilets":5,"disabled":true,"diaperTable":false,"emergencyBell":true,"cctv":true,"managerTel":"0619317911","source":"public","category":"public"},{"id":"202557950000100014","name":"한전KDN 1층(서측)","lat":35.022819,"lng":126.782114,"roadAddr":"전남광주통합특별시 나주시 빛가람로 661","openHours":"09:00-18:00","maleToilets":6,"femaleToilets":2,"disabled":false,"diaperTable":false,"emergencyBell":false,"cctv":true,"managerTel":"0619317911","source":"public","category":"public"},{"id":"202557950000100015","name":"한전KDN 1층(동측)","lat":35.022819,"lng":126.782114,"roadAddr":"전남광주통합특별시 나주시 빛가람로 661","openHours":"09:00-18:00","maleToilets":7,"femaleToilets":7,"disabled":true,"diaperTable":false,"emergencyBell":true,"cctv":true,"managerTel":"0619317911","source":"public","category":"public"},{"id":"202557950000100002","name":"빛가람 공원텃밭 제1텃밭(근린공원 8호)","lat":35.010109,"lng":126.77552,"roadAddr":"전남광주통합특별시 나주시 문화로 92","openHours":"상시","maleToilets":2,"femaleToilets":1,"disabled":false,"diaperTable":false,"emergencyBell":false,"cctv":false,"managerTel":"0613392717","source":"public","category":"public"},{"id":"202557950000100271","name":"용화사","lat":34.9864,"lng":126.749057,"roadAddr":"전남광주통합특별시 나주시 우산가송길 147-1 (평산동)","openHours":"09:00~18:00","maleToilets":2,"femaleToilets":1,"disabled":false,"diaperTable":false,"emergencyBell":false,"cctv":false,"managerTel":"0613376148","source":"public","category":"public"},{"id":"202557950000100017","name":"한국문화예술위원회 1층","lat":35.020726,"lng":126.781999,"roadAddr":"전남광주통합특별시 나주시 빛가람로 640","openHours":"09:00-18:00","maleToilets":7,"femaleToilets":6,"disabled":true,"diaperTable":true,"emergencyBell":true,"cctv":false,"managerTel":"0619002100","source":"public","category":"public"},{"id":"202557950000100019","name":"한국농촌경제연구원 청사 1층 로비","lat":35.022504,"lng":126.777825,"roadAddr":"전남광주통합특별시 나주시 빛가람로 601","openHours":"09:00-18:00","maleToilets":4,"femaleToilets":5,"disabled":true,"diaperTable":false,"emergencyBell":false,"cctv":false,"managerTel":"0618202000","source":"public","category":"public"},{"id":"202557950000100023","name":"한국콘텐츠진흥원 본원 1층","lat":35.019669,"lng":126.781754,"roadAddr":"전남광주통합특별시 나주시 교육길 35","openHours":"상시","maleToilets":9,"femaleToilets":10,"disabled":true,"diaperTable":true,"emergencyBell":false,"cctv":false,"source":"public","category":"public"}]