[{"id":"202557950000100205","name":"산포면복지회관","lat":35.039282,"lng":126.805276,"roadAddr":"전남광주통합특별시 나주시 산포면 산포로 468-14","openHours":"09:00-18:00","maleToilets":4,"femaleToilets":3,"disabled":false,"diaperTable":false,"emergencyBell":false,"cctv":false,"managerTel":"0613393585","source":"public","category":"public"},{"id":"202557950000100206","name":"산포보건지소","lat":35.040099,"lng":126.805747,"roadAddr":"전남광주통합특별시 나주시 산포면 산포로 468-15","openHours":"09:00-18:00","maleToilets":3,"femaleToilets":2,"disabled":false,"diaperTable":false,"emergencyBell":false,"cctv":false,"managerTel":"0613373866","source":"public","category":"public"},{"id":"202557950000100207","name":"산포면 행정복지센터","lat":35.040099,"lng":126.805747,"roadAddr":"전남광주통합특별시 나주시 산포면 산포로 468-15","openHours":"09:00-18:00","maleToilets":5,"femaleToilets":2,"disabled":false,"diaperTable":false,"emergencyBell":false,"cctv":false,"managerTel":"0613393585","source":"public","category":"public"},{"id":"202557950000100209","name":"한전공대 주유소","lat":35.039449,"lng":126.786009,"roadAddr":"전남광주통합특별시 나주시 산포면 영산로 6025","openHours":"06:00-24:00","maleToilets":4,"femaleToilets":2,"disabled":false,"diaperTable":false,"emergencyBell":false,"cctv":false,"managerTel":"0613375188","source":"public","category":"public"},{"id":"202557950000100211","name":"빛가람병원","lat":35.035901,"lng":126.799472,"roadAddr":"전남광주통합특별시 나주시 산포면 매성길 61","openHours":"09:00-18:00","maleToilets":7,"femaleToilets":5,"disabled":false,"diaperTable":false,"emergencyBell":true,"cctv":false,"source":"public","category":"public"},{"id":"202557950000100212","name":"농업기술원","lat":35.035666,"lng":126.803852,"roadAddr":"전남광주통합특별시 나주시 산포면 산포로 420","openHours":"09:00-18:00","maleToilets":2,"femaleToilets":1,"disabled":false,"diaperTable":false,"emergencyBell":false,"cctv":false,"managerTel":"0613371001","source":"public","category":"public"},{"id":"202557950000100213","name":"산포농협","lat":35.035357,"lng":126.803007,"roadAddr":"전남광주통합특별시 나주시 산포면 산포로 421","openHours":"09:00-18:00","maleToilets":4,"femaleToilets":2,"disabled":false,"diaperTable":false,"emergencyBell":false,"cctv":false,"managerTel":"0613371005","source":"public","category":"public"},{"id":"202557950000100215","name":"등정교회","lat":35.04154,"lng":126.820827,"roadAddr":"전남광주통합특별시 나주시 산포면 구등길 19","openHours":"09:00-18:00","maleToilets":3,"femaleToilets":2,"disabled":false,"diaperTable":false,"emergencyBell":false,"cctv":false,"source":"public","category":"public"},{"id":"202557950000100216","name":"나주혁신주유소","lat":35.038923,"lng":126.786063,"roadAddr":"전남광주통합특별시 나주시 산포면 영산로 6022","openHours":"09:00-18:00","maleToilets":2,"femaleToilets":2,"disabled":false,"diaperTable":false,"emergencyBell":false,"cctv":false,"source":"public","category":"public"},{"id":"202557950000100008","name":"혁신도시 문화공원 2호 (나주언덕)","lat":35.027588,"lng":126.78935,"roadAddr":"전남광주통합특별시 나주시 전력로 84","openHours":"상시","maleToilets":5,"femaleToilets":5,"disabled":false,"diaperTable":true,"emergencyBell":true,"cctv":false,"managerTel":"0613392717","source":"public","category":"public"},{"id":"202557950000100003","name":"혁신도시 문화공원 3호 (매화제)","lat":35.027519,"lng":126.798258,"roadAddr":"전남광주통합특별시 나주시 혁신로 339","openHours":"상시","maleToilets":5,"femaleToilets":5,"disabled":false,"diaperTable":true,"emergencyBell":true,"cctv":false,"managerTel":"0613392717","source":"public","category":"public"},{"id":"202557950000100217","name":"산포파출소","lat":35.037216,"lng":126.80158,"roadAddr":"전남광주통합특별시 나주시 산포면 산포로 443-5","openHours":"09:00-18:00","maleToilets":2,"femaleToilets":1,"disabled":false,"diaperTable":false,"emergencyBell":false,"cctv":false,"managerTel":"0613371112","source":"public","category":"public"},{"id":"202557950000100020","name":"한국전력공사 지하 1층","lat":35.026474,"lng":126.784521,"roadAddr":"전남광주통합특별시 나주시 전력로 55","openHours":"상시","maleToilets":15,"femaleToilets":5,"disabled":false,"diaperTable":false,"emergencyBell":false,"cctv":false,"managerTel":"0613455933","source":"public","category":"public"},{"id":"202557950000100021","name":"한국전력공사 1층","lat":35.026474,"lng":126.784521,"roadAddr":"전남광주통합특별시 나주시 전력로 55","openHours":"상시","maleToilets":25,"femaleToilets":20,"disabled":true,"diaperTable":true,"emergencyBell":false,"cctv":false,"managerTel":"0613455933","source":"public","category":"public"},{"id":"202557950000100022","name":"한국전력공사 2층","lat":35.026474,"lng":126.784521,"roadAddr":"전남광주통합특별시 나주시 전력로 55","openHours":"상시","maleToilets":15,"femaleToilets":13,"disabled":true,"diaperTable":true,"emergencyBell":false,"cctv":false,"managerTel":"0613455933","source":"public","category":"public"},{"id":"202458150000100108","name":"양촌주유소","lat":35.060757,"lng":126.790871,"roadAddr":"전남광주통합특별시 남구 포충로 121","jibunAddr":"전남광주통합특별시 남구 양촌동 338-1","openHours":"상시","maleToilets":0,"femaleToilets":0,"disabled":false,"diaperTable":false,"emergencyBell":false,"cctv":false,"managerTel":"0623743389","source":"public","category":"public"}]