[{"id":"202058850000100038","name":"나산 보건지소 화장실","lat":35.11347,"lng":126.608688,"roadAddr":"함평군 나산면 나산길 103","jibunAddr":"함평군 나산면 삼축리 338","openHours":"정시","maleToilets":4,"femaleToilets":2,"disabled":true,"diaperTable":false,"emergencyBell":false,"cctv":false,"managerTel":"0613202475","source":"public","category":"public"},{"id":"202058850000100068","name":"나산면사무소","lat":35.11389,"lng":126.609091,"roadAddr":"나산면 나산길108","jibunAddr":"삼축리 321-1","openHours":"정시","maleToilets":9,"femaleToilets":2,"disabled":false,"diaperTable":false,"emergencyBell":false,"cctv":false,"managerTel":"0613202750","source":"public","category":"public"},{"id":"202058850000100069","name":"나산면민회관","lat":35.112544,"lng":126.608673,"roadAddr":"나산면 함장로 2404","jibunAddr":"삼축리1212-9","openHours":"정시","maleToilets":7,"femaleToilets":2,"disabled":false,"diaperTable":false,"emergencyBell":false,"cctv":false,"managerTel":"0613202750","source":"public","category":"public"},{"id":"202058850000100077","name":"나산파출소 1층","lat":35.113056,"lng":126.609733,"roadAddr":"함평군 나산면 나산길 84","jibunAddr":"함평군 나산면 삼축리 336-8","openHours":"정시","maleToilets":2,"femaleToilets":1,"disabled":false,"diaperTable":false,"emergencyBell":false,"cctv":false,"managerTel":"0613201305","source":"public","category":"public"},{"id":"202058850000100137","name":"나산학동주유소 화장실","lat":35.135045,"lng":126.624511,"roadAddr":"나산면 체암로 1334","jibunAddr":"이문리 222-1","openHours":"정시","maleToilets":5,"femaleToilets":0,"disabled":false,"diaperTable":false,"emergencyBell":false,"cctv":false,"managerTel":"0613235182","source":"public","category":"public"}]