[{"id":"202558550000101231","name":"화순케어랜드요양병원","lat":34.963989,"lng":127.053832,"roadAddr":"전남광주통합특별시 화순군 한천면 헌무정길 119","openHours":"정시","maleToilets":8,"femaleToilets":4,"disabled":true,"diaperTable":false,"emergencyBell":false,"cctv":false,"managerTel":"0613738600","source":"public","category":"public"},{"id":"202558550000101330","name":"한천면 영외출장소 화장실","lat":34.973709,"lng":127.071548,"roadAddr":"전남광주통합특별시 화순군 한천면 외남로 437","jibunAddr":"전남광주통합특별시 화순군 한천면 동가리 30","openHours":"정시","maleToilets":6,"femaleToilets":3,"disabled":true,"diaperTable":false,"emergencyBell":false,"cctv":false,"source":"public","category":"public"},{"id":"202558550000101331","name":"정우리(마을)공중화장실","lat":34.973085,"lng":127.077021,"roadAddr":"전남광주통합특별시 화순군 한천면 정산길 58","jibunAddr":"전남광주통합특별시 화순군 한천면 정우리 494","openHours":"상시","maleToilets":2,"femaleToilets":1,"disabled":false,"diaperTable":false,"emergencyBell":false,"cctv":false,"managerTel":"0613793614","source":"public","category":"public"},{"id":"202558550000101332","name":"반곡분교앞 공중화장실","lat":34.972863,"lng":127.06767,"jibunAddr":"전남광주통합특별시 화순군 한천면 반곡리  677-14","openHours":"상시","maleToilets":1,"femaleToilets":1,"disabled":false,"diaperTable":false,"emergencyBell":false,"cctv":false,"managerTel":"0613793614","source":"public","category":"public"},{"id":"202558550000101336","name":"동가리 공중화장실","lat":34.963972,"lng":127.064461,"roadAddr":"전남광주통합특별시 화순군 한천면 동산1길 68","jibunAddr":"전남광주통합특별시 화순군 한천면 동가리 378","openHours":"상시","maleToilets":2,"femaleToilets":2,"disabled":false,"diaperTable":false,"emergencyBell":true,"cctv":false,"managerTel":"0613793614","source":"public","category":"public"},{"id":"202558550000101337","name":"동가리 동가숲공중화장실","lat":34.963188,"lng":127.064678,"roadAddr":"전남광주통합특별시 화순군 한천면 동산1길 78","jibunAddr":"전남광주통합특별시 화순군 한천면 동가리 872-22","openHours":"상시","maleToilets":1,"femaleToilets":1,"disabled":true,"diaperTable":false,"emergencyBell":true,"cctv":false,"managerTel":"0613793614","source":"public","category":"public"},{"id":"202558550000101339","name":"반곡교공중화장실","lat":34.97227,"lng":127.067776,"roadAddr":"전남광주통합특별시 화순군 한천면 외남로 478","jibunAddr":"전남광주통합특별시 화순군 한천면 동가리 872-48 공중화장실","openHours":"상시","maleToilets":2,"femaleToilets":2,"disabled":false,"diaperTable":false,"emergencyBell":false,"cctv":false,"managerTel":"0613793614","source":"public","category":"public"},{"id":"202558550000101502","name":"동가리 유원지 입구 공중화장실","lat":34.966578,"lng":127.063885,"jibunAddr":"전남광주통합특별시 화순군 한천면 동가리 872-4","openHours":"상시","maleToilets":1,"femaleToilets":1,"disabled":true,"diaperTable":false,"emergencyBell":false,"cctv":false,"managerTel":"0613793614","source":"public","category":"public"},{"id":"202658550000100002","name":"동가리 공중화장실 2","lat":34.963561,"lng":127.064789,"roadAddr":"전남광주통합특별시 화순군 한천면 동산1길 77-5","jibunAddr":"전남광주통합특별시 화순군 한천면 동가리 433","openHours":"상시","maleToilets":1,"femaleToilets":2,"disabled":true,"diaperTable":true,"emergencyBell":true,"cctv":false,"managerTel":"0613793611","source":"public","category":"public"},{"id":"202558550000101440","name":"고시리마을 공중화장실","lat":34.949857,"lng":127.05966,"jibunAddr":"전남광주통합특별시 화순군 한천면 고시리  271","openHours":"상시","maleToilets":2,"femaleToilets":1,"disabled":false,"diaperTable":false,"emergencyBell":false,"cctv":false,"managerTel":"0613793614","source":"public","category":"public"}]