[{"id":"202558550000101356","name":"신풍교공중화장실","lat":34.858916,"lng":126.961875,"roadAddr":"전남광주통합특별시 화순군 청풍면 곰치로 1774","jibunAddr":"전남광주통합특별시 화순군 청풍면 신석리 768","openHours":"상시","maleToilets":2,"femaleToilets":1,"disabled":false,"diaperTable":false,"emergencyBell":false,"cctv":false,"managerTel":"0613793614","source":"public","category":"public"},{"id":"202558550000101358","name":"청풍면복지회관 화장실","lat":34.876483,"lng":126.97115,"roadAddr":"전남광주통합특별시 화순군 청풍면 평지촌길 47","jibunAddr":"전남광주통합특별시 화순군 청풍면 차리 74-1","openHours":"정시","maleToilets":10,"femaleToilets":8,"disabled":true,"diaperTable":false,"emergencyBell":false,"cctv":false,"managerTel":"0613795040","source":"public","category":"public"},{"id":"202558550000101359","name":"청풍면행정복지센터 화장실","lat":34.876313,"lng":126.970026,"roadAddr":"전남광주통합특별시 화순군 청풍면 평지촌길 40","jibunAddr":"전남광주통합특별시 화순군 청풍면 차리 252","openHours":"정시","maleToilets":7,"femaleToilets":2,"disabled":true,"diaperTable":false,"emergencyBell":false,"cctv":false,"managerTel":"0613795040","source":"public","category":"public"},{"id":"202558550000101364","name":"차천생태습지 공중화장실","lat":34.881219,"lng":126.977615,"roadAddr":"전남광주통합특별시 화순군 청풍면 곰치로 2095","jibunAddr":"전남광주통합특별시 화순군 청풍면 차리 62-1","openHours":"상시","maleToilets":2,"femaleToilets":1,"disabled":false,"diaperTable":false,"emergencyBell":false,"cctv":false,"managerTel":"0613793614","source":"public","category":"public"},{"id":"202558550000101365","name":"신리교2 공중화장실","lat":34.878897,"lng":126.977396,"jibunAddr":"전남광주통합특별시 화순군 청풍면 신리  715-1","openHours":"상시","maleToilets":1,"femaleToilets":1,"disabled":false,"diaperTable":false,"emergencyBell":false,"cctv":false,"managerTel":"0613793614","source":"public","category":"public"},{"id":"202558550000101366","name":"신리교1 공중화장실","lat":34.878897,"lng":126.977396,"jibunAddr":"전남광주통합특별시 화순군 청풍면 신리  715-1","openHours":"상시","maleToilets":1,"femaleToilets":1,"disabled":false,"diaperTable":false,"emergencyBell":false,"cctv":false,"managerTel":"0613793614","source":"public","category":"public"},{"id":"202558550000101367","name":"귀미뜰 공중화장실","lat":34.881382,"lng":126.993464,"jibunAddr":"전남광주통합특별시 화순군 청풍면 신리  2-1","openHours":"상시","maleToilets":1,"femaleToilets":2,"disabled":false,"diaperTable":false,"emergencyBell":false,"cctv":false,"managerTel":"0613793614","source":"public","category":"public"},{"id":"202558550000101368","name":"영신주유소 공중화장실","lat":34.891471,"lng":126.987923,"roadAddr":"전남광주통합특별시 화순군 이양면 학포로 605","jibunAddr":"전남광주통합특별시 화순군 이양면 오류리 639-4","openHours":"정시","maleToilets":3,"femaleToilets":2,"disabled":false,"diaperTable":false,"emergencyBell":false,"cctv":false,"managerTel":"0613723148","source":"public","category":"public"},{"id":"202558550000101370","name":"이양전통시장 공중화장실","lat":34.882657,"lng":126.987179,"roadAddr":"전남광주통합특별시 화순군 이양면 이양로 29-29","jibunAddr":"전남광주통합특별시 화순군 이양면 이양리 633","openHours":"상시","maleToilets":5,"femaleToilets":4,"disabled":false,"diaperTable":false,"emergencyBell":true,"cctv":false,"managerTel":"0613793614","source":"public","category":"public"},{"id":"202558550000101199","name":"호남119특수구조대","lat":34.874145,"lng":126.9946,"roadAddr":"전남광주통합특별시 화순군 이양면 학포로 327, 호남119특수구조대","jibunAddr":"전남광주통합특별시 화순군 이양면 율계리 861 호남119특수구조대","openHours":"정시","maleToilets":6,"femaleToilets":3,"disabled":true,"diaperTable":false,"emergencyBell":true,"cctv":false,"managerTel":"0613706700","source":"public","category":"public"},{"id":"202558550000101204","name":"화순청풍우체국","lat":34.87756,"lng":126.971779,"roadAddr":"전남광주통합특별시 화순군 청풍면 평지촌길 23","jibunAddr":"전남광주통합특별시 화순군 화순읍 향청리 3번지","openHours":"정시","maleToilets":2,"femaleToilets":1,"disabled":false,"diaperTable":false,"emergencyBell":true,"cctv":false,"managerTel":"0613729503","source":"public","category":"public"},{"id":"202558550000101248","name":"이양만남의광장","lat":34.888669,"lng":126.987853,"jibunAddr":"전남광주통합특별시 화순군 이양면 이양리  188-5","openHours":"상시","maleToilets":2,"femaleToilets":2,"disabled":true,"diaperTable":false,"emergencyBell":true,"cctv":false,"managerTel":"0613793614","source":"public","category":"public"},{"id":"202558550000101212","name":"이양우체국","lat":34.886575,"lng":126.988896,"roadAddr":"전남광주통합특별시 화순군 이양면 이양로 80","openHours":"정시","maleToilets":2,"femaleToilets":1,"disabled":false,"diaperTable":false,"emergencyBell":false,"cctv":false,"managerTel":"0613723003","source":"public","category":"public"},{"id":"202558550000101236","name":"이양청풍농협주유소","lat":34.881294,"lng":126.986638,"roadAddr":"전남광주통합특별시 화순군 청풍면 학포로 484","jibunAddr":"전남광주통합특별시 화순군 청풍면 신리 73-7","openHours":"정시","maleToilets":3,"femaleToilets":2,"disabled":false,"diaperTable":false,"emergencyBell":false,"cctv":false,"managerTel":"0613727989","source":"public","category":"public"},{"id":"202558550000101371","name":"이양면행정복지센터 공중화장실","lat":34.887828,"lng":126.988333,"roadAddr":"전남광주통합특별시 화순군 이양면 이양로 91","jibunAddr":"전남광주통합특별시 화순군 이양면 이양리 199","openHours":"정시","maleToilets":12,"femaleToilets":1,"disabled":true,"diaperTable":true,"emergencyBell":true,"cctv":true,"managerTel":"0613795050","source":"public","category":"public"},{"id":"202558550000101496","name":"이양역","lat":34.891603,"lng":126.989762,"roadAddr":"전남광주통합특별시 화순군 이양면 이양로 134, 이양역","jibunAddr":"전남광주통합특별시 화순군 이양면 오류리 664-1 이양역","openHours":"정시","maleToilets":6,"femaleToilets":3,"disabled":false,"diaperTable":false,"emergencyBell":true,"cctv":false,"managerTel":"15447788","source":"public","category":"public"}]