[{"id":"202558550000101360","name":"화학산주차장","lat":34.869559,"lng":126.940724,"roadAddr":"전남광주통합특별시 화순군 청풍면 청용길 213-62","jibunAddr":"전남광주통합특별시 화순군 청풍면 청용리 235-4","openHours":"상시","maleToilets":1,"femaleToilets":1,"disabled":true,"diaperTable":false,"emergencyBell":true,"cctv":false,"managerTel":"0613793614","source":"public","category":"public"},{"id":"202558550000101361","name":"화학산등산로","lat":34.870282,"lng":126.939934,"jibunAddr":"전남광주통합특별시 화순군 청풍면 청용리  368-2","openHours":"상시","maleToilets":1,"femaleToilets":1,"disabled":false,"diaperTable":false,"emergencyBell":true,"cctv":false,"managerTel":"0613793614","source":"public","category":"public"},{"id":"202558550000101362","name":"청용제 공중화장실","lat":34.866745,"lng":126.934661,"jibunAddr":"전남광주통합특별시 화순군 청풍면 청용리  500-2","openHours":"상시","maleToilets":1,"femaleToilets":1,"disabled":false,"diaperTable":false,"emergencyBell":false,"cctv":false,"managerTel":"0613793614","source":"public","category":"public"},{"id":"202558550000101363","name":"화학산해맞이 공중화장실","lat":34.873273,"lng":126.932309,"jibunAddr":"전남광주통합특별시 화순군 청풍면 청용리  산 112","openHours":"상시","maleToilets":1,"femaleToilets":1,"disabled":false,"diaperTable":false,"emergencyBell":false,"cctv":false,"managerTel":"0613793614","source":"public","category":"public"},{"id":"202558550000101416","name":"신풍교2","lat":34.854321,"lng":126.937956,"roadAddr":"전남광주통합특별시 화순군 청풍면 석치길 19-5","jibunAddr":"전남광주통합특별시 화순군 청풍면 신석리 956","openHours":"상시","maleToilets":2,"femaleToilets":1,"disabled":false,"diaperTable":false,"emergencyBell":false,"cctv":false,"managerTel":"0613793614","source":"public","category":"public"}]