[{"id":"202558550000101249","name":"능주전통시장 주차장 (정문)","lat":34.990928,"lng":126.959343,"roadAddr":"전남광주통합특별시 화순군 능주면 학포로 1955","jibunAddr":"전남광주통합특별시 화순군 능주면 관영리 94-9","openHours":"상시","maleToilets":3,"femaleToilets":3,"disabled":true,"diaperTable":false,"emergencyBell":true,"cctv":false,"managerTel":"0613793614","source":"public","category":"public"},{"id":"202558550000101213","name":"능주우체국","lat":34.987683,"lng":126.959344,"roadAddr":"전남광주통합특별시 화순군 능주면 죽수길 48","jibunAddr":"전남광주통합특별시 화순군 화순읍 640번지 2호","openHours":"09:00~18:00","maleToilets":4,"femaleToilets":2,"disabled":true,"diaperTable":false,"emergencyBell":false,"cctv":false,"managerTel":"0613721003","source":"public","category":"public"},{"id":"202558550000101235","name":"화순파크골프장공중화장실","lat":34.9918,"lng":126.963566,"jibunAddr":"전남광주통합특별시 화순군 능주면 관영리  11-1","openHours":"상시","maleToilets":2,"femaleToilets":1,"disabled":true,"diaperTable":false,"emergencyBell":true,"cctv":false,"managerTel":"0613793614","source":"public","category":"public"},{"id":"202558550000101461","name":"주자묘 공중화장실","lat":35.00199,"lng":126.963038,"roadAddr":"전남광주통합특별시 화순군 능주면 회덕길 14-34","jibunAddr":"전남광주통합특별시 화순군 능주면 천덕리 337","openHours":"상시","maleToilets":6,"femaleToilets":3,"disabled":true,"diaperTable":false,"emergencyBell":true,"cctv":true,"managerTel":"0613793614","source":"public","category":"public"},{"id":"202558550000101495","name":"능주역","lat":34.987034,"lng":126.963824,"roadAddr":"전남광주통합특별시 화순군 능주면 학포로 1896-10, 능주역","jibunAddr":"전남광주통합특별시 화순군 능주면 관영리 230-11 능주역","openHours":"09:00~18:00","maleToilets":5,"femaleToilets":2,"disabled":true,"diaperTable":false,"emergencyBell":true,"cctv":false,"source":"public","category":"public"},{"id":"202558550000101467","name":"능주버스 정류장 공중화장실","lat":34.991638,"lng":126.958013,"roadAddr":"전남광주통합특별시 화순군 능주면 죽수길 93","jibunAddr":"전남광주통합특별시 화순군 능주면 석고리 208","openHours":"09:00~18:00","maleToilets":1,"femaleToilets":1,"disabled":false,"diaperTable":false,"emergencyBell":false,"cctv":true,"managerTel":"0613721067","source":"public","category":"public"},{"id":"202558550000101469","name":"능주전통시장 외곽 공중화장실","lat":34.990928,"lng":126.959343,"roadAddr":"전남광주통합특별시 화순군 능주면 학포로 1955","jibunAddr":"전남광주통합특별시 화순군 능주면 관영리 94-9","openHours":"상시","maleToilets":2,"femaleToilets":2,"disabled":false,"diaperTable":false,"emergencyBell":true,"cctv":false,"managerTel":"0613793614","source":"public","category":"public"},{"id":"202558550000101470","name":"능주전통시장 공중화장실","lat":34.990928,"lng":126.959343,"roadAddr":"전남광주통합특별시 화순군 능주면 학포로 1955","jibunAddr":"전남광주통합특별시 화순군 능주면 관영리 94-9","openHours":"상시","maleToilets":6,"femaleToilets":5,"disabled":true,"diaperTable":false,"emergencyBell":true,"cctv":false,"managerTel":"0613793614","source":"public","category":"public"},{"id":"202558550000101472","name":"영벽정 공중화장실","lat":34.991828,"lng":126.965638,"roadAddr":"전남광주통합특별시 화순군 능주면 학포로 1922-46","jibunAddr":"전남광주통합특별시 화순군 능주면 관영리 165-9 공중화장실","openHours":"상시","maleToilets":4,"femaleToilets":2,"disabled":false,"diaperTable":false,"emergencyBell":false,"cctv":false,"managerTel":"0613793614","source":"public","category":"public"},{"id":"202558550000101473","name":"능주복지회관화장실","lat":34.990538,"lng":126.959191,"roadAddr":"전남광주통합특별시 화순군 능주면 관동길 7","jibunAddr":"전남광주통합특별시 화순군 능주면 관영리 96-3","openHours":"09:00~18:00","maleToilets":8,"femaleToilets":1,"disabled":true,"diaperTable":false,"emergencyBell":false,"cctv":false,"managerTel":"0613793906","source":"public","category":"public"}]