[{"id":"202558550000101242","name":"동복 공동생활홈 공중화장실","lat":35.068504,"lng":127.126524,"jibunAddr":"전남광주통합특별시 화순군 동복면 천변리  113-7","openHours":"상시","maleToilets":3,"femaleToilets":3,"disabled":true,"diaperTable":false,"emergencyBell":true,"cctv":true,"managerTel":"0613793614","source":"public","category":"public"},{"id":"202558550000101243","name":"동복 수변공원 공중화장실","lat":35.0696,"lng":127.125795,"roadAddr":"전남광주통합특별시 화순군 동복면 천변길 25","jibunAddr":"전남광주통합특별시 화순군 동복면 천변리 107-1","openHours":"상시","maleToilets":1,"femaleToilets":2,"disabled":true,"diaperTable":false,"emergencyBell":true,"cctv":false,"managerTel":"0613793614","source":"public","category":"public"},{"id":"202558550000101246","name":"만경대","lat":35.06944,"lng":127.122476,"jibunAddr":"전남광주통합특별시 화순군 동복면 연월리  1047-21","openHours":"상시","maleToilets":2,"femaleToilets":1,"disabled":false,"diaperTable":false,"emergencyBell":false,"cctv":true,"managerTel":"0613793614","source":"public","category":"public"},{"id":"202558550000101214","name":"동복우체국","lat":35.071035,"lng":127.128232,"roadAddr":"전남광주통합특별시 화순군 동복면 석등길 3","openHours":"09:00~18:00","maleToilets":4,"femaleToilets":2,"disabled":false,"diaperTable":false,"emergencyBell":false,"cctv":false,"managerTel":"0613722003","source":"public","category":"public"},{"id":"202558550000101414","name":"동복면행정복지센터 화장실","lat":35.07116,"lng":127.129064,"roadAddr":"전남광주통합특별시 화순군 동복면 석등길 11","jibunAddr":"전남광주통합특별시 화순군 동복면 독상리 315-3","openHours":"09:00~18:00","maleToilets":4,"femaleToilets":2,"disabled":false,"diaperTable":false,"emergencyBell":false,"cctv":false,"managerTel":"0613722381","source":"public","category":"public"},{"id":"202558550000101381","name":"화순적벽 공중화장실","lat":35.112203,"lng":127.115919,"roadAddr":"전남광주통합특별시 화순군 이서면 적벽로 630-1","jibunAddr":"전남광주통합특별시 화순군 이서면 장학리 80-1","openHours":"상시","maleToilets":5,"femaleToilets":5,"disabled":false,"diaperTable":false,"emergencyBell":true,"cctv":false,"managerTel":"0613793614","source":"public","category":"public"},{"id":"202558550000101406","name":"동복주유소 공중화장실","lat":35.073242,"lng":127.127983,"roadAddr":"전남광주통합특별시 화순군 동복면 오지호로 316","jibunAddr":"전남광주통합특별시 화순군 동복면 칠정리 689","openHours":"09:00~18:00","maleToilets":3,"femaleToilets":2,"disabled":false,"diaperTable":false,"emergencyBell":false,"cctv":false,"managerTel":"0613722178","source":"public","category":"public"},{"id":"202558550000101407","name":"동복면 복지회관 화장실","lat":35.069078,"lng":127.128212,"roadAddr":"전남광주통합특별시 화순군 동복면 오지호로 276","jibunAddr":"전남광주통합특별시 화순군 동복면 독상리 351-6","openHours":"09:00~18:00","maleToilets":3,"femaleToilets":3,"disabled":false,"diaperTable":false,"emergencyBell":false,"cctv":false,"managerTel":"0613722381","source":"public","category":"public"},{"id":"202558550000101413","name":"칠정정열교 공중화장실","lat":35.076618,"lng":127.130023,"roadAddr":"전남광주통합특별시 화순군 동복면 백아로 27","jibunAddr":"전남광주통합특별시 화순군 동복면 칠정리 585-1","openHours":"상시","maleToilets":2,"femaleToilets":1,"disabled":false,"diaperTable":false,"emergencyBell":false,"cctv":false,"managerTel":"0613793614","source":"public","category":"public"},{"id":"202558550000101494","name":"동복 군내버스 주차장","lat":35.071301,"lng":127.128268,"roadAddr":"전남광주통합특별시 화순군 동복면 칠정1길 8","jibunAddr":"전남광주통합특별시 화순군 동복면 독상리 316-4","openHours":"상시","maleToilets":1,"femaleToilets":2,"disabled":true,"diaperTable":false,"emergencyBell":true,"cctv":false,"managerTel":"0613793614","source":"public","category":"public"}]