[{"id":"202258050000100123","name":"용연탐방지원센터","lat":35.100187,"lng":126.963632,"roadAddr":"선교로 214(용연동)","openHours":"24시간","maleToilets":2,"femaleToilets":2,"disabled":true,"diaperTable":false,"emergencyBell":false,"cctv":false,"source":"public","category":"public"},{"id":"202058050000100277","name":"용연동마을회관","lat":35.094333,"lng":126.964684,"roadAddr":"전남광주통합특별시 동구 용연길 25 (용연동)","jibunAddr":"전남광주통합특별시 동구 용연동 375","openHours":"24시","maleToilets":0,"femaleToilets":1,"disabled":false,"diaperTable":false,"emergencyBell":false,"cctv":true,"source":"public","category":"public"},{"id":"202058050000100376","name":"용연마을 공중화장실","lat":35.094445,"lng":126.963073,"roadAddr":"전남광주통합특별시 동구 용연길 9 (용연동)","jibunAddr":"전남광주통합특별시 동구 용연동 278번지 7호","openHours":"24시간","maleToilets":1,"femaleToilets":1,"disabled":true,"diaperTable":true,"emergencyBell":true,"cctv":true,"source":"public","category":"public"},{"id":"202258050000100135","name":"중머리재","lat":35.105266,"lng":126.97307,"jibunAddr":"광주 광역시 동구 용연동","openHours":"09:00~18:00","maleToilets":3,"femaleToilets":3,"disabled":false,"diaperTable":false,"emergencyBell":false,"cctv":false,"source":"public","category":"public"},{"id":"202558550000101222","name":"화순무지개요양병원","lat":35.072319,"lng":126.989524,"roadAddr":"전남광주통합특별시 화순군 화순읍 진각로 242-8","jibunAddr":"전남광주통합특별시 화순군 화순읍 신기리 370번지","openHours":"09:00~18:00","maleToilets":5,"femaleToilets":4,"disabled":true,"diaperTable":false,"emergencyBell":false,"cctv":false,"managerTel":"0613700700","source":"public","category":"public"},{"id":"202558550000101255","name":"너릿재주차장 공중화장실","lat":35.075168,"lng":126.960384,"roadAddr":"전남광주통합특별시 화순군 화순읍 화보로 4439-7","jibunAddr":"전남광주통합특별시 화순군 화순읍 이십곡리 605-3","openHours":"상시","maleToilets":2,"femaleToilets":3,"disabled":true,"diaperTable":false,"emergencyBell":true,"cctv":false,"managerTel":"0613793614","source":"public","category":"public"},{"id":"202558550000101256","name":"너릿재 주유소 공중화장실","lat":35.069915,"lng":126.973108,"roadAddr":"전남광주통합특별시 화순군 화순읍 화보로 4305","jibunAddr":"전남광주통합특별시 화순군 화순읍 이십곡리 249","openHours":"06:00~21:00","maleToilets":3,"femaleToilets":2,"disabled":false,"diaperTable":false,"emergencyBell":false,"cctv":true,"managerTel":"0613757700","source":"public","category":"public"},{"id":"202558550000101275","name":"동구리산림욕장 공중화장실","lat":35.079331,"lng":126.988531,"jibunAddr":"전남광주통합특별시 화순군 화순읍 동구리  112-5","openHours":"상시","maleToilets":2,"femaleToilets":1,"disabled":false,"diaperTable":false,"emergencyBell":false,"cctv":false,"managerTel":"0613793614","source":"public","category":"public"},{"id":"202558550000101280","name":"수만리탐방지원센터 공중화장실","lat":35.104266,"lng":126.99306,"roadAddr":"전남광주통합특별시 화순군 화순읍 중지길 200","jibunAddr":"전남광주통합특별시 화순군 화순읍 수만리 843-1","openHours":"09:00~18:00","maleToilets":0,"femaleToilets":1,"disabled":true,"diaperTable":false,"emergencyBell":true,"cctv":true,"managerTel":"0613791187","source":"public","category":"public"},{"id":"202558550000101288","name":"유천주차장 공중화장실","lat":35.070148,"lng":126.997203,"roadAddr":"전남광주통합특별시 화순군 화순읍 안양산로 47-9","jibunAddr":"전남광주통합특별시 화순군 화순읍 유천리 86-2 공중화장실","openHours":"상시","maleToilets":1,"femaleToilets":1,"disabled":true,"diaperTable":false,"emergencyBell":true,"cctv":false,"managerTel":"0613793614","source":"public","category":"public"},{"id":"202558550000101289","name":"만연폭포 공중화장실","lat":35.073166,"lng":127.000965,"jibunAddr":"전남광주통합특별시 화순군 화순읍 유천리  7-1","openHours":"상시","maleToilets":2,"femaleToilets":2,"disabled":false,"diaperTable":false,"emergencyBell":true,"cctv":false,"managerTel":"0613793614","source":"public","category":"public"},{"id":"202558550000101318","name":"동구리호수공원주차장","lat":35.07331,"lng":126.987521,"roadAddr":"전남광주통합특별시 화순군 화순읍 진각로 249-8","jibunAddr":"전남광주통합특별시 화순군 화순읍 동구리 43","openHours":"상시","maleToilets":2,"femaleToilets":2,"disabled":true,"diaperTable":false,"emergencyBell":true,"cctv":false,"managerTel":"0613793614","source":"public","category":"public"},{"id":"202558550000101319","name":"동구리호수공원잔디광장","lat":35.07899,"lng":126.985261,"jibunAddr":"전남광주통합특별시 화순군 화순읍 동구리  126","openHours":"상시","maleToilets":3,"femaleToilets":3,"disabled":true,"diaperTable":true,"emergencyBell":true,"cctv":false,"managerTel":"0613793614","source":"public","category":"public"},{"id":"202558550000101304","name":"신기주유소 공중화장실","lat":35.0685,"lng":126.988503,"roadAddr":"전남광주통합특별시 화순군 화순읍 서양로 480","jibunAddr":"전남광주통합특별시 화순군 화순읍 신기리 334-5","openHours":"05:00~22:00","maleToilets":2,"femaleToilets":1,"disabled":false,"diaperTable":false,"emergencyBell":false,"cctv":true,"managerTel":"0613745185","source":"public","category":"public"},{"id":"202558550000101272","name":"만연산 공중화장실","lat":35.081876,"lng":126.98399,"roadAddr":"전남광주통합특별시 화순군 화순읍 진각로 357-6","jibunAddr":"전남광주통합특별시 화순군 화순읍 동구리 168-10","openHours":"09:00~18:00","maleToilets":1,"femaleToilets":2,"disabled":true,"diaperTable":false,"emergencyBell":false,"cctv":true,"managerTel":"0613791187","source":"public","category":"public"},{"id":"202558550000101273","name":"오감연결길 공중화장실","lat":35.077285,"lng":126.991931,"roadAddr":"전남광주통합특별시 화순군 화순읍 진각로 276-33","jibunAddr":"전남광주통합특별시 화순군 화순읍 동구리 산 1-1","openHours":"상시","maleToilets":3,"femaleToilets":2,"disabled":false,"diaperTable":false,"emergencyBell":true,"cctv":false,"managerTel":"0613793614","source":"public","category":"public"},{"id":"202558550000101274","name":"만연산주차장 공중화장실","lat":35.08064,"lng":126.984064,"roadAddr":"전남광주통합특별시 화순군 화순읍 진각로 341-1","jibunAddr":"전남광주통합특별시 화순군 화순읍 동구리 205 공중화장실","openHours":"상시","maleToilets":2,"femaleToilets":2,"disabled":true,"diaperTable":false,"emergencyBell":true,"cctv":false,"managerTel":"0613793614","source":"public","category":"public"},{"id":"202658550000100003","name":"이십곡리 압곡마을 공중화장실","lat":35.070417,"lng":126.971671,"roadAddr":"전남광주통합특별시 화순군 화순읍 압곡길 37","jibunAddr":"전남광주통합특별시 화순군 화순읍 이십곡리 290-1","openHours":"상시","maleToilets":0,"femaleToilets":0,"disabled":true,"diaperTable":true,"emergencyBell":true,"cctv":false,"managerTel":"0613793611","source":"public","category":"public"},{"id":"202558550000101497","name":"화순군립석봉미술관","lat":35.07331,"lng":126.987521,"roadAddr":"전남광주통합특별시 화순군 화순읍 진각로 249-8, 화순군립 석봉미술관","jibunAddr":"전남광주통합특별시 화순군 화순읍 동구리 43 화순군립 석봉미술관","openHours":"09:00~18:00","maleToilets":5,"femaleToilets":3,"disabled":true,"diaperTable":false,"emergencyBell":true,"cctv":false,"source":"public","category":"public"},{"id":"202558550000101292","name":"만연폭포입구 공중화장실","lat":35.071933,"lng":127.000313,"roadAddr":"전남광주통합특별시 화순군 화순읍 안양산로 89","jibunAddr":"전남광주통합특별시 화순군 화순읍 유천리 산 20-15","openHours":"상시","maleToilets":3,"femaleToilets":2,"disabled":false,"diaperTable":false,"emergencyBell":true,"cctv":false,"managerTel":"0613793614","source":"public","category":"public"},{"id":"202558550000101293","name":"만연산생태숲공원 공중화장실","lat":35.084845,"lng":127.00101,"roadAddr":"전남광주통합특별시 화순군 화순읍 안양산로 294","jibunAddr":"전남광주통합특별시 화순군 화순읍 수만리 714-4","openHours":"상시","maleToilets":2,"femaleToilets":3,"disabled":true,"diaperTable":true,"emergencyBell":true,"cctv":false,"managerTel":"0613793614","source":"public","category":"public"},{"id":"202558550000101300","name":"만연산큰재등산로 공중화장실","lat":35.082561,"lng":127.001635,"jibunAddr":"전남광주통합특별시 화순군 화순읍 수만리  산 183-11","openHours":"상시","maleToilets":4,"femaleToilets":2,"disabled":false,"diaperTable":false,"emergencyBell":true,"cctv":false,"managerTel":"0613793614","source":"public","category":"public"},{"id":"202558550000101301","name":"들국화마을주차장 공중화장실","lat":35.096054,"lng":127.001854,"roadAddr":"전남광주통합특별시 화순군 화순읍 만수길 3","jibunAddr":"전남광주통합특별시 화순군 화순읍 수만리 562-1 공중화장실","openHours":"상시","maleToilets":2,"femaleToilets":2,"disabled":false,"diaperTable":false,"emergencyBell":true,"cctv":true,"managerTel":"0613793614","source":"public","category":"public"}]