[{"id":"202457850000100125","name":"적금보건진료소","lat":34.627139,"lng":127.514864,"roadAddr":"전남광주통합특별시 여수시 화정면 적금뒷등길 27 (적금리, 적금보건진료소)","openHours":"정시","maleToilets":0,"femaleToilets":1,"disabled":false,"diaperTable":false,"emergencyBell":false,"cctv":false,"managerTel":"0616669572","source":"public","category":"public"},{"id":"202457850000100479","name":"적금 노을길 화장실","lat":34.626617,"lng":127.51671,"jibunAddr":"전남광주통합특별시 여수시 화정면 적금리 294-2","openHours":"상시","maleToilets":3,"femaleToilets":3,"disabled":true,"diaperTable":false,"emergencyBell":true,"cctv":false,"managerTel":"0616595343","source":"public","category":"public"},{"id":"202258450000100086","name":"고흥우주발사전망대","lat":34.585033,"lng":127.492303,"roadAddr":"전남 고흥군 영남면 해맞이로 840","jibunAddr":"전남 고흥군 영남면 남열리 77-7","openHours":"정시","maleToilets":14,"femaleToilets":12,"disabled":true,"diaperTable":false,"emergencyBell":true,"cctv":false,"managerTel":"0618305696","source":"public","category":"public"},{"id":"202258450000100089","name":"용바위선착장","lat":34.594173,"lng":127.507078,"roadAddr":"전남광주통합특별시 고흥군 영남면 용바위길 24","jibunAddr":"전남광주통합특별시 고흥군 영남면 우천리 58-3","openHours":"상시","maleToilets":2,"femaleToilets":2,"disabled":false,"diaperTable":false,"emergencyBell":true,"cctv":false,"managerTel":"0618305696","source":"public","category":"public"},{"id":"202258450000100090","name":"통일발원지공원","lat":34.587424,"lng":127.488996,"roadAddr":"전남광주통합특별시 고흥군 영남면 해맞이로 842","jibunAddr":"전남광주통합특별시 고흥군 영남면 남열리 77-9","openHours":"상시","maleToilets":4,"femaleToilets":2,"disabled":true,"diaperTable":true,"emergencyBell":true,"cctv":false,"managerTel":"0618305696","source":"public","category":"public"}]