[{"id":"202258450000100075","name":"마복산주차장","lat":34.54631,"lng":127.370061,"roadAddr":"전남광주통합특별시 고흥군 포두면 우주로 1220","jibunAddr":"전남광주통합특별시 고흥군 포두면 차동리 산 2","openHours":"상시","maleToilets":2,"femaleToilets":2,"disabled":false,"diaperTable":false,"emergencyBell":true,"cctv":false,"managerTel":"0618305696","source":"public","category":"public"},{"id":"202258450000100079","name":"㈜엔디알우주로주유소","lat":34.55185,"lng":127.393078,"roadAddr":"전남 고흥군 포두면 우주로 1479","jibunAddr":"전남 고흥군 포두면 옥강리 772-1","openHours":"정시","maleToilets":1,"femaleToilets":1,"disabled":false,"diaperTable":false,"emergencyBell":false,"cctv":false,"managerTel":"0618343500","source":"public","category":"public"},{"id":"202258450000100080","name":"흥양농협남부주유소","lat":34.544867,"lng":127.367813,"roadAddr":"전남 고흥군 포두면 우주로 1195","jibunAddr":"전남 고흥군 포두면 차동리 855-6","openHours":"정시","maleToilets":3,"femaleToilets":1,"disabled":false,"diaperTable":false,"emergencyBell":false,"cctv":false,"managerTel":"0618352054","source":"public","category":"public"},{"id":"202358450000100094","name":"포두동부게이트볼장","lat":34.542771,"lng":127.357918,"roadAddr":"전남광주통합특별시 고흥군 포두면 외산길 8-36, 게이트볼장","jibunAddr":"전남광주통합특별시 고흥군 포두면 차동리 1369 게이트볼장","openHours":"상시","maleToilets":1,"femaleToilets":1,"disabled":false,"diaperTable":false,"emergencyBell":false,"cctv":false,"source":"public","category":"public"},{"id":"202258450000100020","name":"옥강보건진료소","lat":34.556438,"lng":127.396629,"roadAddr":"전남 고흥군 포두면 내초안길 12","jibunAddr":"전남 고흥군 포두면 옥강리 678-10","openHours":"정시","maleToilets":0,"femaleToilets":1,"disabled":false,"diaperTable":false,"emergencyBell":false,"cctv":false,"managerTel":"0618305141","source":"public","category":"public"},{"id":"202258450000100041","name":"마복산목재문화체험장","lat":34.550032,"lng":127.376442,"roadAddr":"전남 고흥군 포두면 우주로 1296","jibunAddr":"전남 고흥군 포두면 옥강리 산 379","openHours":"상시","maleToilets":6,"femaleToilets":3,"disabled":true,"diaperTable":false,"emergencyBell":true,"cctv":false,"managerTel":"0618305690","source":"public","category":"public"}]