[{"id":"202258450000100110","name":"동일면사무소2F","lat":34.502113,"lng":127.467244,"roadAddr":"전남 고흥군 동일면 양화길 8","jibunAddr":"전남 고흥군 동일면 백양리 808-4","openHours":"09:00~18:00","maleToilets":2,"femaleToilets":2,"disabled":false,"diaperTable":false,"emergencyBell":false,"cctv":false,"managerTel":"0618306344","source":"public","category":"public"},{"id":"202258450000100111","name":"동일면사무소1F","lat":34.502113,"lng":127.467244,"roadAddr":"전남 고흥군 동일면 양화길 8","jibunAddr":"전남 고흥군 동일면 백양리 808-4","openHours":"09:00~18:00","maleToilets":5,"femaleToilets":2,"disabled":false,"diaperTable":false,"emergencyBell":true,"cctv":false,"managerTel":"0618306345","source":"public","category":"public"},{"id":"202258450000100113","name":"덕흥해수욕장2","lat":34.528964,"lng":127.458457,"roadAddr":"전남 고흥군 동일면 덕흥양쪽길 118","jibunAddr":"전남 고흥군 동일면 덕흥리 산207-8","openHours":"상시","maleToilets":10,"femaleToilets":7,"disabled":false,"diaperTable":false,"emergencyBell":true,"cctv":false,"managerTel":"0618305696","source":"public","category":"public"},{"id":"202258450000100114","name":"덕흥해수욕장1(상시개방)","lat":34.528964,"lng":127.458457,"roadAddr":"전남 고흥군 동일면 덕흥양쪽길 118","jibunAddr":"전남 고흥군 동일면 덕흥리 산207-8","openHours":"상시","maleToilets":5,"femaleToilets":3,"disabled":false,"diaperTable":false,"emergencyBell":true,"cctv":false,"managerTel":"0618305696","source":"public","category":"public"},{"id":"202258450000100115","name":"시호도선착장","lat":34.53912,"lng":127.449835,"roadAddr":"전남 고흥군 동일면 성두구룡길 331","jibunAddr":"전남 고흥군 동일면 덕흥리 184-7","openHours":"상시","maleToilets":3,"femaleToilets":2,"disabled":false,"diaperTable":false,"emergencyBell":true,"cctv":false,"managerTel":"0618305696","source":"public","category":"public"},{"id":"202658450000100001","name":"덕흥보건진료소","lat":34.527755,"lng":127.453018,"roadAddr":"전남광주통합특별시 고흥군 동일면 덕흥음쪽길 51, 보건진료소","jibunAddr":"전남광주통합특별시 고흥군 동일면 덕흥리 284 보건진료소","openHours":"상시","maleToilets":0,"femaleToilets":0,"disabled":true,"diaperTable":true,"emergencyBell":true,"cctv":false,"managerTel":"0618305214","source":"public","category":"public"},{"id":"202458450000100013","name":"고흥동일우체국","lat":34.50317,"lng":127.467847,"roadAddr":"전남광주통합특별시 고흥군 동일면 봉영로 1, 동일우체국","jibunAddr":"전남광주통합특별시 고흥군 동일면 백양리 829-1 동일우체국","openHours":"상시","maleToilets":2,"femaleToilets":1,"disabled":false,"diaperTable":false,"emergencyBell":false,"cctv":false,"managerTel":"0618336004","source":"public","category":"public"},{"id":"202258450000100046","name":"동일보건지소","lat":34.502026,"lng":127.466576,"roadAddr":"전남 고흥군 동일면 양화길 10","jibunAddr":"전남 고흥군 동일면 백양리 801","openHours":"09:00~18:00","maleToilets":2,"femaleToilets":2,"disabled":true,"diaperTable":false,"emergencyBell":false,"cctv":false,"managerTel":"0618306661","source":"public","category":"public"}]