[{"id":"202258450000100116","name":"동강전통시장","lat":34.780917,"lng":127.334846,"roadAddr":"전남광주통합특별시 고흥군 동강면 고흥로 4280, 시장","jibunAddr":"전남광주통합특별시 고흥군 동강면 유둔리 6-1 시장","openHours":"상시","maleToilets":4,"femaleToilets":3,"disabled":false,"diaperTable":false,"emergencyBell":true,"cctv":false,"managerTel":"0618305353","source":"public","category":"public"},{"id":"202258450000100117","name":"동강면사무소","lat":34.779159,"lng":127.334406,"roadAddr":"전남 고흥군 동강면 서민호길 9","jibunAddr":"전남 고흥군 동강면 유둔리 194-8","openHours":"정시","maleToilets":8,"femaleToilets":4,"disabled":true,"diaperTable":false,"emergencyBell":true,"cctv":false,"managerTel":"0618306168","source":"public","category":"public"},{"id":"202258450000100158","name":"고흥우주휴게소","lat":34.761416,"lng":127.334979,"roadAddr":"전남 고흥군 남양면 우주항공로 4177","jibunAddr":"전남 고흥군 남양면 침교리 910-4","openHours":"정시","maleToilets":14,"femaleToilets":7,"disabled":false,"diaperTable":false,"emergencyBell":true,"cctv":false,"managerTel":"0618306136","source":"public","category":"public"},{"id":"202258450000100118","name":"두방산주차장","lat":34.795976,"lng":127.331803,"roadAddr":"전남광주통합특별시 고흥군 동강면 동강당곡길 142","jibunAddr":"전남광주통합특별시 고흥군 동강면 매곡리 869-5","openHours":"상시","maleToilets":1,"femaleToilets":2,"disabled":false,"diaperTable":false,"emergencyBell":true,"cctv":false,"managerTel":"0618305696","source":"public","category":"public"},{"id":"202258450000100120","name":"팔영농협동강주유소","lat":34.781663,"lng":127.33433,"roadAddr":"전남 고흥군 동강면 고흥로 4287","jibunAddr":"전남 고흥군 동강면 유둔리 3-12","openHours":"정시","maleToilets":5,"femaleToilets":2,"disabled":false,"diaperTable":false,"emergencyBell":false,"cctv":false,"managerTel":"0618344416","source":"public","category":"public"},{"id":"202358450000100033","name":"고흥우주주유소","lat":34.761416,"lng":127.334979,"roadAddr":"전남광주통합특별시 고흥군 남양면 우주항공로 4177, 주유소","jibunAddr":"전남광주통합특별시 고흥군 남양면 침교리 910-4 주유소","openHours":"정시","maleToilets":14,"femaleToilets":7,"disabled":false,"diaperTable":false,"emergencyBell":true,"cctv":false,"managerTel":"0618306136","source":"public","category":"public"},{"id":"202358450000100034","name":"동강노인게이트볼장","lat":34.780144,"lng":127.336183,"roadAddr":"전남광주통합특별시 고흥군 동강면 원유둔4길 11-27","jibunAddr":"전남광주통합특별시 고흥군 동강면 유둔리 10-23","openHours":"정시","maleToilets":1,"femaleToilets":1,"disabled":false,"diaperTable":false,"emergencyBell":false,"cctv":false,"source":"public","category":"public"},{"id":"202358450000100037","name":"고흥군립북부도서관","lat":34.780659,"lng":127.330681,"roadAddr":"전남광주통합특별시 고흥군 동강면 동강중촌길 35, 고흥군립북부도서관","jibunAddr":"전남광주통합특별시 고흥군 동강면 유둔리 590-5 고흥군립북부도서관","openHours":"정시","maleToilets":10,"femaleToilets":6,"disabled":true,"diaperTable":false,"emergencyBell":true,"cctv":true,"managerTel":"0618305951","source":"public","category":"public"},{"id":"202458450000100016","name":"동강우체국","lat":34.781971,"lng":127.333455,"roadAddr":"전남광주통합특별시 고흥군 동강면 원유둔1길 29, 동강우체국","jibunAddr":"전남광주통합특별시 고흥군 동강면 유둔리 214-5 동강우체국","openHours":"상시","maleToilets":1,"femaleToilets":2,"disabled":false,"diaperTable":false,"emergencyBell":false,"cctv":false,"managerTel":"0618333004","source":"public","category":"public"},{"id":"202258450000100047","name":"동강보건지소","lat":34.77996,"lng":127.331647,"roadAddr":"전남 고흥군 동강면 동강중촌길 22-3","jibunAddr":"전남 고흥군 동강면 유둔리 589-2","openHours":"정시","maleToilets":2,"femaleToilets":2,"disabled":true,"diaperTable":false,"emergencyBell":true,"cctv":false,"managerTel":"0618306666","source":"public","category":"public"}]