[{"id":"202457850000100321","name":"장군주유소","lat":34.687686,"lng":127.602537,"roadAddr":"전남광주통합특별시 여수시 화양면 화양로 1099-8","jibunAddr":"전남광주통합특별시 여수시 화양면 화동리 350-2","openHours":"09:00~18:00","maleToilets":4,"femaleToilets":2,"disabled":false,"diaperTable":false,"emergencyBell":false,"cctv":false,"managerTel":"0616846565","source":"public","category":"public"},{"id":"202457850000100381","name":"나진버스승강장","lat":34.707242,"lng":127.613767,"roadAddr":"전남광주통합특별시 여수시 화양면 나진리 436-9","jibunAddr":"전남광주통합특별시 여수시 화양면 나진리 436-9","openHours":"상시","maleToilets":2,"femaleToilets":3,"disabled":true,"diaperTable":true,"emergencyBell":true,"cctv":false,"managerTel":"0616593821","source":"public","category":"public"},{"id":"202457850000100140","name":"화양면사무소","lat":34.708159,"lng":127.613547,"roadAddr":"전남광주통합특별시 여수시 화양면 나진길 16-10","openHours":"09:00~18:00","maleToilets":12,"femaleToilets":6,"disabled":true,"diaperTable":false,"emergencyBell":true,"cctv":false,"managerTel":"0616591152","source":"public","category":"public"},{"id":"202457850000100142","name":"화양농협(화양지점)","lat":34.706365,"lng":127.612889,"roadAddr":"전남광주통합특별시 여수시 화양면 화양로 1385","openHours":"09:00~18:00","maleToilets":4,"femaleToilets":2,"disabled":false,"diaperTable":false,"emergencyBell":false,"cctv":false,"managerTel":"0616828361","source":"public","category":"public"},{"id":"202457850000100144","name":"화양파출소","lat":34.708514,"lng":127.613828,"roadAddr":"전남광주통합특별시 여수시 화양면 나진길 14-12 (나진리, 화양파출소)","openHours":"상시","maleToilets":2,"femaleToilets":1,"disabled":true,"diaperTable":false,"emergencyBell":false,"cctv":true,"managerTel":"0616608339","source":"public","category":"public"},{"id":"202457850000100207","name":"여수화양우체국","lat":34.708259,"lng":127.61438,"roadAddr":"전남광주통합특별시 여수시 화양면 나진길 8","jibunAddr":"전남광주통합특별시 여수시 화양면 나진리 484-1","openHours":"09:00~18:00","maleToilets":2,"femaleToilets":0,"disabled":false,"diaperTable":false,"emergencyBell":false,"cctv":false,"managerTel":"0616826000","source":"public","category":"public"}]