[{"id":"202457850000100275","name":"직포마을 화장실","lat":34.511442,"lng":127.73995,"roadAddr":"전남광주통합특별시 여수시 남면 우두로 272","jibunAddr":"전남광주통합특별시 여수시 남면 두모리 산 202-5","openHours":"상시","maleToilets":4,"femaleToilets":4,"disabled":true,"diaperTable":true,"emergencyBell":false,"cctv":false,"managerTel":"0616595336","source":"public","category":"public"},{"id":"202457850000100276","name":"두포마을 화장실","lat":34.526107,"lng":127.733846,"roadAddr":"전남광주통합특별시 여수시 남면 금오서부로 435-6","jibunAddr":"전남광주통합특별시 여수시 남면 두모리 1393번지 4호","openHours":"상시","maleToilets":2,"femaleToilets":2,"disabled":true,"diaperTable":false,"emergencyBell":false,"cctv":false,"managerTel":"0616595336","source":"public","category":"public"},{"id":"202457850000100277","name":"두포 해수욕장 화장실","lat":34.527972,"lng":127.729908,"roadAddr":"전남광주통합특별시 여수시 남면 금오서부로 480-4","jibunAddr":"전남광주통합특별시 여수시 남면 두모리 1558번지 7호","openHours":"상시","maleToilets":4,"femaleToilets":2,"disabled":true,"diaperTable":false,"emergencyBell":false,"cctv":false,"managerTel":"0616595336","source":"public","category":"public"},{"id":"202457850000100121","name":"함구미","lat":34.538151,"lng":127.708487,"roadAddr":"전남광주통합특별시 여수시 남면 용머리길 34-5","openHours":"여객선 운항시에만 개방","maleToilets":5,"femaleToilets":5,"disabled":true,"diaperTable":true,"emergencyBell":true,"cctv":true,"managerTel":"0616593998","source":"public","category":"public"},{"id":"202457850000100463","name":"직포항화장실","lat":34.50893,"lng":127.741286,"roadAddr":"전남광주통합특별시 여수시 남면 두모리 945-17","jibunAddr":"전남광주통합특별시 여수시 남면 두모리 945-17","openHours":"여객선 운항시에만 개방","maleToilets":4,"femaleToilets":4,"disabled":true,"diaperTable":false,"emergencyBell":true,"cctv":false,"managerTel":"0616591202","source":"public","category":"public"}]