[{"id":"202457850000100292","name":"화정면사무소","lat":34.620395,"lng":127.639982,"roadAddr":"전남광주통합특별시 여수시 화정면 백야3길 8-11, 화정면사무소","jibunAddr":"전남광주통합특별시 여수시 화정면 백야리 69-3 화정면사무소","openHours":"09:00~18:00","maleToilets":4,"femaleToilets":2,"disabled":false,"diaperTable":false,"emergencyBell":false,"cctv":false,"managerTel":"0616591250","source":"public","category":"public"},{"id":"202457850000100268","name":"하화도 화장실","lat":34.594677,"lng":127.619065,"roadAddr":"전남광주통합특별시 여수시 화정면 아랫꽃섬1길 1-4, 마을창고","jibunAddr":"전남광주통합특별시 여수시 화정면 하화리 231번지 1호 마을창고","openHours":"상시","maleToilets":3,"femaleToilets":2,"disabled":true,"diaperTable":false,"emergencyBell":false,"cctv":false,"managerTel":"0616595336","source":"public","category":"public"},{"id":"202457850000100124","name":"제도보건진료소","lat":34.595987,"lng":127.654372,"roadAddr":"전남광주통합특별시 여수시 화정면 제도해안길 63 (제도리, 제도보건진료소)","openHours":"09:00~18:00","maleToilets":1,"femaleToilets":1,"disabled":false,"diaperTable":false,"emergencyBell":false,"cctv":false,"source":"public","category":"public"},{"id":"202457850000100128","name":"상하화보건진료소","lat":34.594339,"lng":127.620086,"roadAddr":"전남광주통합특별시 여수시 화정면 아랫꽃섬1길 4-5","openHours":"09:00~18:00","maleToilets":0,"femaleToilets":1,"disabled":false,"diaperTable":false,"emergencyBell":false,"cctv":false,"managerTel":"0616657758","source":"public","category":"public"},{"id":"202457850000100129","name":"화정보건지소","lat":34.617772,"lng":127.643313,"roadAddr":"전남광주통합특별시 여수시 화정면 백야해안길 40 (백야리, 화정보건지소)","openHours":"09:00~18:00","maleToilets":2,"femaleToilets":1,"disabled":false,"diaperTable":false,"emergencyBell":false,"cctv":false,"managerTel":"0616591252","source":"public","category":"public"},{"id":"202457850000100380","name":"백야등대","lat":34.609264,"lng":127.654177,"roadAddr":"전남광주통합특별시 여수시 화정면 백야등대길 48, 해상교통 관제센터","jibunAddr":"전남광주통합특별시 여수시 화정면 백야리 10번지 13호 해상교통 관제센터","openHours":"상시","maleToilets":3,"femaleToilets":2,"disabled":false,"diaperTable":false,"emergencyBell":true,"cctv":false,"managerTel":"0616593821","source":"public","category":"public"},{"id":"202457850000100118","name":"제도 공중화장실","lat":34.592328,"lng":127.658555,"roadAddr":"전남광주통합특별시 여수시 화정면 제도해안길 1","openHours":"상시","maleToilets":2,"femaleToilets":2,"disabled":true,"diaperTable":true,"emergencyBell":true,"cctv":false,"managerTel":"0616593978","source":"public","category":"public"},{"id":"202457850000100143","name":"화정파출소","lat":34.619353,"lng":127.640528,"roadAddr":"전남광주통합특별시 여수시 화정면 백야2길 9 (백야리, 화정파출소)","openHours":"상시","maleToilets":2,"femaleToilets":1,"disabled":false,"diaperTable":false,"emergencyBell":false,"cctv":true,"managerTel":"0616608340","source":"public","category":"public"},{"id":"202457850000100460","name":"백야선착장 화장실","lat":34.620277,"lng":127.640824,"roadAddr":"전남광주통합특별시 여수시 화정면 백야리 51-3","jibunAddr":"전남광주통합특별시 여수시 화정면 백야리 51-3","openHours":"09:00~18:00","maleToilets":5,"femaleToilets":3,"disabled":true,"diaperTable":false,"emergencyBell":false,"cctv":false,"managerTel":"0616593982","source":"public","category":"public"},{"id":"202457850000100206","name":"화정우체국","lat":34.619604,"lng":127.640825,"roadAddr":"전남광주통합특별시 여수시 화정면 백야2길 7","jibunAddr":"전남광주통합특별시 여수시 화정면 백야리95-5","openHours":"09:00~18:00","maleToilets":1,"femaleToilets":0,"disabled":false,"diaperTable":false,"emergencyBell":false,"cctv":false,"managerTel":"0616853200","source":"public","category":"public"}]