[{"id":"202457850000100126","name":"월호보건진료소","lat":34.576736,"lng":127.721763,"roadAddr":"전남광주통합특별시 여수시 화정면 월호골길 13 (월호리)","openHours":"09:00~18:00","maleToilets":1,"femaleToilets":1,"disabled":false,"diaperTable":false,"emergencyBell":false,"cctv":false,"source":"public","category":"public"},{"id":"202457850000100139","name":"독정항 공중화장실","lat":34.581701,"lng":127.729629,"roadAddr":"전남광주통합특별시 여수시 남면 독정길 34","jibunAddr":"전남광주통합특별시 여수시 남면 화태리 107","openHours":"상시","maleToilets":0,"femaleToilets":1,"disabled":true,"diaperTable":false,"emergencyBell":true,"cctv":false,"managerTel":"0616592287","source":"public","category":"public"},{"id":"202457850000100480","name":"월전마을 화장실","lat":34.577297,"lng":127.736155,"jibunAddr":"전남광주통합특별시 여수시 남면 화태리 67-8","openHours":"상시","maleToilets":2,"femaleToilets":1,"disabled":false,"diaperTable":false,"emergencyBell":false,"cctv":false,"managerTel":"0616595343","source":"public","category":"public"},{"id":"202457850000100187","name":"화태보건진료소","lat":34.582623,"lng":127.731412,"roadAddr":"전남광주통합특별시 여수시 남면 화태길 28 (화태리, 화태보건진료소)","openHours":"09:00~18:00","maleToilets":1,"femaleToilets":1,"disabled":false,"diaperTable":false,"emergencyBell":false,"cctv":false,"managerTel":"0616659208","source":"public","category":"public"},{"id":"202457850000100190","name":"유송보건진료소","lat":34.548,"lng":127.728308,"roadAddr":"전남광주통합특별시 여수시 남면 솔고지길 71-11 (유송리)","openHours":"09:00~18:00","maleToilets":1,"femaleToilets":1,"disabled":false,"diaperTable":false,"emergencyBell":false,"cctv":false,"managerTel":"0616649002","source":"public","category":"public"},{"id":"202457850000100191","name":"보건진료소","lat":34.569072,"lng":127.735089,"roadAddr":"전남광주통합특별시 여수시 남면 대두길 87-1 (두라리, 보건진료소)","openHours":"09:00~18:00","maleToilets":1,"femaleToilets":1,"disabled":false,"diaperTable":false,"emergencyBell":false,"cctv":false,"managerTel":"0616654424","source":"public","category":"public"}]