[{"id":"202457850000100056","name":"순수주유소","lat":34.761371,"lng":127.660721,"roadAddr":"전남광주통합특별시 여수시 도원로 269 (학동, 순수주유소)","openHours":"정시","maleToilets":2,"femaleToilets":1,"disabled":true,"diaperTable":false,"emergencyBell":false,"cctv":false,"managerTel":"0616920559","source":"public","category":"public"},{"id":"202457850000100058","name":"도원주유소","lat":34.761088,"lng":127.646196,"roadAddr":"전남광주통합특별시 여수시 도원로 135 (선원동, 도원주유소)","openHours":"정시","maleToilets":2,"femaleToilets":1,"disabled":true,"diaperTable":false,"emergencyBell":false,"cctv":false,"managerTel":"0616889951","source":"public","category":"public"},{"id":"202457850000100028","name":"여수수협주유소","lat":34.76109,"lng":127.635296,"roadAddr":"전남광주통합특별시 여수시 소라면 죽림중앙로 5 (죽림리)","openHours":"정시","maleToilets":3,"femaleToilets":2,"disabled":true,"diaperTable":false,"emergencyBell":false,"cctv":true,"managerTel":"0616928223","source":"public","category":"public"},{"id":"202457850000100029","name":"소라주유소","lat":34.790315,"lng":127.634171,"roadAddr":"전남광주통합특별시 여수시 소라면 주삼덕양로 14 (덕양리, 소라주유소)","openHours":"정시","maleToilets":1,"femaleToilets":1,"disabled":false,"diaperTable":false,"emergencyBell":false,"cctv":false,"managerTel":"0616838460","source":"public","category":"public"},{"id":"202457850000100036","name":"죽림주유소","lat":34.768327,"lng":127.636671,"roadAddr":"전남광주통합특별시 여수시 소라면 덕양로 97","openHours":"정시","maleToilets":2,"femaleToilets":1,"disabled":true,"diaperTable":false,"emergencyBell":false,"cctv":false,"managerTel":"0616855138","source":"public","category":"public"},{"id":"202457850000100037","name":"the드림주유소","lat":34.786768,"lng":127.632229,"roadAddr":"전남광주통합특별시 여수시 소라면 덕양로 323","openHours":"정시","maleToilets":2,"femaleToilets":1,"disabled":true,"diaperTable":false,"emergencyBell":false,"cctv":false,"managerTel":"0616925144","source":"public","category":"public"},{"id":"202457850000100043","name":"남도주유소","lat":34.800168,"lng":127.654872,"roadAddr":"전남광주통합특별시 여수시 삼동로 41 (주삼동, 남도주유소)","openHours":"정시","maleToilets":6,"femaleToilets":3,"disabled":true,"diaperTable":false,"emergencyBell":false,"cctv":false,"managerTel":"0616842211","source":"public","category":"public"},{"id":"202457850000100046","name":"동성주유소","lat":34.772454,"lng":127.654738,"roadAddr":"전남광주통합특별시 여수시 무선중앙로 98 (선원동)","openHours":"정시","maleToilets":2,"femaleToilets":1,"disabled":true,"diaperTable":false,"emergencyBell":false,"cctv":false,"managerTel":"0616855189","source":"public","category":"public"},{"id":"202457850000100047","name":"와온주유소","lat":34.782605,"lng":127.644249,"roadAddr":"전남광주통합특별시 여수시 무선로 282 (화장동)","openHours":"정시","maleToilets":2,"femaleToilets":1,"disabled":true,"diaperTable":false,"emergencyBell":false,"cctv":false,"managerTel":"0616832042","source":"public","category":"public"},{"id":"202457850000100048","name":"구봉가스3충전소","lat":34.782488,"lng":127.644568,"roadAddr":"전남광주통합특별시 여수시 무선로 280 (화장동)","openHours":"정시","maleToilets":4,"femaleToilets":2,"disabled":true,"diaperTable":false,"emergencyBell":false,"cctv":false,"managerTel":"0616832032","source":"public","category":"public"},{"id":"202457850000100049","name":"선원주유소","lat":34.770867,"lng":127.654531,"roadAddr":"전남광주통합특별시 여수시 무선로 113 (선원동)","openHours":"정시","maleToilets":3,"femaleToilets":1,"disabled":true,"diaperTable":false,"emergencyBell":false,"cctv":false,"managerTel":"0616863700","source":"public","category":"public"},{"id":"202457850000100002","name":"수달충전소","lat":34.797112,"lng":127.651773,"roadAddr":"전남광주통합특별시 여수시 좌수영로 1162 (주삼동)","openHours":"정시","maleToilets":4,"femaleToilets":2,"disabled":true,"diaperTable":false,"emergencyBell":false,"cctv":true,"managerTel":"0616824880","source":"public","category":"public"},{"id":"202457850000100003","name":"주삼주유소","lat":34.794678,"lng":127.652715,"roadAddr":"전남광주통합특별시 여수시 좌수영로 1140 (주삼동, 주삼주유소)","openHours":"정시","maleToilets":4,"femaleToilets":2,"disabled":true,"diaperTable":false,"emergencyBell":false,"cctv":true,"managerTel":"0616913397","source":"public","category":"public"},{"id":"202457850000100065","name":"덕양시장","lat":34.798531,"lng":127.632129,"roadAddr":"전남광주통합특별시 여수시 소라면 하세동길15","openHours":"상시","maleToilets":6,"femaleToilets":3,"disabled":true,"diaperTable":false,"emergencyBell":false,"cctv":false,"managerTel":"0616594548","source":"public","category":"public"},{"id":"202457850000100078","name":"선원동 공영주차장 공용화장실","lat":34.776203,"lng":127.651216,"roadAddr":"전남광주통합특별시 여수시 선원동 1277-1","openHours":"상시","maleToilets":2,"femaleToilets":1,"disabled":false,"diaperTable":false,"emergencyBell":true,"cctv":true,"managerTel":"0616628204","source":"public","category":"public"},{"id":"202457850000100082","name":"양지바름공원(군장)","lat":34.785155,"lng":127.647047,"roadAddr":"전남광주통합특별시 여수시 화장동 산 12-1","openHours":"상시","maleToilets":1,"femaleToilets":1,"disabled":true,"diaperTable":false,"emergencyBell":true,"cctv":false,"managerTel":"0616594629","source":"public","category":"public"},{"id":"202457850000100215","name":"여수소라우체국","lat":34.797291,"lng":127.630744,"roadAddr":"전남광주통합특별시 여수시 소라면 덕양로 445-1","jibunAddr":"전남광주통합특별시 여수시 소라면 덕양리 1288","openHours":"정시","maleToilets":1,"femaleToilets":1,"disabled":true,"diaperTable":false,"emergencyBell":false,"cctv":true,"managerTel":"0616838002","source":"public","category":"public"},{"id":"202457850000100216","name":"여수선원동우체국","lat":34.774844,"lng":127.648745,"roadAddr":"전남광주통합특별시 여수시 화산로 102","jibunAddr":"전남광주통합특별시 여수시 선원동 1285-1","openHours":"정시","maleToilets":2,"femaleToilets":0,"disabled":true,"diaperTable":false,"emergencyBell":false,"cctv":true,"managerTel":"0616813617","source":"public","category":"public"},{"id":"202457850000100225","name":"죽림차동공원","lat":34.764797,"lng":127.637216,"roadAddr":"전남광주통합특별시 여수시 소라면 죽림리 1140","jibunAddr":"전남광주통합특별시 여수시 죽림4길 57","openHours":"상시","maleToilets":2,"femaleToilets":2,"disabled":false,"diaperTable":false,"emergencyBell":true,"cctv":false,"managerTel":"0616594629","source":"public","category":"public"},{"id":"202457850000100226","name":"성산공원(A동 사무실)","lat":34.774501,"lng":127.645755,"roadAddr":"전남광주통합특별시 여수시 화장동 949","jibunAddr":"전남광주통합특별시 여수시 화장동 949","openHours":"상시","maleToilets":7,"femaleToilets":5,"disabled":false,"diaperTable":false,"emergencyBell":true,"cctv":false,"managerTel":"0616594628","source":"public","category":"public"},{"id":"202457850000100227","name":"성산공원(B동사무실)","lat":34.774501,"lng":127.645755,"roadAddr":"전남광주통합특별시 여수시 화장동 949","jibunAddr":"전남광주통합특별시 여수시 화장동 949","openHours":"상시","maleToilets":7,"femaleToilets":5,"disabled":false,"diaperTable":false,"emergencyBell":true,"cctv":false,"managerTel":"0616594628","source":"public","category":"public"},{"id":"202457850000100228","name":"선사유적공원","lat":34.778765,"lng":127.646238,"roadAddr":"전남광주통합특별시 여수시 화장동 945-1","jibunAddr":"전남광주통합특별시 여수시 화장동 945-1","openHours":"상시","maleToilets":5,"femaleToilets":4,"disabled":true,"diaperTable":false,"emergencyBell":true,"cctv":false,"managerTel":"0616594628","source":"public","category":"public"},{"id":"202457850000100246","name":"죽림 근린공원","lat":34.763082,"lng":127.634932,"roadAddr":"전남광주통합특별시 여수시 소라면 죽림중앙로 21-21","jibunAddr":"전남광주통합특별시 여수시 소라면 죽림리 1169","openHours":"상시","maleToilets":2,"femaleToilets":3,"disabled":true,"diaperTable":false,"emergencyBell":true,"cctv":false,"managerTel":"0616594628","source":"public","category":"public"},{"id":"202457850000100255","name":"전라남도학생교육문화회관 교육관","lat":34.780014,"lng":127.643564,"roadAddr":"전남광주통합특별시 여수시 대통1길 55(화장동)","jibunAddr":"전남광주통합특별시 여수시 화장동 945","openHours":"정시","maleToilets":6,"femaleToilets":4,"disabled":true,"diaperTable":true,"emergencyBell":false,"cctv":false,"managerTel":"0618080114","source":"public","category":"public"},{"id":"202457850000100256","name":"전라남도학생교육문화회관 본관","lat":34.780014,"lng":127.643564,"roadAddr":"전남광주통합특별시 여수시 대통1길 55(화장동)","jibunAddr":"전남광주통합특별시 여수시 화장동 945","openHours":"정시","maleToilets":7,"femaleToilets":4,"disabled":true,"diaperTable":true,"emergencyBell":false,"cctv":false,"managerTel":"0618080114","source":"public","category":"public"},{"id":"202457850000100259","name":"소라도서관","lat":34.788626,"lng":127.633459,"roadAddr":"전남광주통합특별시 여수시 소라면 덕양로 344","jibunAddr":"전남광주통합특별시 여수시 소라면 덕양리 892","openHours":"정시","maleToilets":5,"femaleToilets":2,"disabled":false,"diaperTable":true,"emergencyBell":false,"cctv":false,"managerTel":"0616594833","source":"public","category":"public"},{"id":"202457850000100262","name":"쌍봉도서관","lat":34.762145,"lng":127.658604,"roadAddr":"전남광주통합특별시 여수시 학동서4길 18-12","jibunAddr":"전남광주통합특별시 여수시 학동 65","openHours":"정시","maleToilets":0,"femaleToilets":0,"disabled":true,"diaperTable":true,"emergencyBell":false,"cctv":false,"managerTel":"0616594777","source":"public","category":"public"},{"id":"202457850000100322","name":"무선주유소","lat":34.775535,"lng":127.649571,"roadAddr":"전남광주통합특별시 여수시 화산로 110 (선원동)","openHours":"정시","maleToilets":2,"femaleToilets":1,"disabled":true,"diaperTable":false,"emergencyBell":false,"cctv":false,"managerTel":"0616920050","source":"public","category":"public"},{"id":"202457850000100345","name":"제일시장","lat":34.767955,"lng":127.659855,"roadAddr":"전남광주통합특별시 여수시 학동북3길 14-11 (학동)","jibunAddr":"전남광주통합특별시 여수시 학동 7-4","openHours":"정시","maleToilets":8,"femaleToilets":3,"disabled":false,"diaperTable":false,"emergencyBell":false,"cctv":false,"managerTel":"0616822777","source":"public","category":"public"},{"id":"202457850000100346","name":"여천시외버스정류장","lat":34.777663,"lng":127.651419,"roadAddr":"전남광주통합특별시 여수시 무선로 200","jibunAddr":"전남광주통합특별시 여수시 선원동 1287-1","openHours":"정시","maleToilets":4,"femaleToilets":2,"disabled":false,"diaperTable":false,"emergencyBell":false,"cctv":false,"managerTel":"0616867666","source":"public","category":"public"},{"id":"202457850000100349","name":"삼부주유소","lat":34.801958,"lng":127.642917,"roadAddr":"전남광주통합특별시 여수시 해산1길 41 (해산동 )","openHours":"정시","maleToilets":5,"femaleToilets":3,"disabled":true,"diaperTable":false,"emergencyBell":false,"cctv":false,"managerTel":"0616510111","source":"public","category":"public"},{"id":"202457850000100085","name":"양지바름공원\n(구 덕양역)","lat":34.799338,"lng":127.63177,"roadAddr":"전남광주통합특별시 여수시 덕양리 1412-1","openHours":"상시","maleToilets":4,"femaleToilets":3,"disabled":true,"diaperTable":false,"emergencyBell":true,"cctv":false,"managerTel":"0616594629","source":"public","category":"public"},{"id":"202457850000100090","name":"도깨비시장","lat":34.763295,"lng":127.656535,"roadAddr":"전남광주통합특별시 여수시 학동서5길 18 (학동)","openHours":"상시","maleToilets":4,"femaleToilets":2,"disabled":false,"diaperTable":false,"emergencyBell":false,"cctv":false,"managerTel":"0616594548","source":"public","category":"public"},{"id":"202457850000100352","name":"여천동 주민센터","lat":34.777503,"lng":127.652455,"roadAddr":"전남광주통합특별시 여수시 무선로190","jibunAddr":"전남광주통합특별시 여수시 선원동 695-18","openHours":"정시","maleToilets":6,"femaleToilets":3,"disabled":true,"diaperTable":false,"emergencyBell":false,"cctv":false,"managerTel":"0616591622","source":"public","category":"public"},{"id":"202457850000100101","name":"안전보건공단 전라남도동부지사","lat":34.77458,"lng":127.649105,"roadAddr":"전남광주통합특별시 여수시 무선중앙로 35 (선원동)","openHours":"정시","maleToilets":19,"femaleToilets":5,"disabled":true,"diaperTable":false,"emergencyBell":false,"cctv":false,"managerTel":"0616894900","source":"public","category":"public"},{"id":"202457850000100103","name":"여수출입국외국인사무소","lat":34.780716,"lng":127.645248,"roadAddr":"전남광주통합특별시 여수시 무선로 265, 여수출입국관리사무소 (화장동)","openHours":"정시","maleToilets":9,"femaleToilets":6,"disabled":true,"diaperTable":false,"emergencyBell":false,"cctv":false,"managerTel":"0616895500","source":"public","category":"public"},{"id":"202457850000100109","name":"선원뜨레공원","lat":34.768149,"lng":127.659453,"roadAddr":"전남광주통합특별시 여수시 선원동 202-3","openHours":"상시","maleToilets":5,"femaleToilets":3,"disabled":true,"diaperTable":true,"emergencyBell":true,"cctv":false,"managerTel":"0616594629","source":"public","category":"public"},{"id":"202457850000100110","name":"무선산","lat":34.764569,"lng":127.645067,"roadAddr":"전남광주통합특별시 여수시 선원동 산43","openHours":"상시","maleToilets":4,"femaleToilets":3,"disabled":false,"diaperTable":true,"emergencyBell":true,"cctv":false,"managerTel":"0616594629","source":"public","category":"public"},{"id":"202457850000100154","name":"소라파출소","lat":34.797977,"lng":127.631044,"roadAddr":"전남광주통합특별시 여수시 소라면 덕양로 452 (덕양리, 소라파출소)","openHours":"상시","maleToilets":2,"femaleToilets":1,"disabled":true,"diaperTable":false,"emergencyBell":false,"cctv":true,"managerTel":"0616608329","source":"public","category":"public"},{"id":"202457850000100465","name":"현대주유소","lat":34.80131,"lng":127.645484,"roadAddr":"전남광주통합특별시 여수시 좌수영로 1246 (해산동 )","openHours":"정시","maleToilets":3,"femaleToilets":2,"disabled":true,"diaperTable":false,"emergencyBell":false,"cctv":false,"managerTel":"0616925270","source":"public","category":"public"},{"id":"202457850000100468","name":"선산공원(놀이터 앞)","lat":34.773404,"lng":127.644107,"roadAddr":"전남광주통합특별시 여수시 성산6길 53-12, 성산공원(놀이터 앞) (화장동)","jibunAddr":"전남광주통합특별시 여수시 화장동 949","openHours":"상시","maleToilets":4,"femaleToilets":4,"disabled":true,"diaperTable":true,"emergencyBell":true,"cctv":false,"managerTel":"0616594629","source":"public","category":"public"},{"id":"202457850000100195","name":"이 레 타 운","lat":34.761376,"lng":127.656359,"roadAddr":"전남광주통합특별시 여수시 무선로 6 (학동)","openHours":"정시","maleToilets":6,"femaleToilets":3,"disabled":false,"diaperTable":false,"emergencyBell":false,"cctv":false,"source":"public","category":"public"},{"id":"202457850000100469","name":"상하금공원(대형)","lat":34.762421,"lng":127.630996,"roadAddr":"전남광주통합특별시 여수시 소라면 덕양로 21-18 (힐스테이트 죽림 젠트리스)","jibunAddr":"전남광주통합특별시 여수시 소라면 죽림리 1254 힐스테이트 죽림 젠트리스","openHours":"상시","maleToilets":5,"femaleToilets":5,"disabled":true,"diaperTable":true,"emergencyBell":true,"cctv":false,"managerTel":"0616594629","source":"public","category":"public"},{"id":"202457850000100470","name":"상하금공원(중형)","lat":34.762421,"lng":127.630996,"roadAddr":"전남광주통합특별시 여수시 소라면 덕양로 21-18 (힐스테이트 죽림 젠트리스)","jibunAddr":"전남광주통합특별시 여수시 소라면 죽림리 1254 힐스테이트 죽림 젠트리스","openHours":"상시","maleToilets":3,"femaleToilets":3,"disabled":true,"diaperTable":true,"emergencyBell":true,"cctv":true,"managerTel":"0616594629","source":"public","category":"public"}]