[{"id":"202457850000100051","name":"호성주유소","lat":34.757695,"lng":127.673022,"roadAddr":"전남광주통합특별시 여수시 망마로 97","openHours":"정시","maleToilets":3,"femaleToilets":1,"disabled":true,"diaperTable":false,"emergencyBell":false,"cctv":false,"managerTel":"0616812326","source":"public","category":"public"},{"id":"202457850000100044","name":"여문주유소","lat":34.754232,"lng":127.703753,"roadAddr":"전남광주통합특별시 여수시 문수로 79 (문수동)","openHours":"정시","maleToilets":2,"femaleToilets":1,"disabled":true,"diaperTable":false,"emergencyBell":false,"cctv":false,"managerTel":"0616515333","source":"public","category":"public"},{"id":"202457850000100024","name":"세영주유소","lat":34.723333,"lng":127.702125,"roadAddr":"전남광주통합특별시 여수시 신월로 496 (신월동, 주유소)","openHours":"정시","maleToilets":4,"femaleToilets":1,"disabled":false,"diaperTable":false,"emergencyBell":false,"cctv":false,"managerTel":"0616422827","source":"public","category":"public"},{"id":"202457850000100045","name":"대진주유소","lat":34.748872,"lng":127.698373,"roadAddr":"전남광주통합특별시 여수시 문수로 1 (문수동)","openHours":"정시","maleToilets":3,"femaleToilets":1,"disabled":true,"diaperTable":false,"emergencyBell":false,"cctv":false,"managerTel":"0616915151","source":"public","category":"public"},{"id":"202457850000100068","name":"망마국민체육센터","lat":34.758208,"lng":127.679341,"roadAddr":"전남광주통합특별시 여수시 여천체육공원길 49","openHours":"정시","maleToilets":10,"femaleToilets":9,"disabled":true,"diaperTable":false,"emergencyBell":true,"cctv":true,"managerTel":"0616848225","source":"public","category":"public"},{"id":"202457850000100073","name":"여문공원 공영주차장 공용화장실","lat":34.753368,"lng":127.701585,"roadAddr":"전남광주통합특별시 여수시 문수동 169-1","openHours":"상시","maleToilets":4,"femaleToilets":2,"disabled":false,"diaperTable":false,"emergencyBell":true,"cctv":true,"managerTel":"0616628208","source":"public","category":"public"},{"id":"202457850000100077","name":"여문 공영주차장 공용화장실","lat":34.751312,"lng":127.703029,"roadAddr":"전남광주통합특별시 여수시 여서동 237","openHours":"상시","maleToilets":4,"femaleToilets":3,"disabled":true,"diaperTable":false,"emergencyBell":true,"cctv":true,"managerTel":"0616628204","source":"public","category":"public"},{"id":"202457850000100079","name":"학동상가 공영주차장 공용화장실","lat":34.757354,"lng":127.664688,"roadAddr":"전남광주통합특별시 여수시 시청동 3길 31","openHours":"상시","maleToilets":2,"femaleToilets":1,"disabled":false,"diaperTable":false,"emergencyBell":true,"cctv":true,"managerTel":"0616628204","source":"public","category":"public"},{"id":"202457850000100081","name":"웅천장도공원","lat":34.748612,"lng":127.666151,"roadAddr":"전남광주통합특별시 여수시 웅천동 974-1","openHours":"상시","maleToilets":3,"femaleToilets":3,"disabled":true,"diaperTable":false,"emergencyBell":true,"cctv":false,"managerTel":"0616594629","source":"public","category":"public"},{"id":"202457850000100213","name":"여수신기동우체국","lat":34.760479,"lng":127.674538,"roadAddr":"전남광주통합특별시 여수시 신기동 새터로 47","jibunAddr":"전남광주통합특별시 여수시 신기동 74-2","openHours":"정시","maleToilets":0,"femaleToilets":0,"disabled":true,"diaperTable":false,"emergencyBell":false,"cctv":true,"managerTel":"0616812015","source":"public","category":"public"},{"id":"202457850000100234","name":"이순신공원 바다화장실","lat":34.74444,"lng":127.67986,"roadAddr":"전남광주통합특별시 여수시 웅천동 1865-1","jibunAddr":"전남광주통합특별시 여수시 웅천동 1865-1","openHours":"상시","maleToilets":5,"femaleToilets":8,"disabled":true,"diaperTable":false,"emergencyBell":true,"cctv":false,"managerTel":"0616594628","source":"public","category":"public"},{"id":"202457850000100235","name":"이순신공원 대형화장실","lat":34.74444,"lng":127.67986,"roadAddr":"전남광주통합특별시 여수시 웅천동 1865-1","jibunAddr":"전남광주통합특별시 여수시 웅천동 1865-1","openHours":"상시","maleToilets":6,"femaleToilets":10,"disabled":true,"diaperTable":true,"emergencyBell":true,"cctv":false,"managerTel":"0616594628","source":"public","category":"public"},{"id":"202457850000100236","name":"웅천못공원","lat":34.748455,"lng":127.689639,"roadAddr":"전남광주통합특별시 여수시 웅천동 1836","jibunAddr":"전남광주통합특별시 여수시 웅천동 1836","openHours":"상시","maleToilets":6,"femaleToilets":6,"disabled":true,"diaperTable":false,"emergencyBell":true,"cctv":false,"managerTel":"0616594628","source":"public","category":"public"},{"id":"202457850000100237","name":"웅천친수공원","lat":34.745946,"lng":127.669309,"roadAddr":"전남광주통합특별시 여수시 예울마루로 37-40","jibunAddr":"전남광주통합특별시 여수시 웅천동 1692","openHours":"상시","maleToilets":7,"femaleToilets":6,"disabled":true,"diaperTable":false,"emergencyBell":true,"cctv":false,"managerTel":"0616594628","source":"public","category":"public"},{"id":"202457850000100238","name":"청소년문화공원","lat":34.74797,"lng":127.673718,"roadAddr":"전남광주통합특별시 여수시 웅천동 1684","jibunAddr":"전남광주통합특별시 여수시 웅천동 1684","openHours":"상시","maleToilets":7,"femaleToilets":8,"disabled":true,"diaperTable":false,"emergencyBell":true,"cctv":false,"managerTel":"0616594628","source":"public","category":"public"},{"id":"202457850000100244","name":"월하공원","lat":34.756306,"lng":127.673093,"roadAddr":"전남광주통합특별시 여수시 신기동 132","jibunAddr":"전남광주통합특별시 여수시 신기동 132","openHours":"상시","maleToilets":2,"femaleToilets":1,"disabled":false,"diaperTable":false,"emergencyBell":true,"cctv":false,"managerTel":"0616594628","source":"public","category":"public"},{"id":"202457850000100249","name":"여문공원","lat":34.752744,"lng":127.70206,"roadAddr":"전남광주통합특별시 여수시 여문문화2길 46 (문수동)","jibunAddr":"전남광주통합특별시 여수시 문수동 126","openHours":"상시","maleToilets":4,"femaleToilets":2,"disabled":true,"diaperTable":false,"emergencyBell":true,"cctv":false,"managerTel":"0616594628","source":"public","category":"public"},{"id":"202457850000100254","name":"웅천 해변문화공원","lat":34.739937,"lng":127.675184,"roadAddr":"전남광주통합특별시 여수시 웅천남6로 33 (웅천동)","jibunAddr":"전남광주통합특별시 여수시 웅천동 1899-2","openHours":"상시","maleToilets":12,"femaleToilets":2,"disabled":true,"diaperTable":true,"emergencyBell":true,"cctv":false,"managerTel":"0616594628","source":"public","category":"public"},{"id":"202457850000100260","name":"환경도서관","lat":34.754212,"lng":127.701055,"roadAddr":"전남광주통합특별시 여수시 문수로 53-32(문수동, 여수환경도서관)","jibunAddr":"전남광주통합특별시 여수시 문수동 169","openHours":"정시","maleToilets":4,"femaleToilets":4,"disabled":true,"diaperTable":true,"emergencyBell":false,"cctv":false,"managerTel":"0616594811","source":"public","category":"public"},{"id":"202457850000100263","name":"이순신도서관","lat":34.749882,"lng":127.690444,"roadAddr":"전남광주통합특별시 여수시 웅천6길 51","jibunAddr":"전남광주통합특별시 여수시 웅천동 1820-2","openHours":"정시","maleToilets":19,"femaleToilets":8,"disabled":true,"diaperTable":false,"emergencyBell":false,"cctv":false,"managerTel":"0616592850","source":"public","category":"public"},{"id":"202457850000100282","name":"예울마루화장실","lat":34.750617,"lng":127.665409,"roadAddr":"전남광주통합특별시 여수시 예울마루로 100 (시전동)","jibunAddr":"전남광주통합특별시 여수시 시전동 1002","openHours":"정시","maleToilets":69,"femaleToilets":82,"disabled":true,"diaperTable":true,"emergencyBell":false,"cctv":false,"managerTel":"0618087021","source":"public","category":"public"},{"id":"202457850000100083","name":"웅천친수공원\n(놀이터앞)","lat":34.747166,"lng":127.668284,"roadAddr":"전남광주통합특별시 여수시 웅천동 1692","openHours":"상시","maleToilets":1,"femaleToilets":1,"disabled":true,"diaperTable":false,"emergencyBell":true,"cctv":false,"managerTel":"0616594629","source":"public","category":"public"},{"id":"202457850000100088","name":"국민건강보험공단 여수지사","lat":34.747917,"lng":127.691272,"roadAddr":"전남광주통합특별시 여수시 여서로 86 (웅천동)","openHours":"정시","maleToilets":20,"femaleToilets":12,"disabled":true,"diaperTable":false,"emergencyBell":false,"cctv":true,"managerTel":"0616900612","source":"public","category":"public"},{"id":"202457850000100092","name":"녹도공원","lat":34.757644,"lng":127.66833,"roadAddr":"전남광주통합특별시 여수시 신기동 145","openHours":"상시","maleToilets":4,"femaleToilets":4,"disabled":true,"diaperTable":false,"emergencyBell":true,"cctv":true,"managerTel":"0616594629","source":"public","category":"public"},{"id":"202457850000100353","name":"시전동 주민센터","lat":34.760499,"lng":127.673642,"roadAddr":"전남광주통합특별시 여수시 시전6길 16(신기동)","jibunAddr":"전남광주통합특별시 여수시 신기동 73-8","openHours":"정시","maleToilets":4,"femaleToilets":2,"disabled":true,"diaperTable":false,"emergencyBell":false,"cctv":false,"managerTel":"0616591599","source":"public","category":"public"},{"id":"202457850000100102","name":"여문공원(스포렉스 뒤)","lat":34.751312,"lng":127.703029,"roadAddr":"전남광주통합특별시 여수시 여서동 237","openHours":"상시","maleToilets":4,"femaleToilets":4,"disabled":true,"diaperTable":false,"emergencyBell":true,"cctv":true,"managerTel":"0616594629","source":"public","category":"public"},{"id":"202457850000100104","name":"문수동 행정복지센터","lat":34.754568,"lng":127.702737,"roadAddr":"전남광주통합특별시 여수시 여문1로 71, 문수동주민센터 1층 (문수동)","openHours":"정시","maleToilets":5,"femaleToilets":3,"disabled":true,"diaperTable":false,"emergencyBell":false,"cctv":false,"managerTel":"0616591488","source":"public","category":"public"},{"id":"202457850000100119","name":"신월동공중화장실","lat":34.733345,"lng":127.687213,"roadAddr":"전남광주통합특별시 여수시 신월동 1240-17","openHours":"상시","maleToilets":3,"femaleToilets":2,"disabled":false,"diaperTable":false,"emergencyBell":true,"cctv":false,"managerTel":"0616594628","source":"public","category":"public"},{"id":"202457850000100375","name":"웅천 자당공원(주차장)","lat":34.741893,"lng":127.684797,"roadAddr":"전남광주통합특별시 여수시 신월로 195","jibunAddr":"전남광주통합특별시 여수시 웅천동 1849","openHours":"상시","maleToilets":7,"femaleToilets":7,"disabled":true,"diaperTable":true,"emergencyBell":true,"cctv":false,"managerTel":"0616594758","source":"public","category":"public"},{"id":"202457850000100376","name":"웅천 자당공원(관리사)","lat":34.741893,"lng":127.684797,"roadAddr":"전남광주통합특별시 여수시 신월로 195","jibunAddr":"전남광주통합특별시 여수시 웅천동 1849","openHours":"정시","maleToilets":2,"femaleToilets":2,"disabled":false,"diaperTable":false,"emergencyBell":false,"cctv":false,"managerTel":"0616594758","source":"public","category":"public"},{"id":"202457850000100377","name":"웅천 오충사","lat":34.750707,"lng":127.68049,"roadAddr":"전남광주통합특별시 여수시 웅천동 1805","jibunAddr":"전남광주통합특별시 여수시 웅천동 1805","openHours":"상시","maleToilets":6,"femaleToilets":7,"disabled":true,"diaperTable":true,"emergencyBell":true,"cctv":false,"managerTel":"0616594758","source":"public","category":"public"},{"id":"202457850000100378","name":"선소유적공원","lat":34.754609,"lng":127.66307,"roadAddr":"전남광주통합특별시 여수시 시전동 745-1","jibunAddr":"전남광주통합특별시 여수시 시전동 745-1","openHours":"상시","maleToilets":4,"femaleToilets":3,"disabled":true,"diaperTable":true,"emergencyBell":true,"cctv":false,"managerTel":"0616594758","source":"public","category":"public"},{"id":"202457850000100386","name":"CCTV관제센터","lat":34.76015,"lng":127.661565,"roadAddr":"전남광주통합특별시 여수시 시청로 1","jibunAddr":"전남광주통합특별시 여수시 학동 100번지","openHours":"정시","maleToilets":17,"femaleToilets":11,"disabled":true,"diaperTable":false,"emergencyBell":false,"cctv":false,"managerTel":"0616593223","source":"public","category":"public"},{"id":"202457850000100387","name":"구)보건소","lat":34.758737,"lng":127.663624,"roadAddr":"전남광주통합특별시 여수시 시청동 1길 23","jibunAddr":"전남광주통합특별시 여수시 학동 174번지","openHours":"정시","maleToilets":20,"femaleToilets":9,"disabled":true,"diaperTable":false,"emergencyBell":false,"cctv":false,"managerTel":"0616593223","source":"public","category":"public"},{"id":"202457850000100388","name":"여수시청","lat":34.76015,"lng":127.661565,"roadAddr":"전남광주통합특별시 여수시 시청로 1","jibunAddr":"전남광주통합특별시 여수시 학동 100번지","openHours":"정시","maleToilets":65,"femaleToilets":32,"disabled":true,"diaperTable":false,"emergencyBell":false,"cctv":false,"managerTel":"0616593223","source":"public","category":"public"},{"id":"202457850000100408","name":"시목공원","lat":34.759469,"lng":127.671757,"roadAddr":"전남광주통합특별시 여수시 신기남길 15","jibunAddr":"전남광주통합특별시 여수시 신기동 119","openHours":"상시","maleToilets":2,"femaleToilets":1,"disabled":false,"diaperTable":false,"emergencyBell":true,"cctv":false,"managerTel":"0616594628","source":"public","category":"public"},{"id":"202457850000100412","name":"암골못공원","lat":34.750387,"lng":127.686855,"roadAddr":"전남광주통합특별시 여수시 웅천동 1816-1","jibunAddr":"전남광주통합특별시 여수시 웅천동 1816-1","openHours":"상시","maleToilets":6,"femaleToilets":2,"disabled":true,"diaperTable":false,"emergencyBell":false,"cctv":false,"managerTel":"0616594628","source":"public","category":"public"},{"id":"202457850000100166","name":"여수세관","lat":34.753111,"lng":127.674663,"roadAddr":"전남광주통합특별시 여수시 웅천북로 39","openHours":"정시","maleToilets":3,"femaleToilets":2,"disabled":true,"diaperTable":false,"emergencyBell":false,"cctv":false,"managerTel":"0616608623","source":"public","category":"public"},{"id":"202457850000100167","name":"여수고용노동지청","lat":34.751923,"lng":127.674287,"roadAddr":"전남광주통합특별시 여수시 웅천북로 33","openHours":"정시","maleToilets":20,"femaleToilets":12,"disabled":true,"diaperTable":false,"emergencyBell":true,"cctv":true,"managerTel":"0616500116","source":"public","category":"public"},{"id":"202457850000100446","name":"망마게이트볼장","lat":34.758208,"lng":127.679341,"roadAddr":"전남광주통합특별시 여수시 여천체육공원길 49","jibunAddr":"전남광주통합특별시 여수시 시전동 109","openHours":"정시","maleToilets":6,"femaleToilets":3,"disabled":true,"diaperTable":false,"emergencyBell":false,"cctv":false,"managerTel":"0616594660","source":"public","category":"public"},{"id":"202457850000100447","name":"망마보조경기장","lat":34.758208,"lng":127.679341,"roadAddr":"전남광주통합특별시 여수시 여천체육공원길 49","jibunAddr":"전남광주통합특별시 여수시 시전동 109","openHours":"상시","maleToilets":7,"femaleToilets":2,"disabled":true,"diaperTable":false,"emergencyBell":false,"cctv":false,"managerTel":"0616594660","source":"public","category":"public"},{"id":"202457850000100448","name":"임시주차장(족구장)","lat":34.758208,"lng":127.679341,"roadAddr":"전남광주통합특별시 여수시 여천체육공원길 49","jibunAddr":"전남광주통합특별시 여수시 시전동 109","openHours":"상시","maleToilets":7,"femaleToilets":4,"disabled":true,"diaperTable":false,"emergencyBell":false,"cctv":false,"managerTel":"0616594660","source":"public","category":"public"},{"id":"202457850000100449","name":"직4문(육상경기연맹)","lat":34.758208,"lng":127.679341,"roadAddr":"전남광주통합특별시 여수시 여천체육공원길 49","jibunAddr":"전남광주통합특별시 여수시 시전동 109","openHours":"상시","maleToilets":11,"femaleToilets":7,"disabled":true,"diaperTable":false,"emergencyBell":true,"cctv":false,"managerTel":"0616594660","source":"public","category":"public"},{"id":"202457850000100450","name":"직3문(복싱연합회)","lat":34.758208,"lng":127.679341,"roadAddr":"전남광주통합특별시 여수시 여천체육공원길 49","jibunAddr":"전남광주통합특별시 여수시 시전동 109","openHours":"상시","maleToilets":12,"femaleToilets":9,"disabled":true,"diaperTable":false,"emergencyBell":true,"cctv":false,"managerTel":"0616594659","source":"public","category":"public"},{"id":"202457850000100451","name":"직2문(시립국악단)","lat":34.758208,"lng":127.679341,"roadAddr":"전남광주통합특별시 여수시 여천체육공원길 49","jibunAddr":"전남광주통합특별시 여수시 시전동 109","openHours":"상시","maleToilets":12,"femaleToilets":9,"disabled":true,"diaperTable":false,"emergencyBell":true,"cctv":false,"managerTel":"0616594659","source":"public","category":"public"},{"id":"202457850000100452","name":"직1문(시립합창단)","lat":34.758208,"lng":127.679341,"roadAddr":"전남광주통합특별시 여수시 여천체육공원길 49","jibunAddr":"전남광주통합특별시 여수시 시전동 109","openHours":"상시","maleToilets":10,"femaleToilets":7,"disabled":true,"diaperTable":false,"emergencyBell":true,"cctv":false,"managerTel":"0616594659","source":"public","category":"public"},{"id":"202457850000100155","name":"신기파출소","lat":34.75945,"lng":127.675306,"roadAddr":"전남광주통합특별시 여수시 새터로 31 (신기동, 신기지구대)","openHours":"상시","maleToilets":2,"femaleToilets":1,"disabled":true,"diaperTable":false,"emergencyBell":false,"cctv":true,"managerTel":"0616608328","source":"public","category":"public"},{"id":"202457850000100453","name":"망마관리팀 사무실위층","lat":34.758208,"lng":127.679341,"roadAddr":"전남광주통합특별시 여수시 여천체육공원길 49","jibunAddr":"전남광주통합특별시 여수시 시전동 109","openHours":"정시","maleToilets":11,"femaleToilets":9,"disabled":false,"diaperTable":false,"emergencyBell":false,"cctv":false,"managerTel":"0616594659","source":"public","category":"public"},{"id":"202457850000100454","name":"망마관리팀 사무실옆","lat":34.758208,"lng":127.679341,"roadAddr":"전남광주통합특별시 여수시 여천체육공원길 49","jibunAddr":"전남광주통합특별시 여수시 시전동 109","openHours":"정시","maleToilets":6,"femaleToilets":4,"disabled":false,"diaperTable":false,"emergencyBell":false,"cctv":false,"managerTel":"0616594659","source":"public","category":"public"},{"id":"202457850000100194","name":"코아상가","lat":34.754647,"lng":127.692978,"roadAddr":"전남광주통합특별시 여수시 여문2로 73 (문수동)","openHours":"정시","maleToilets":5,"femaleToilets":2,"disabled":false,"diaperTable":false,"emergencyBell":false,"cctv":false,"managerTel":"0616511060","source":"public","category":"public"},{"id":"202457850000100471","name":"세종공원","lat":34.755799,"lng":127.695363,"roadAddr":"전남광주통합특별시 여수시 문수7길 14 (문수동)","jibunAddr":"전남광주통합특별시 여수시 문수동 459-3","openHours":"상시","maleToilets":3,"femaleToilets":3,"disabled":true,"diaperTable":true,"emergencyBell":true,"cctv":false,"managerTel":"0616594629","source":"public","category":"public"}]