[{"id":"202454300000100064","name":"호구산 백련암","lat":34.788603,"lng":127.92127,"roadAddr":"경상남도 남해군 이동면 용문사길 197","jibunAddr":"경상남도 남해군 이동면 용소리871","openHours":"상시","maleToilets":3,"femaleToilets":2,"disabled":true,"diaperTable":false,"emergencyBell":false,"cctv":false,"managerTel":"0558603280","source":"public","category":"public"},{"id":"202454300000100061","name":"월포해수욕장","lat":34.767173,"lng":127.905043,"roadAddr":"경상남도 남해군 남면 남서대로 611-17","jibunAddr":"경상남도 남해군 남면 석교리 1034-1","openHours":"하절기(7~9월)","maleToilets":8,"femaleToilets":6,"disabled":false,"diaperTable":false,"emergencyBell":false,"cctv":false,"managerTel":"0558603280","source":"public","category":"public"},{"id":"202454300000100113","name":"남면공설운동장 화장실","lat":34.771711,"lng":127.891646,"roadAddr":"경상남도 남해군 남면 남서대로 748","jibunAddr":"경상남도 남해군 남면 당항리 1329-2","openHours":"상시","maleToilets":12,"femaleToilets":8,"disabled":false,"diaperTable":false,"emergencyBell":false,"cctv":false,"managerTel":"0558608665","source":"public","category":"public"},{"id":"202454300000100111","name":"남면공설시장","lat":34.771079,"lng":127.885914,"roadAddr":"경상남도 남해군 남면 남서대로 785-5","jibunAddr":"경상남도 남해군 남면 당항리 1381-5","openHours":"상시","maleToilets":5,"femaleToilets":4,"disabled":true,"diaperTable":false,"emergencyBell":false,"cctv":false,"managerTel":"0558603195","source":"public","category":"public"},{"id":"202454300000100114","name":"두곡해수욕장","lat":34.768585,"lng":127.907245,"roadAddr":"경상남도 남해군 남면 남서대로 575-10","jibunAddr":"경상남도 남해군 남면 당항리 528","openHours":"하절기(7~9월)","maleToilets":9,"femaleToilets":6,"disabled":false,"diaperTable":true,"emergencyBell":true,"cctv":true,"managerTel":"0558603280","source":"public","category":"public"}]