[{"id":"202457850000100001","name":"자산공원(해오름전시실)","lat":34.73909,"lng":127.751202,"roadAddr":"전남광주통합특별시 여수시 자산공원길 90, 여수항해상교통센터 1층 (종화동)","jibunAddr":"전남광주통합특별시 여수시 종화동 3","openHours":"상시","maleToilets":4,"femaleToilets":6,"disabled":true,"diaperTable":false,"emergencyBell":false,"cctv":true,"source":"public","category":"public"},{"id":"202457850000100072","name":"오동도주차타워    공용화장실","lat":34.740918,"lng":127.753716,"roadAddr":"전남광주통합특별시 여수시 오동도로 116","openHours":"09:00~22:00","maleToilets":9,"femaleToilets":8,"disabled":false,"diaperTable":false,"emergencyBell":true,"cctv":true,"managerTel":"0616628209","source":"public","category":"public"},{"id":"202457850000100074","name":"동백 공영주차장  공용화장실","lat":34.741919,"lng":127.751639,"roadAddr":"전남광주통합특별시 여수시 오동도로 98","openHours":"상시","maleToilets":5,"femaleToilets":3,"disabled":false,"diaperTable":false,"emergencyBell":true,"cctv":true,"managerTel":"0616628207","source":"public","category":"public"},{"id":"202457850000100233","name":"자산공원 충무정옆","lat":34.739258,"lng":127.750421,"roadAddr":"전남광주통합특별시 여수시 자산공원길 88","jibunAddr":"전남광주통합특별시 여수시 종화동 3","openHours":"상시","maleToilets":3,"femaleToilets":4,"disabled":true,"diaperTable":false,"emergencyBell":true,"cctv":false,"managerTel":"0616594628","source":"public","category":"public"},{"id":"202457850000100301","name":"오동도 등대밑","lat":34.744523,"lng":127.766374,"roadAddr":"전남광주통합특별시 여수시 수정동 1-2","jibunAddr":"전남광주통합특별시 여수시 수정동 1-2","openHours":"상시","maleToilets":6,"femaleToilets":3,"disabled":true,"diaperTable":false,"emergencyBell":false,"cctv":false,"managerTel":"0616591821","source":"public","category":"public"},{"id":"202457850000100302","name":"오동도 바람골","lat":34.744523,"lng":127.766374,"roadAddr":"전남광주통합특별시 여수시 수정동 1-2","jibunAddr":"전남광주통합특별시 여수시 수정동 1-2","openHours":"상시","maleToilets":5,"femaleToilets":3,"disabled":false,"diaperTable":false,"emergencyBell":false,"cctv":false,"managerTel":"0616591821","source":"public","category":"public"},{"id":"202457850000100303","name":"오동도 용굴","lat":34.744523,"lng":127.766374,"roadAddr":"전남광주통합특별시 여수시 수정동 1-2","jibunAddr":"전남광주통합특별시 여수시 수정동 1-2","openHours":"상시","maleToilets":6,"femaleToilets":3,"disabled":false,"diaperTable":false,"emergencyBell":false,"cctv":false,"managerTel":"0616591821","source":"public","category":"public"},{"id":"202457850000100304","name":"오동도 산책로입구","lat":34.744523,"lng":127.766374,"roadAddr":"전남광주통합특별시 여수시 수정동 1-2","jibunAddr":"전남광주통합특별시 여수시 수정동 1-2","openHours":"상시","maleToilets":3,"femaleToilets":3,"disabled":false,"diaperTable":false,"emergencyBell":false,"cctv":false,"managerTel":"0616591821","source":"public","category":"public"},{"id":"202457850000100298","name":"오동도 사무실 옆","lat":34.744506,"lng":127.7642,"roadAddr":"전남광주통합특별시 여수시 수정동 1-11","jibunAddr":"전남광주통합특별시 여수시 수정동 1-11","openHours":"상시","maleToilets":4,"femaleToilets":3,"disabled":true,"diaperTable":false,"emergencyBell":false,"cctv":false,"managerTel":"0616591821","source":"public","category":"public"},{"id":"202457850000100299","name":"오동도 광장","lat":34.745527,"lng":127.76615,"roadAddr":"전남광주통합특별시 여수시 수정동 1-4","jibunAddr":"전남광주통합특별시 여수시 수정동 1-4","openHours":"상시","maleToilets":6,"femaleToilets":8,"disabled":true,"diaperTable":false,"emergencyBell":false,"cctv":false,"managerTel":"0616591821","source":"public","category":"public"},{"id":"202457850000100300","name":"오동도 상가옆","lat":34.744506,"lng":127.7642,"roadAddr":"전남광주통합특별시 여수시 수정동 1-11","jibunAddr":"전남광주통합특별시 여수시 수정동 1-11","openHours":"상시","maleToilets":6,"femaleToilets":5,"disabled":true,"diaperTable":false,"emergencyBell":false,"cctv":false,"managerTel":"0616591821","source":"public","category":"public"},{"id":"202457850000100111","name":"오동도 입구관리동","lat":34.740995,"lng":127.75556,"roadAddr":"전남광주통합특별시 여수시 오동도로 132, 오동도 입구 관리동 (수정동)","openHours":"상시","maleToilets":10,"femaleToilets":10,"disabled":true,"diaperTable":true,"emergencyBell":true,"cctv":false,"managerTel":"0616591821","source":"public","category":"public"},{"id":"202457850000100379","name":"자산공원(빠삐용관)","lat":34.739258,"lng":127.750421,"roadAddr":"전남광주통합특별시 여수시 자산공원길 88 (종화동)","jibunAddr":"전남광주통합특별시 여수시 종화동 3번지","openHours":"09:00~18:00","maleToilets":4,"femaleToilets":4,"disabled":false,"diaperTable":false,"emergencyBell":false,"cctv":false,"managerTel":"0616593781","source":"public","category":"public"},{"id":"202457850000100433","name":"돌산읍우두출장소","lat":34.718499,"lng":127.750487,"roadAddr":"전남광주통합특별시 여수시 돌산읍 강남로 32 (우두리, 돌산읍우두출장소)","jibunAddr":"전남광주통합특별시 여수시 돌산읍 우두리 1117-4","openHours":"09:00~21:00","maleToilets":4,"femaleToilets":2,"disabled":false,"diaperTable":false,"emergencyBell":false,"cctv":false,"managerTel":"0616591705","source":"public","category":"public"},{"id":"202457850000100164","name":"엑스포여객선터미널","lat":34.754057,"lng":127.753196,"roadAddr":"전남광주통합특별시 여수시 엑스포대로 320-66","openHours":"09:00~익일02:00","maleToilets":4,"femaleToilets":6,"disabled":true,"diaperTable":true,"emergencyBell":false,"cctv":true,"managerTel":"0618100151","source":"public","category":"public"},{"id":"202457850000100457","name":"돌산체육관","lat":34.717124,"lng":127.749835,"roadAddr":"전남광주통합특별시 여수시 돌산읍 강남로 18 (우두리)","jibunAddr":"전남광주통합특별시 여수시 돌산읍 우두리 1117-3","openHours":"09:00~18:00","maleToilets":10,"femaleToilets":4,"disabled":false,"diaperTable":false,"emergencyBell":false,"cctv":false,"managerTel":"0616591052","source":"public","category":"public"},{"id":"202457850000100198","name":"오동도회관","lat":34.741766,"lng":127.751984,"roadAddr":"전남광주통합특별시 여수시 오동도로 98-1 (수정동)","openHours":"09:00~21:00","maleToilets":4,"femaleToilets":1,"disabled":false,"diaperTable":false,"emergencyBell":false,"cctv":false,"source":"public","category":"public"}]