[{"id":"202258450000100119","name":"고흥만남의광장휴게소","lat":34.823637,"lng":127.345243,"roadAddr":"전남 고흥군 동강면 고흥로 4797","jibunAddr":"전남 고흥군 동강면 한천리 334-3","openHours":"상시","maleToilets":9,"femaleToilets":9,"disabled":true,"diaperTable":true,"emergencyBell":true,"cctv":false,"managerTel":"0618305696","source":"public","category":"public"},{"id":"202458450000100004","name":"한국도로공사 고흥영업소","lat":34.826001,"lng":127.343469,"roadAddr":"전남광주통합특별시 고흥군 동강면 고흥로 4823-17","jibunAddr":"전남광주통합특별시 고흥군 동강면 한천리 415-17","openHours":"상시","maleToilets":3,"femaleToilets":2,"disabled":true,"diaperTable":false,"emergencyBell":false,"cctv":false,"managerTel":"0548112812","source":"public","category":"public"},{"id":"202458500000101400","name":"벌교주유소","lat":34.840007,"lng":127.342522,"roadAddr":"전남광주통합특별시 보성군 벌교읍 채동선로 190","jibunAddr":"전남광주통합특별시 보성군 벌교읍 벌교리 746 번지1 호","openHours":"정시","maleToilets":6,"femaleToilets":3,"disabled":false,"diaperTable":false,"emergencyBell":false,"cctv":false,"managerTel":"0618585151","source":"public","category":"public"},{"id":"202458500000101404","name":"태백산맥주유소","lat":34.84768,"lng":127.35221,"roadAddr":"전남광주통합특별시 보성군 벌교읍 홍암로 91","jibunAddr":"전남광주통합특별시 보성군 벌교읍 회정리 430 번지1 호","openHours":"정시","maleToilets":3,"femaleToilets":1,"disabled":false,"diaperTable":false,"emergencyBell":false,"cctv":false,"managerTel":"0618572103","source":"public","category":"public"},{"id":"202458500000101411","name":"GS칼텍스 벌교IC충전소 화장실","lat":34.838568,"lng":127.325306,"roadAddr":"전남광주통합특별시 보성군 벌교읍 녹색로 5337","jibunAddr":"전남광주통합특별시 보성근 벌교읍 척령리 277-3","openHours":"정시","maleToilets":2,"femaleToilets":2,"disabled":false,"diaperTable":false,"emergencyBell":false,"cctv":false,"managerTel":"0618586611","source":"public","category":"public"},{"id":"202458500000101029","name":"보성군노인복지관 화장실","lat":34.845578,"lng":127.351469,"roadAddr":"전남광주통합특별시 보성군 벌교읍 신정길 47-23","jibunAddr":"전남광주통합특별시 보성군 벌교읍 회정리 458-5","openHours":"정시","maleToilets":2,"femaleToilets":1,"disabled":true,"diaperTable":false,"emergencyBell":false,"cctv":false,"managerTel":"0618588900","source":"public","category":"public"},{"id":"202458500000101289","name":"삼광중학교 본관(1층-동)","lat":34.833313,"lng":127.342292,"roadAddr":"전남광주통합특별시 보성군 벌교읍 채동선로 115","jibunAddr":"전남광주통합특별시 보성군 벌교읍 장좌리 511","openHours":"정시","maleToilets":6,"femaleToilets":0,"disabled":true,"diaperTable":false,"emergencyBell":false,"cctv":false,"managerTel":"0618590173","source":"public","category":"public"},{"id":"202458500000101290","name":"삼광중학교 본관(2층-동)","lat":34.833313,"lng":127.342292,"roadAddr":"전남광주통합특별시 보성군 벌교읍 채동선로 115","jibunAddr":"전남광주통합특별시 보성군 벌교읍 장좌리 511","openHours":"정시","maleToilets":9,"femaleToilets":0,"disabled":false,"diaperTable":false,"emergencyBell":false,"cctv":false,"managerTel":"0618590173","source":"public","category":"public"},{"id":"202458500000101380","name":"세경주유소","lat":34.838405,"lng":127.317228,"roadAddr":"전남광주통합특별시 보성군 벌교읍 녹색로 5267","jibunAddr":"전남광주통합특별시 보성군 벌교읍 척령리 587 번지23 호","openHours":"정시","maleToilets":3,"femaleToilets":1,"disabled":false,"diaperTable":false,"emergencyBell":false,"cctv":false,"managerTel":"0618573565","source":"public","category":"public"},{"id":"202458500000101104","name":"벌교행정복지센터","lat":34.847188,"lng":127.341665,"roadAddr":"전남광주통합특별시 보성군 벌교읍 채동선로 293","jibunAddr":"전남광주통합특별시 보성군 벌교읍 벌교리 602-2","openHours":"정시","maleToilets":20,"femaleToilets":14,"disabled":true,"diaperTable":true,"emergencyBell":true,"cctv":false,"managerTel":"0618508064","source":"public","category":"public"},{"id":"202458500000101022","name":"벌교게이트볼장","lat":34.84024,"lng":127.343563,"roadAddr":"전남광주통합특별시 보성군 벌교읍 체육공원길 75","jibunAddr":"전남광주통합특별시 보성군 벌교읍 벌교리 744","openHours":"상시","maleToilets":2,"femaleToilets":2,"disabled":false,"diaperTable":false,"emergencyBell":false,"cctv":false,"managerTel":"0618505332","source":"public","category":"public"},{"id":"202458500000101023","name":"보성시니어클럽 화장실","lat":34.84828,"lng":127.339567,"roadAddr":"전남광주통합특별시 보성군 벌교읍 태백산맥길 83","jibunAddr":"전남광주통합특별시 보성군 벌교읍 벌교리 9","openHours":"정시","maleToilets":12,"femaleToilets":6,"disabled":false,"diaperTable":true,"emergencyBell":false,"cctv":true,"managerTel":"0618103500","source":"public","category":"public"},{"id":"202458500000101126","name":"벌교역","lat":34.842041,"lng":127.345305,"roadAddr":"전남광주통합특별시 보성군 벌교읍 채동선로 228","jibunAddr":"전남광주통합특별시 보성군 벌교읍 벌교리890-1","openHours":"정시","maleToilets":8,"femaleToilets":4,"disabled":true,"diaperTable":false,"emergencyBell":true,"cctv":false,"source":"public","category":"public"},{"id":"202458500000101129","name":"벌교버스터미널","lat":34.848261,"lng":127.351101,"roadAddr":"전남광주통합특별시 보성군 벌교읍 조정래길 2-8","jibunAddr":"전남광주통합특별시 보성군 벌교읍 회정리 432","openHours":"정시","maleToilets":14,"femaleToilets":6,"disabled":false,"diaperTable":false,"emergencyBell":false,"cctv":false,"source":"public","category":"public"},{"id":"202458500000100987","name":"조정래벽화마을","lat":34.844437,"lng":127.33905,"roadAddr":"전남광주통합특별시 보성군 벌교읍 월곡길","jibunAddr":"전남광주통합특별시 보성군 벌교읍 벌교리 515","openHours":"상시","maleToilets":4,"femaleToilets":3,"disabled":false,"diaperTable":false,"emergencyBell":true,"cctv":false,"managerTel":"0618505332","source":"public","category":"public"},{"id":"202458500000100988","name":"부용산","lat":34.844184,"lng":127.334997,"roadAddr":"전남광주통합특별시 보성군 벌교읍 월곡길 94","jibunAddr":"전남광주통합특별시 보성군 벌교읍 벌교리 산9-3","openHours":"상시","maleToilets":3,"femaleToilets":2,"disabled":false,"diaperTable":false,"emergencyBell":true,"cctv":false,"managerTel":"0618505332","source":"public","category":"public"},{"id":"202458500000100989","name":"벌교금융조합","lat":34.845723,"lng":127.342671,"roadAddr":"전남광주통합특별시 보성군 벌교읍 태백산맥길 39-1","jibunAddr":"전남광주통합특별시 보성군 벌교읍 벌교리 512-16","openHours":"상시","maleToilets":2,"femaleToilets":1,"disabled":false,"diaperTable":false,"emergencyBell":true,"cctv":false,"managerTel":"0618505332","source":"public","category":"public"},{"id":"202458500000100994","name":"벌교오일시장1","lat":34.844915,"lng":127.34565,"roadAddr":"전남광주통합특별시 보성군 벌교읍 시장1길 12-13","jibunAddr":"전남광주통합특별시 보성군 벌교읍 회정리 663-6","openHours":"상시","maleToilets":6,"femaleToilets":3,"disabled":false,"diaperTable":false,"emergencyBell":true,"cctv":false,"managerTel":"0618505332","source":"public","category":"public"},{"id":"202458500000100995","name":"벌교오일시장2","lat":34.844915,"lng":127.34565,"roadAddr":"전남광주통합특별시 보성군 벌교읍 시장1길 12-13","jibunAddr":"전남광주통합특별시 보성군 벌교읍 회정리 663-6","openHours":"상시","maleToilets":2,"femaleToilets":1,"disabled":false,"diaperTable":false,"emergencyBell":true,"cctv":false,"managerTel":"0618505332","source":"public","category":"public"},{"id":"202458500000100996","name":"벌교오일시장3","lat":34.844501,"lng":127.345637,"roadAddr":"전남광주통합특별시 보성군 벌교읍 벌교천1길 15","jibunAddr":"전남광주통합특별시 보성군 벌교읍 회정리 663-6","openHours":"상시","maleToilets":8,"femaleToilets":10,"disabled":true,"diaperTable":false,"emergencyBell":true,"cctv":false,"managerTel":"0618505332","source":"public","category":"public"},{"id":"202458500000100997","name":"벌교오일시장4","lat":34.845249,"lng":127.345353,"roadAddr":"전남광주통합특별시 보성군 벌교읍 시장1길 11","jibunAddr":"전남광주통합특별시 보성군 벌교읍 회정리 663-2","openHours":"상시","maleToilets":9,"femaleToilets":10,"disabled":true,"diaperTable":true,"emergencyBell":true,"cctv":false,"managerTel":"0618505332","source":"public","category":"public"},{"id":"202458500000100998","name":"벌교전통시장제2주차장","lat":34.844721,"lng":127.346483,"roadAddr":"전남광주통합특별시 보성군 벌교읍 벌교천1길 17","jibunAddr":"전남광주통합특별시 보성군 벌교읍 회정리 546-4","openHours":"상시","maleToilets":8,"femaleToilets":6,"disabled":true,"diaperTable":true,"emergencyBell":true,"cctv":false,"managerTel":"0618505332","source":"public","category":"public"},{"id":"202458500000100999","name":"벌교숲공원","lat":34.84185,"lng":127.347663,"roadAddr":"전남광주통합특별시 보성군 벌교읍 체육공원길 35","jibunAddr":"전남광주통합특별시 보성군 벌교읍 벌교리 893-62","openHours":"상시","maleToilets":3,"femaleToilets":2,"disabled":false,"diaperTable":false,"emergencyBell":true,"cctv":false,"managerTel":"0618505332","source":"public","category":"public"},{"id":"202458500000101075","name":"벌교보건지소 화장실","lat":34.845725,"lng":127.348515,"roadAddr":"전남광주통합특별시 보성군 벌교읍 벌교상고길 27","jibunAddr":"전남광주통합특별시 보성군 벌교읍 회정리 509-6","openHours":"정시","maleToilets":2,"femaleToilets":3,"disabled":false,"diaperTable":false,"emergencyBell":true,"cctv":false,"managerTel":"0618508550","source":"public","category":"public"},{"id":"202458500000101446","name":"흥진2주유소화장실","lat":34.837409,"lng":127.350482,"roadAddr":"전남광주통합특별시 보성군 벌교읍 녹색로 5584","jibunAddr":"전남광주통합특별시 보성군 벌교읍 장좌리 222-1","openHours":"상시","maleToilets":2,"femaleToilets":2,"disabled":false,"diaperTable":false,"emergencyBell":false,"cctv":false,"managerTel":"0618581245","source":"public","category":"public"}]