[{"id":"202657900000100009","name":"옥녀봉 화장실","lat":34.925155,"lng":127.549349,"jibunAddr":"전남광주통합특별시 순천시 해룡면 신대리 2161 어린이놀이터","openHours":"상시","maleToilets":1,"femaleToilets":1,"disabled":false,"diaperTable":false,"emergencyBell":true,"cctv":false,"managerTel":"0617496334","source":"public","category":"public"},{"id":"202557900000102621","name":"해영주유소SK셀프 화장실","lat":34.900462,"lng":127.572126,"roadAddr":"전남광주통합특별시 순천시 해룡면 인덕로 114, 해영주유소SK셀프","jibunAddr":"전남광주통합특별시 순천시 해룡면 호두리 229-5 해영주유소SK셀프","openHours":"07:00~21:00","maleToilets":3,"femaleToilets":2,"disabled":false,"diaperTable":false,"emergencyBell":false,"cctv":false,"source":"public","category":"public"},{"id":"202557900000102633","name":"(유) 성산주유소 화장실","lat":34.920669,"lng":127.546144,"roadAddr":"전남광주통합특별시 순천시 해광로 101","openHours":"07:00~21:00","maleToilets":3,"femaleToilets":2,"disabled":false,"diaperTable":false,"emergencyBell":false,"cctv":false,"source":"public","category":"public"},{"id":"202557900000102639","name":"정운 주유소 화장실","lat":34.899155,"lng":127.55412,"roadAddr":"전남광주통합특별시 순천시 해룡면 여순로 1286 (호두리, 꿈이있는주유소)","openHours":"07:00~21:00","maleToilets":2,"femaleToilets":2,"disabled":false,"diaperTable":false,"emergencyBell":false,"cctv":false,"source":"public","category":"public"},{"id":"202557900000102640","name":"새롬주유소 화장실","lat":34.900297,"lng":127.5535,"roadAddr":"전남광주통합특별시 순천시 해룡면 여순로 1300 (호두리, 새롬주유소)","openHours":"07:00~21:00","maleToilets":2,"femaleToilets":2,"disabled":false,"diaperTable":false,"emergencyBell":false,"cctv":false,"source":"public","category":"public"},{"id":"202557900000102608","name":"용전주유소 화장실","lat":34.905224,"lng":127.548728,"roadAddr":"전남광주통합특별시 순천시 해룡면 여순로 1369(해룡면)","openHours":"07:00~21:00","maleToilets":2,"femaleToilets":2,"disabled":false,"diaperTable":false,"emergencyBell":false,"cctv":false,"source":"public","category":"public"},{"id":"202557900000102609","name":"㈜정오알뜰주유소 화장실","lat":34.916758,"lng":127.53311,"roadAddr":"전남광주통합특별시 순천시 해룡면 여순로 1574","openHours":"07:00~21:00","maleToilets":2,"femaleToilets":2,"disabled":false,"diaperTable":false,"emergencyBell":false,"cctv":false,"source":"public","category":"public"},{"id":"202557900000102610","name":"남쪽주유소 화장실","lat":34.917113,"lng":127.531126,"roadAddr":"전남광주통합특별시 순천시 해룡면 여순로 1594","openHours":"07:00~21:00","maleToilets":2,"femaleToilets":2,"disabled":false,"diaperTable":false,"emergencyBell":false,"cctv":false,"source":"public","category":"public"},{"id":"202557900000102543","name":"해룡우체국 화장실","lat":34.914627,"lng":127.537755,"roadAddr":"전남광주통합특별시 순천시 해룡면 월전길 31, 해룡우체국","jibunAddr":"전남광주통합특별시 순천시 해룡면 월전리 76-6 해룡우체국","openHours":"09:00~18:00 (12:00~13:00 제외)","maleToilets":2,"femaleToilets":1,"disabled":false,"diaperTable":false,"emergencyBell":false,"cctv":false,"managerTel":"0617244151","source":"public","category":"public"},{"id":"202557900000102344","name":"순천시립해룡농어촌도서관 화장실","lat":34.91376,"lng":127.536651,"roadAddr":"전남광주통합특별시 순천시 해룡면 해룡로 1120, 해룡 종합복지센터도서관","jibunAddr":"전남광주통합특별시 순천시 해룡면 월전리 401 해룡 종합복지센터도서관","openHours":"09:00~18:00","maleToilets":6,"femaleToilets":4,"disabled":false,"diaperTable":true,"emergencyBell":false,"cctv":false,"managerTel":"0617494374","source":"public","category":"public"},{"id":"202557900000102345","name":"순천시립신대도서관 화장실","lat":34.930736,"lng":127.54586,"roadAddr":"전남광주통합특별시 순천시 해룡면 좌야로 71","jibunAddr":"전남광주통합특별시 순천시 해룡면 신대리 2040-5","openHours":"09:00~21:00","maleToilets":18,"femaleToilets":22,"disabled":true,"diaperTable":true,"emergencyBell":true,"cctv":true,"managerTel":"0617498650","source":"public","category":"public"},{"id":"202557900000102522","name":"신대셀프세차장","lat":34.927327,"lng":127.552349,"roadAddr":"전남광주통합특별시 순천시 해룡면 매안1길 1","jibunAddr":"전남광주통합특별시 순천시 해룡면 신대리 2036","openHours":"상시","maleToilets":2,"femaleToilets":1,"disabled":false,"diaperTable":false,"emergencyBell":false,"cctv":false,"managerTel":"0617496514","source":"public","category":"public"},{"id":"202557900000102523","name":"연경","lat":34.930169,"lng":127.553577,"roadAddr":"전남광주통합특별시 순천시 해룡면 매안4길 3-2","jibunAddr":"전남광주통합특별시 순천시 해룡면 신대리 2015-6","openHours":"10:00~20:30","maleToilets":3,"femaleToilets":2,"disabled":false,"diaperTable":false,"emergencyBell":false,"cctv":false,"managerTel":"0617496514","source":"public","category":"public"},{"id":"202557900000102524","name":"순천만 민물장어","lat":34.934741,"lng":127.553804,"roadAddr":"전남광주통합특별시 순천시 해룡면 매안로 107","jibunAddr":"전남광주통합특별시 순천시 해룡면 신대리 1991-1","openHours":"09:00~21:00","maleToilets":2,"femaleToilets":1,"disabled":false,"diaperTable":false,"emergencyBell":false,"cctv":false,"managerTel":"0617496514","source":"public","category":"public"},{"id":"202557900000102293","name":"순천시 농산물도매시장(도매시장 관리소 앞) 화장실","lat":34.916693,"lng":127.535537,"roadAddr":"전남광주통합특별시 순천시 해룡면 해광로 1 (농산물도매시장)","jibunAddr":"전남광주통합특별시 순천시 해룡면 성산리 180-1","openHours":"상시","maleToilets":6,"femaleToilets":3,"disabled":false,"diaperTable":false,"emergencyBell":true,"cctv":false,"managerTel":"0617498811","source":"public","category":"public"},{"id":"202557900000102306","name":"정유재란역사학습장","lat":34.913381,"lng":127.572953,"roadAddr":"전남광주통합특별시 순천시 쟁골길 2","jibunAddr":"전남광주통합특별시 순천시 신성리 482","openHours":"(화~일)09:00~17:00","maleToilets":2,"femaleToilets":2,"disabled":true,"diaperTable":false,"emergencyBell":false,"cctv":false,"managerTel":"0617494465","source":"public","category":"public"},{"id":"202557900000102502","name":"메가박스 1층화장실","lat":34.926086,"lng":127.552403,"roadAddr":"전남광주통합특별시 순천시 해룡면 해광로 199","jibunAddr":"전남광주통합특별시 순천시 해룡면 신대리 2139","openHours":"07:00~21:00","maleToilets":3,"femaleToilets":4,"disabled":false,"diaperTable":false,"emergencyBell":false,"cctv":false,"source":"public","category":"public"},{"id":"202557900000102247","name":"해룡면사무소 화장실","lat":34.913631,"lng":127.537698,"roadAddr":"전남광주통합특별시 순천시 해룡면 해룡로 1128-10, 해룡면행정복지센터","jibunAddr":"전남광주통합특별시 순천시 해룡면 월전리 82-1 해룡면행정복지센터","openHours":"09:00~18:00","maleToilets":17,"femaleToilets":16,"disabled":true,"diaperTable":false,"emergencyBell":false,"cctv":false,"managerTel":"0617498199","source":"public","category":"public"},{"id":"202557900000102283","name":"농산물도매시장(남도청과 채소경매장 옆) 화장실","lat":34.916693,"lng":127.535537,"roadAddr":"전남광주통합특별시 순천시 해룡면 해광로 1 (농산물도매시장)","jibunAddr":"전남광주통합특별시 순천시 해룡면 월전리 9-1","openHours":"상시","maleToilets":6,"femaleToilets":2,"disabled":false,"diaperTable":false,"emergencyBell":true,"cctv":false,"managerTel":"0617498811","source":"public","category":"public"},{"id":"202557900000102284","name":"농산물도매시장(도매시장 후문 옆) 화장실","lat":34.916693,"lng":127.535537,"roadAddr":"전남광주통합특별시 순천시 해룡면 해광로 1 (농산물도매시장)","jibunAddr":"전남광주통합특별시 순천시 해룡면 월전리 9-1","openHours":"상시","maleToilets":4,"femaleToilets":2,"disabled":false,"diaperTable":false,"emergencyBell":true,"cctv":false,"managerTel":"0617498811","source":"public","category":"public"},{"id":"202557900000102285","name":"농산물도매시장(관련상품동 정문 입구) 화장실","lat":34.916693,"lng":127.535537,"roadAddr":"전남광주통합특별시 순천시 해룡면 해광로 1 (농산물도매시장)","jibunAddr":"전남광주통합특별시 순천시 해룡면 월전리 9-1","openHours":"상시","maleToilets":5,"femaleToilets":3,"disabled":true,"diaperTable":false,"emergencyBell":true,"cctv":false,"managerTel":"0617498811","source":"public","category":"public"},{"id":"202557900000102286","name":"농산물도매시장(원예농협 365ATM 앞) 화장실","lat":34.916693,"lng":127.535537,"roadAddr":"전남광주통합특별시 순천시 해룡면 해광로 1 (농산물도매시장)","jibunAddr":"전남광주통합특별시 순천시 해룡면 월전리 9-1","openHours":"상시","maleToilets":6,"femaleToilets":3,"disabled":true,"diaperTable":false,"emergencyBell":true,"cctv":true,"managerTel":"0617498811","source":"public","category":"public"},{"id":"202557900000102287","name":"농산물도매시장(원예농협 사무실 앞) 화장실","lat":34.916693,"lng":127.535537,"roadAddr":"전남광주통합특별시 순천시 해룡면 해광로 1 (농산물도매시장)","jibunAddr":"전남광주통합특별시 순천시 해룡면 월전리 9-1","openHours":"상시","maleToilets":6,"femaleToilets":3,"disabled":false,"diaperTable":false,"emergencyBell":true,"cctv":false,"managerTel":"0617498811","source":"public","category":"public"},{"id":"202557900000102288","name":"농산물도매시장(남일청과 사무실 앞) 화장실","lat":34.916693,"lng":127.535537,"roadAddr":"전남광주통합특별시 순천시 해룡면 해광로 1 (농산물도매시장)","jibunAddr":"전남광주통합특별시 순천시 해룡면 월전리 9-1","openHours":"상시","maleToilets":6,"femaleToilets":3,"disabled":false,"diaperTable":false,"emergencyBell":true,"cctv":false,"managerTel":"0617498811","source":"public","category":"public"},{"id":"202557900000102289","name":"농산물도매시장(원예농협 하역반 사N실 옆) 화장실","lat":34.916693,"lng":127.535537,"roadAddr":"전남광주통합특별시 순천시 해룡면 해광로 1 (농산물도매시장)","jibunAddr":"전남광주통합특별시 순천시 해룡면 월전리 9-1","openHours":"상시","maleToilets":6,"femaleToilets":3,"disabled":true,"diaperTable":false,"emergencyBell":true,"cctv":false,"managerTel":"0617498811","source":"public","category":"public"},{"id":"202557900000102290","name":"농산물도매시장(남도청과 사무실 앞) 화장실","lat":34.916693,"lng":127.535537,"roadAddr":"전남광주통합특별시 순천시 해룡면 해광로 1 (농산물도매시장)","jibunAddr":"전남광주통합특별시 순천시 해룡면 성산리 180-1","openHours":"상시","maleToilets":6,"femaleToilets":3,"disabled":false,"diaperTable":false,"emergencyBell":true,"cctv":true,"managerTel":"0617498811","source":"public","category":"public"},{"id":"202557900000102291","name":"농산물도매시장(남도청과 하역반 대기실 옆) 화장실","lat":34.916693,"lng":127.535537,"roadAddr":"전남광주통합특별시 순천시 해룡면 해광로 1 (농산물도매시장)","jibunAddr":"전남광주통합특별시 순천시 해룡면 성산리 180-1","openHours":"상시","maleToilets":6,"femaleToilets":3,"disabled":true,"diaperTable":false,"emergencyBell":true,"cctv":false,"managerTel":"0617498811","source":"public","category":"public"},{"id":"202557900000102292","name":"농산물도매시장(남도청과 경매장 출입구 옆) 화장실","lat":34.916693,"lng":127.535537,"roadAddr":"전남광주통합특별시 순천시 해룡면 해광로 1 (농산물도매시장)","jibunAddr":"전남광주통합특별시 순천시 해룡면 성산리 180-1","openHours":"상시","maleToilets":6,"femaleToilets":3,"disabled":true,"diaperTable":false,"emergencyBell":true,"cctv":false,"managerTel":"0617498811","source":"public","category":"public"},{"id":"202557900000102490","name":"모다 아울렛(순천만프라자) 1층","lat":34.925572,"lng":127.54443,"roadAddr":"전남광주통합특별시 순천시 해룡면 상성길 70, 순천만플라자 모다아울렛","jibunAddr":"전남광주통합특별시 순천시 해룡면 남가리 99 순천만플라자 모다아울렛","openHours":"07:00~21:00","maleToilets":3,"femaleToilets":4,"disabled":false,"diaperTable":false,"emergencyBell":false,"cctv":false,"source":"public","category":"public"},{"id":"202557900000102457","name":"신대생태회랑2","lat":34.92933,"lng":127.545848,"roadAddr":"전남광주통합특별시 순천시 해룡면 신대리 2040","jibunAddr":"전남광주통합특별시 순천시 해룡면 신대리 2128","openHours":"상시","maleToilets":1,"femaleToilets":0,"disabled":true,"diaperTable":false,"emergencyBell":true,"cctv":false,"managerTel":"0617496334","source":"public","category":"public"},{"id":"202557900000102439","name":"중앙공원","lat":34.931459,"lng":127.551843,"roadAddr":"전남광주통합특별시 순천시 해룡면 신대리 2090","openHours":"상시","maleToilets":0,"femaleToilets":0,"disabled":true,"diaperTable":true,"emergencyBell":true,"cctv":true,"managerTel":"0617496334","source":"public","category":"public"},{"id":"202557900000102440","name":"옥녀봉공원","lat":34.925155,"lng":127.549349,"roadAddr":"전남광주통합특별시 순천시 해룡면 신대리 2161","openHours":"상시","maleToilets":1,"femaleToilets":0,"disabled":true,"diaperTable":false,"emergencyBell":true,"cctv":false,"managerTel":"0617496334","source":"public","category":"public"},{"id":"202557900000102441","name":"신대생태회랑","lat":34.936304,"lng":127.55193,"roadAddr":"전남광주통합특별시 순천시 해룡면 신대리 2070","openHours":"상시","maleToilets":1,"femaleToilets":0,"disabled":true,"diaperTable":false,"emergencyBell":true,"cctv":false,"managerTel":"0617496333","source":"public","category":"public"},{"id":"202557900000102449","name":"기적의놀이터2호","lat":34.935159,"lng":127.548869,"roadAddr":"전남광주통합특별시 순천시 해룡면 신대리 2068-1","openHours":"상시","maleToilets":1,"femaleToilets":0,"disabled":true,"diaperTable":true,"emergencyBell":true,"cctv":false,"managerTel":"0617496334","source":"public","category":"public"}]