[{"id":"202557900000102589","name":"해바라기주유소 화장실","lat":34.846157,"lng":127.37973,"roadAddr":"전남광주통합특별시 순천시 별량면 녹색로 1(별량면)","openHours":"정시","maleToilets":4,"femaleToilets":2,"disabled":false,"diaperTable":false,"emergencyBell":false,"cctv":false,"managerTel":"0617456332","source":"public","category":"public"},{"id":"202557900000102590","name":"금치충전소 화장실","lat":34.843538,"lng":127.391196,"roadAddr":"전남광주통합특별시 순천시 별량면 녹색로 118(별량면)","openHours":"정시","maleToilets":2,"femaleToilets":1,"disabled":false,"diaperTable":false,"emergencyBell":false,"cctv":false,"managerTel":"0617429123","source":"public","category":"public"},{"id":"202557900000102568","name":"산하LPG충전소 화장실","lat":34.844413,"lng":127.385095,"roadAddr":"전남광주통합특별시 순천시 별량면 녹색로 63(별량면)","openHours":"정시","maleToilets":3,"femaleToilets":2,"disabled":false,"diaperTable":false,"emergencyBell":false,"cctv":false,"managerTel":"0617422600","source":"public","category":"public"},{"id":"202458500000101412","name":"벌교스포츠센터화장실","lat":34.839681,"lng":127.361738,"roadAddr":"전남광주통합특별시 보성군 벌교읍 신정길 4-129","jibunAddr":"전남광주통합특별시 보성군 벌교읍 장양리 1485","openHours":"정시","maleToilets":11,"femaleToilets":8,"disabled":true,"diaperTable":false,"emergencyBell":false,"cctv":false,"managerTel":"0618586033","source":"public","category":"public"},{"id":"202458500000101381","name":"미르주유소","lat":34.843262,"lng":127.361773,"roadAddr":"전남광주통합특별시 보성군 벌교읍 녹색로 5709","jibunAddr":"전남광주통합특별시 보성군 벌교읍 장양리 742 번지1 호","openHours":"정시","maleToilets":4,"femaleToilets":2,"disabled":false,"diaperTable":false,"emergencyBell":false,"cctv":false,"source":"public","category":"public"},{"id":"202458500000100990","name":"태백산맥문학관주차장","lat":34.847736,"lng":127.360469,"roadAddr":"전남광주통합특별시 보성군 벌교읍 홍암로","jibunAddr":"전남광주통합특별시 보성군 벌교읍 회정리 364-6","openHours":"상시","maleToilets":2,"femaleToilets":1,"disabled":false,"diaperTable":false,"emergencyBell":true,"cctv":false,"managerTel":"0618505332","source":"public","category":"public"},{"id":"202458500000100991","name":"벌교생태공원","lat":34.837838,"lng":127.360728,"roadAddr":"전남광주통합특별시 보성군 벌교읍 신정길 4-131","jibunAddr":"전남광주통합특별시 보성군 벌교읍 장양리 1434-3","openHours":"상시","maleToilets":4,"femaleToilets":3,"disabled":false,"diaperTable":false,"emergencyBell":true,"cctv":false,"managerTel":"0618505332","source":"public","category":"public"},{"id":"202458500000100992","name":"중도방죽","lat":34.840069,"lng":127.356018,"roadAddr":"전남광주통합특별시 보성군 벌교읍 신정길 4-89","openHours":"상시","maleToilets":3,"femaleToilets":2,"disabled":false,"diaperTable":false,"emergencyBell":true,"cctv":false,"managerTel":"0618505332","source":"public","category":"public"}]