[{"id":"202557900000102548","name":"순천외서우편취급국 화장실","lat":34.915702,"lng":127.274278,"roadAddr":"전남광주통합특별시 순천시 외서면 반월로 2, 순천외서우체국","jibunAddr":"전남광주통합특별시 순천시 외서면 월암리 165-7 순천외서우체국","openHours":"정시","maleToilets":2,"femaleToilets":1,"disabled":false,"diaperTable":false,"emergencyBell":false,"cctv":false,"managerTel":"0617550160","source":"public","category":"public"},{"id":"202557900000102307","name":"월평유적방문자센터","lat":34.9172,"lng":127.272972,"roadAddr":"전남광주통합특별시 순천시 외서면 외서월평안길 10","jibunAddr":"전남광주통합특별시 외서면 월암리 203-15","openHours":"정시","maleToilets":2,"femaleToilets":0,"disabled":false,"diaperTable":false,"emergencyBell":false,"cctv":false,"managerTel":"0617493809","source":"public","category":"public"},{"id":"202557900000102246","name":"외서면 주민자치위원회","lat":34.915307,"lng":127.273753,"roadAddr":"전남광주통합특별시 순천시 외서면 쌍향수길 471","jibunAddr":"전남광주통합특별시 순천시 외서면 월암리 164-3","openHours":"정시","maleToilets":2,"femaleToilets":2,"disabled":false,"diaperTable":false,"emergencyBell":false,"cctv":false,"managerTel":"0617498210","source":"public","category":"public"},{"id":"202557900000102245","name":"외서면사무소","lat":34.913774,"lng":127.277392,"roadAddr":"전남광주통합특별시 순천시 외서면 쌍향수길 440, 외서면사무소, 보건지소, 의용소방대","jibunAddr":"전남광주통합특별시 순천시 외서면 화전리 320-4 외서면사무소, 보건지소, 의용소방대","openHours":"정시","maleToilets":2,"femaleToilets":0,"disabled":false,"diaperTable":false,"emergencyBell":false,"cctv":false,"managerTel":"0617498210","source":"public","category":"public"},{"id":"202458500000101396","name":"석거리 주유소","lat":34.897317,"lng":127.283997,"roadAddr":"전남광주통합특별시 보성군 벌교읍 쌍향수길 229","jibunAddr":"전남광주통합특별시 보성군 벌교읍 추동리 1061 번지1 호","openHours":"정시","maleToilets":3,"femaleToilets":1,"disabled":false,"diaperTable":false,"emergencyBell":false,"cctv":false,"managerTel":"0618574550","source":"public","category":"public"}]