[{"id":"202558000000100003","name":"부암마을주차장","lat":35.068156,"lng":127.562916,"jibunAddr":"전남광주통합특별시 광양시 봉강면 조령리 524","openHours":"상시","maleToilets":1,"femaleToilets":1,"disabled":true,"diaperTable":false,"emergencyBell":true,"cctv":false,"managerTel":"0617972998","source":"public","category":"public"},{"id":"202458000000100471","name":"개룡마을 입구(주차장)","lat":35.042043,"lng":127.566863,"roadAddr":"전남광주통합특별시 광양시 성불로 707","jibunAddr":"전남광주통합특별시 광양시 구서리 552-1","openHours":"상시","maleToilets":2,"femaleToilets":4,"disabled":true,"diaperTable":false,"emergencyBell":false,"cctv":false,"managerTel":"0617972998","source":"public","category":"public"},{"id":"202458000000100472","name":"개룡회관 옆","lat":35.044585,"lng":127.562804,"roadAddr":"전남광주통합특별시 광양시 개룡길 40","jibunAddr":"전남광주통합특별시 광양시 신룡리 42","openHours":"상시","maleToilets":3,"femaleToilets":2,"disabled":false,"diaperTable":false,"emergencyBell":false,"cctv":false,"managerTel":"0617972998","source":"public","category":"public"},{"id":"202458000000100473","name":"부암마을앞","lat":35.062145,"lng":127.56378,"roadAddr":"전남광주통합특별시 광양시 성불로 939","jibunAddr":"전남광주통합특별시 광양시 조령리 898-5","openHours":"상시","maleToilets":3,"femaleToilets":1,"disabled":false,"diaperTable":true,"emergencyBell":false,"cctv":false,"managerTel":"0617972998","source":"public","category":"public"},{"id":"202458000000100470","name":"마시마을입구","lat":35.036542,"lng":127.570295,"roadAddr":"전남광주통합특별시 광양시 성불로 637","jibunAddr":"전남광주통합특별시 광양시 구서리 556","openHours":"상시","maleToilets":3,"femaleToilets":4,"disabled":true,"diaperTable":false,"emergencyBell":false,"cctv":false,"managerTel":"0617972998","source":"public","category":"public"}]