[{"id":"202454300000100072","name":"설천면 월곡","lat":34.928814,"lng":127.860127,"roadAddr":"경상남도 남해군 설천면 남해대로4033번길 46-3","jibunAddr":"경상남도 남해군 설천면 덕신리 1701-2","openHours":"상시","maleToilets":4,"femaleToilets":4,"disabled":false,"diaperTable":false,"emergencyBell":false,"cctv":false,"managerTel":"0558608655","source":"public","category":"public"},{"id":"202454300000100052","name":"순국공원2","lat":34.915504,"lng":127.858014,"roadAddr":"경상남도 남해군 고현면 남해대로 3843","jibunAddr":"경상남도 남해군 고현면 차면리 688-2","openHours":"상시","maleToilets":8,"femaleToilets":13,"disabled":true,"diaperTable":true,"emergencyBell":false,"cctv":false,"managerTel":"0558608654","source":"public","category":"public"},{"id":"202454300000100126","name":"이락사","lat":34.912475,"lng":127.857739,"roadAddr":"경상남도 남해군 고현면 남해대로 3829","jibunAddr":"경상남도 남해군 고현면 차면리 107","openHours":"상시","maleToilets":8,"femaleToilets":9,"disabled":true,"diaperTable":true,"emergencyBell":true,"cctv":true,"managerTel":"0558603280","source":"public","category":"public"},{"id":"202454300000100125","name":"고현면 도심지","lat":34.89578,"lng":127.873314,"roadAddr":"경상남도 남해군 고현면 탑동로 51","jibunAddr":"경상남도 남해군 고현면 대사리 663","openHours":"상시","maleToilets":3,"femaleToilets":3,"disabled":true,"diaperTable":true,"emergencyBell":false,"cctv":false,"managerTel":"0558603280","source":"public","category":"public"},{"id":"202454300000100071","name":"노량나루터 공원","lat":34.935362,"lng":127.876339,"roadAddr":"경상남도 남해군 설천면 노량로 268","jibunAddr":"경상남도 남해군 설천면 노량리 203-2","openHours":"상시","maleToilets":8,"femaleToilets":4,"disabled":true,"diaperTable":false,"emergencyBell":false,"cctv":false,"managerTel":"0558603280","source":"public","category":"public"},{"id":"202654300000100002","name":"목공체험스튜디오","lat":34.89707,"lng":127.872361,"roadAddr":"경상남도 남해군 고현면 탑동로 65-2","jibunAddr":"경상남도 남해군 고현면 대사리 900-5","openHours":"상시","maleToilets":4,"femaleToilets":10,"disabled":true,"diaperTable":false,"emergencyBell":false,"cctv":false,"source":"public","category":"public"},{"id":"202454300000100053","name":"순국공원1","lat":34.911447,"lng":127.858163,"roadAddr":"경상남도 남해군 고현면 남해대로 3807","jibunAddr":"경상남도 남해군 고현면 차면리 104-7","openHours":"상시","maleToilets":5,"femaleToilets":6,"disabled":true,"diaperTable":false,"emergencyBell":false,"cctv":false,"managerTel":"0558608654","source":"public","category":"public"}]