[{"id":"202454300000100108","name":"터미널 1","lat":34.841602,"lng":127.898525,"roadAddr":"경상남도 남해군 남해읍 남해대로 2835","jibunAddr":"경상남도 남해읍 북변리 313-3","openHours":"상시","maleToilets":5,"femaleToilets":3,"disabled":false,"diaperTable":false,"emergencyBell":false,"cctv":false,"managerTel":"0558603456","source":"public","category":"public"},{"id":"202454300000100103","name":"봉황산나래숲","lat":34.841477,"lng":127.890451,"roadAddr":"경상남도 남해군 남해읍 망운로10번가길 20-34","jibunAddr":"경상남도 남해군 남해읍 아산리 산248-2","openHours":"상시","maleToilets":4,"femaleToilets":4,"disabled":false,"diaperTable":false,"emergencyBell":true,"cctv":true,"managerTel":"0558603655","source":"public","category":"public"},{"id":"202454300000100101","name":"읍시장1","lat":34.840147,"lng":127.894484,"roadAddr":"경상남도 남해군 남해읍 화전로 110","jibunAddr":"경상남도 남해읍 북변리 282-11","openHours":"상시","maleToilets":5,"femaleToilets":6,"disabled":true,"diaperTable":false,"emergencyBell":true,"cctv":true,"managerTel":"0558603194","source":"public","category":"public"},{"id":"202454300000100099","name":"읍도심지","lat":34.838542,"lng":127.893709,"roadAddr":"경상남도 남해군 남해읍 화전로 81","jibunAddr":"경상남도 남해읍 북변리 157","openHours":"상시","maleToilets":12,"femaleToilets":7,"disabled":true,"diaperTable":true,"emergencyBell":true,"cctv":true,"managerTel":"0558603280","source":"public","category":"public"},{"id":"202454300000100098","name":"남해실내체육관","lat":34.833702,"lng":127.893271,"roadAddr":"경상남도 남해군 남해읍 화전로43번길 16","jibunAddr":"경상남도 남해읍 서변리 204","openHours":"상시","maleToilets":11,"femaleToilets":8,"disabled":false,"diaperTable":true,"emergencyBell":false,"cctv":true,"managerTel":"0558608664","source":"public","category":"public"},{"id":"202454300000100106","name":"남산공원(어울마당)","lat":34.832917,"lng":127.887818,"roadAddr":"경상남도 남해군 남해읍 망운로61번길 57","jibunAddr":"경상남도 남해읍 서변리 247","openHours":"상시","maleToilets":6,"femaleToilets":5,"disabled":true,"diaperTable":false,"emergencyBell":false,"cctv":false,"managerTel":"0558603655","source":"public","category":"public"},{"id":"202454300000100107","name":"터미널 2","lat":34.841602,"lng":127.898525,"roadAddr":"경상남도 남해군 남해읍 남해대로 2835","jibunAddr":"경상남도 남해읍 북변리 316-3","openHours":"상시","maleToilets":10,"femaleToilets":5,"disabled":false,"diaperTable":false,"emergencyBell":true,"cctv":true,"managerTel":"0558603456","source":"public","category":"public"},{"id":"202454300000100062","name":"남산공원(회차장)","lat":34.832904,"lng":127.889274,"roadAddr":"경상남도 남해군 남해읍 망운로61번길 61-21","jibunAddr":"경상남도 남해군 남해읍 평리 산 15-1","openHours":"상시","maleToilets":5,"femaleToilets":4,"disabled":false,"diaperTable":true,"emergencyBell":false,"cctv":true,"managerTel":"0558603655","source":"public","category":"public"},{"id":"202454300000100023","name":"공설운동장 서편화장실","lat":34.834254,"lng":127.891661,"roadAddr":"경상남도 남해군 남해읍 망운로9번길 42-17","jibunAddr":"경상남도 남해군 남해읍 서변리 212","openHours":"상시","maleToilets":5,"femaleToilets":3,"disabled":false,"diaperTable":false,"emergencyBell":false,"cctv":false,"managerTel":"0888608685","source":"public","category":"public"},{"id":"202454300000100100","name":"읍시장2","lat":34.841234,"lng":127.894044,"roadAddr":"경상남도 남해군 남해읍 화전로 112","jibunAddr":"경상남도 남해읍 북변리 298-7","openHours":"상시","maleToilets":3,"femaleToilets":1,"disabled":true,"diaperTable":false,"emergencyBell":true,"cctv":true,"managerTel":"0558603194","source":"public","category":"public"},{"id":"202454300000100024","name":"유배문학관 야외(구운몽호)","lat":34.83196,"lng":127.899186,"roadAddr":"경상남도 남해군 남해읍 남해대로 2745","jibunAddr":"경상남도 남해군 남해읍 남변리 555","openHours":"상시","maleToilets":9,"femaleToilets":11,"disabled":true,"diaperTable":true,"emergencyBell":false,"cctv":true,"managerTel":"0558608888","source":"public","category":"public"},{"id":"202454300000100104","name":"공설운동장 동편화장실","lat":34.834254,"lng":127.891661,"roadAddr":"경상남도 남해군 남해읍 망운로9번길 42-17","jibunAddr":"경상남도 남해읍 망운로 9번길 42-17","openHours":"상시","maleToilets":14,"femaleToilets":5,"disabled":true,"diaperTable":false,"emergencyBell":true,"cctv":false,"managerTel":"0558608685","source":"public","category":"public"},{"id":"202454300000100022","name":"공설운동장 정문화장실","lat":34.834254,"lng":127.891661,"roadAddr":"경상남도 남해군 남해읍 망운로9번길 42-17","jibunAddr":"경상남도 남해군 남해읍 서변리 212","openHours":"상시","maleToilets":5,"femaleToilets":2,"disabled":true,"diaperTable":false,"emergencyBell":false,"cctv":false,"managerTel":"0558608685","source":"public","category":"public"},{"id":"202454300000100109","name":"남해읍 토촌","lat":34.837872,"lng":127.921218,"roadAddr":"경상남도 남해군 남해읍 강진만로 99-27","jibunAddr":"경상남도 남해읍 입현리 산121","openHours":"상시","maleToilets":4,"femaleToilets":2,"disabled":true,"diaperTable":false,"emergencyBell":false,"cctv":false,"managerTel":"0558608006","source":"public","category":"public"},{"id":"202454300000100105","name":"남산공원 (아이나라)","lat":34.834335,"lng":127.890462,"roadAddr":"경상남도 남해군 남해읍 망운로9번길 42-69","jibunAddr":"경상남도 남해읍 서변리 42-69","openHours":"상시","maleToilets":11,"femaleToilets":5,"disabled":true,"diaperTable":false,"emergencyBell":false,"cctv":true,"managerTel":"0558603655","source":"public","category":"public"},{"id":"202454300000100097","name":"남산공원(충혼탑)","lat":34.832928,"lng":127.893951,"roadAddr":"경상남도 남해군 남해읍 화전로43번길 20-5","jibunAddr":"경상남도 남해군 남해읍 서변리 산1-1","openHours":"상시","maleToilets":4,"femaleToilets":2,"disabled":false,"diaperTable":false,"emergencyBell":true,"cctv":true,"managerTel":"0558603804","source":"public","category":"public"}]