[{"id":"202454300000100036","name":"비자인조구장","lat":34.809193,"lng":127.833616,"roadAddr":"경상남도 남해군 서면 남서대로1687번길 14","jibunAddr":"경상남도 남해군 서면 서상리 1182-8","openHours":"상시","maleToilets":6,"femaleToilets":4,"disabled":true,"diaperTable":false,"emergencyBell":false,"cctv":false,"managerTel":"0558608685","source":"public","category":"public"},{"id":"202454300000100033","name":"나비화장실","lat":34.807045,"lng":127.835919,"roadAddr":"경상남도 남해군 서면 스포츠파크길 36","jibunAddr":"경상남도 남해군 서면 서상리 1182-8","openHours":"상시","maleToilets":11,"femaleToilets":4,"disabled":true,"diaperTable":true,"emergencyBell":false,"cctv":false,"managerTel":"0558603280","source":"public","category":"public"},{"id":"202454300000100034","name":"그라운드 골프장","lat":34.811495,"lng":127.834061,"roadAddr":"경상남도 남해군 서면 남서대로1687번길 2","jibunAddr":"경상남도 남해군 서면 서상리 1182-8","openHours":"상시","maleToilets":3,"femaleToilets":2,"disabled":false,"diaperTable":false,"emergencyBell":false,"cctv":false,"managerTel":"0558608665","source":"public","category":"public"},{"id":"202454300000100012","name":"야구장2","lat":34.80515,"lng":127.833282,"roadAddr":"경상남도 남해군 서면 스포츠파크길74","jibunAddr":"경상남도 남해군 서면 서상리 1182-1","openHours":"상시","maleToilets":15,"femaleToilets":4,"disabled":true,"diaperTable":false,"emergencyBell":false,"cctv":false,"managerTel":"0558608685","source":"public","category":"public"},{"id":"202454300000100039","name":"주경기장2","lat":34.80515,"lng":127.833282,"roadAddr":"경상남도 남해군 서면 스포츠파크길 74","jibunAddr":"경상남도 남해군 서면 서상리 1182-1","openHours":"상시","maleToilets":7,"femaleToilets":8,"disabled":true,"diaperTable":false,"emergencyBell":false,"cctv":false,"managerTel":"0558608685","source":"public","category":"public"},{"id":"202454300000100008","name":"주경기장3","lat":34.80515,"lng":127.833282,"roadAddr":"경상남도 남해군 서면 스포츠 파크길 74","jibunAddr":"경상남도 남해군 서면 서상리 1182-1","openHours":"상시","maleToilets":12,"femaleToilets":6,"disabled":true,"diaperTable":true,"emergencyBell":false,"cctv":false,"managerTel":"0558608685","source":"public","category":"public"},{"id":"202454300000100038","name":"스포츠파크 해안도로","lat":34.80515,"lng":127.833282,"roadAddr":"경상남도 남해군 서면 스포츠파크길 74","jibunAddr":"경상남도 남해군 서면 서상리 1182-1","openHours":"상시","maleToilets":5,"femaleToilets":3,"disabled":false,"diaperTable":false,"emergencyBell":false,"cctv":false,"managerTel":"0558608685","source":"public","category":"public"},{"id":"202454300000100035","name":"야구장1","lat":34.80515,"lng":127.833282,"roadAddr":"경상남도 남해군 서면 스포츠파크길 74","jibunAddr":"경상남도 남해군 서면 서상리 1182-8","openHours":"상시","maleToilets":15,"femaleToilets":4,"disabled":true,"diaperTable":false,"emergencyBell":false,"cctv":false,"managerTel":"0558608685","source":"public","category":"public"},{"id":"202454300000100032","name":"주경기장1","lat":34.80515,"lng":127.833282,"roadAddr":"경상남도 남해군 서면 스포츠파크길 74","jibunAddr":"경상남도 남해군 서면 서상리 1182-8","openHours":"상시","maleToilets":7,"femaleToilets":7,"disabled":true,"diaperTable":false,"emergencyBell":false,"cctv":false,"managerTel":"0558608665","source":"public","category":"public"},{"id":"202454300000100013","name":"주경기장4","lat":34.80515,"lng":127.833282,"roadAddr":"경상남도 남해군 서면 스포츠파크길 74","jibunAddr":"경상남도 남해군 서면 서상리 1182-1","openHours":"상시","maleToilets":13,"femaleToilets":7,"disabled":true,"diaperTable":false,"emergencyBell":false,"cctv":false,"managerTel":"0558608685","source":"public","category":"public"},{"id":"202454300000100037","name":"스포츠파크","lat":34.80515,"lng":127.833282,"roadAddr":"경상남도 남해군 서면 스포츠파크길 74","jibunAddr":"경상남도 남해군 서면 서상리 1182-1","openHours":"상시","maleToilets":4,"femaleToilets":2,"disabled":false,"diaperTable":false,"emergencyBell":false,"cctv":false,"managerTel":"0558608685","source":"public","category":"public"},{"id":"202454300000100031","name":"여객선터미널","lat":34.809056,"lng":127.833828,"roadAddr":"경상남도 남해군 서면 남서대로 1687번길 28-12","jibunAddr":"경상남도 남해군 서면 서상리 1316-5","openHours":"상시","maleToilets":5,"femaleToilets":3,"disabled":true,"diaperTable":false,"emergencyBell":false,"cctv":false,"managerTel":"0558608665","source":"public","category":"public"}]