[{"id":"202658000000100030","name":"광양광영도서관 화장실","lat":34.962159,"lng":127.720751,"roadAddr":"전남광주통합특별시 광양시 광영로 74 (광영동)","jibunAddr":"전남광주통합특별시 광양시 광영동 789-3","openHours":"09:00-18:00","maleToilets":8,"femaleToilets":8,"disabled":true,"diaperTable":false,"emergencyBell":false,"cctv":true,"managerTel":"0617973768","source":"public","category":"public"},{"id":"202658000000100032","name":"전라남도교육청광양평생교육관 화장실","lat":34.961663,"lng":127.717337,"roadAddr":"전남광주통합특별시 광양시 안산길 23, 전라남도광양평생교육관 (광영동)","jibunAddr":"전남광주통합특별시 광양시 광영동 487-1 전라남도광양평생교육관","openHours":"09:00-18:00","maleToilets":30,"femaleToilets":15,"disabled":true,"diaperTable":false,"emergencyBell":true,"cctv":true,"managerTel":"0618151611","source":"public","category":"public"},{"id":"202658000000100061","name":"광영동주민센터","lat":34.962999,"lng":127.725237,"roadAddr":"전남광주통합특별시 광양시 새미골길 15 (광영동)","jibunAddr":"전남광주통합특별시 광양시 광영동 1087","openHours":"09:00-18:00","maleToilets":12,"femaleToilets":12,"disabled":true,"diaperTable":false,"emergencyBell":false,"cctv":false,"managerTel":"0617972611","source":"public","category":"public"},{"id":"202658000000100062","name":"광영스포츠콤플렉스","lat":34.963579,"lng":127.725426,"roadAddr":"전남광주통합특별시 광양시 광영의암1로 13, 광영동 스포츠콤플렉스 (광영동)","jibunAddr":"전남광주통합특별시 광양시 광영동 1088 광영동 스포츠콤플렉스","openHours":"09:00-18:00","maleToilets":3,"femaleToilets":3,"disabled":true,"diaperTable":false,"emergencyBell":false,"cctv":false,"managerTel":"0617972611","source":"public","category":"public"},{"id":"202658000000100014","name":"진월영업소","lat":34.975672,"lng":127.745,"roadAddr":"전남광주통합특별시 광양시 진월면 백운1로 523-31, 진월톨게이트사무소","jibunAddr":"전남광주통합특별시 광양시 진월면 망덕리 194-27 진월톨게이트사무소","openHours":"상시","maleToilets":4,"femaleToilets":1,"disabled":false,"diaperTable":false,"emergencyBell":false,"cctv":false,"managerTel":"0618836400","source":"public","category":"public"},{"id":"202658000000100019","name":"진월하수처리장","lat":34.960077,"lng":127.745196,"roadAddr":"전남광주통합특별시 광양시 진월면 망덕1길 33-39","jibunAddr":"전남광주통합특별시 광양시 진월면 망덕리 857-1","openHours":"09:00-18:00","maleToilets":2,"femaleToilets":1,"disabled":false,"diaperTable":false,"emergencyBell":false,"cctv":false,"managerTel":"0617973192","source":"public","category":"public"},{"id":"202658000000100020","name":"광영하수처리장","lat":34.955929,"lng":127.730731,"roadAddr":"전남광주통합특별시 광양시 강변로 116 (광영동)","jibunAddr":"전남광주통합특별시 광양시 광영동 655-6","openHours":"09:00-18:00","maleToilets":5,"femaleToilets":1,"disabled":false,"diaperTable":false,"emergencyBell":false,"cctv":false,"managerTel":"0617973597","source":"public","category":"public"},{"id":"202458000000100349","name":"광영상설시장(상)","lat":34.961448,"lng":127.72037,"roadAddr":"전남광주통합특별시 광양시 광영시장길 19 (광영동)","jibunAddr":"전남광주통합특별시 광양시 광영동 682","openHours":"09:00~18:00","maleToilets":3,"femaleToilets":1,"disabled":true,"diaperTable":false,"emergencyBell":false,"cctv":false,"managerTel":"0617972359","source":"public","category":"public"},{"id":"202458000000100350","name":"광영상설시장(하)","lat":34.961448,"lng":127.72037,"roadAddr":"전남광주통합특별시 광양시 광영시장길 19 (광영동)","jibunAddr":"전남광주통합특별시 광양시 광영동 682","openHours":"09:00~18:00","maleToilets":2,"femaleToilets":1,"disabled":true,"diaperTable":false,"emergencyBell":false,"cctv":false,"managerTel":"0617972359","source":"public","category":"public"},{"id":"202658000000100029","name":"광양금호도서관 화장실","lat":34.93858,"lng":127.722696,"roadAddr":"전남광주통합특별시 광양시 초원길 42 (금호동)","jibunAddr":"전남광주통합특별시 광양시 금호동 822","openHours":"08:00-22:00","maleToilets":5,"femaleToilets":7,"disabled":true,"diaperTable":true,"emergencyBell":true,"cctv":true,"managerTel":"0617973830","source":"public","category":"public"},{"id":"202458000000100321","name":"광영 파출소","lat":34.962127,"lng":127.719185,"roadAddr":"전남광주통합특별시 광양시 광영로 87","jibunAddr":"전남광주통합특별시 광양시 광영동","openHours":"상시","maleToilets":2,"femaleToilets":1,"disabled":true,"diaperTable":false,"emergencyBell":false,"cctv":false,"managerTel":"0617600159","source":"public","category":"public"},{"id":"202558000000100009","name":"와우1공원","lat":34.942331,"lng":127.714365,"jibunAddr":"전남광주통합특별시 광양시 마동 1590","openHours":"상시","maleToilets":0,"femaleToilets":1,"disabled":true,"diaperTable":true,"emergencyBell":true,"cctv":false,"managerTel":"0617972998","source":"public","category":"public"},{"id":"202558000000100010","name":"와우공원(무장애)","lat":34.939075,"lng":127.705992,"roadAddr":"전남광주통합특별시 광양시 눈소4길 7 (마동)","jibunAddr":"전남광주통합특별시 광양시 마동 1232","openHours":"상시","maleToilets":2,"femaleToilets":2,"disabled":true,"diaperTable":true,"emergencyBell":true,"cctv":false,"managerTel":"0617972998","source":"public","category":"public"},{"id":"202558000000100011","name":"백합공원","lat":34.94171,"lng":127.710102,"jibunAddr":"전남광주통합특별시 광양시 마동 1819","openHours":"상시","maleToilets":2,"femaleToilets":1,"disabled":false,"diaperTable":true,"emergencyBell":true,"cctv":false,"managerTel":"0617972998","source":"public","category":"public"},{"id":"202458000000100621","name":"태인동 장내마을","lat":34.944646,"lng":127.747178,"roadAddr":"전남광주통합특별시 광양시 태인길 168","jibunAddr":"전남광주통합특별시 광양시 태인동 532-4","openHours":"상시","maleToilets":3,"femaleToilets":3,"disabled":true,"diaperTable":false,"emergencyBell":true,"cctv":false,"managerTel":"0617972998","source":"public","category":"public"},{"id":"202458000000100627","name":"쌈지공원","lat":34.94426,"lng":127.742204,"roadAddr":"전남광주통합특별시 광양시 도촌안2길 58","jibunAddr":"전남광주통합특별시 광양시 태인동 1320-26","openHours":"상시","maleToilets":4,"femaleToilets":2,"disabled":false,"diaperTable":false,"emergencyBell":true,"cctv":false,"managerTel":"0617972998","source":"public","category":"public"},{"id":"202458000000100549","name":"백운아트홀 건너","lat":34.942382,"lng":127.724342,"roadAddr":"전남광주통합특별시 광양시 금호로 203","jibunAddr":"전남광주통합특별시 광양시 금호동 813-1","openHours":"상시","maleToilets":2,"femaleToilets":2,"disabled":true,"diaperTable":false,"emergencyBell":true,"cctv":false,"managerTel":"0617972998","source":"public","category":"public"},{"id":"202458000000100550","name":"금호 해안가공원","lat":34.945201,"lng":127.723915,"jibunAddr":"전남광주통합특별시 광양시 금호동 838-1","openHours":"상시","maleToilets":3,"femaleToilets":1,"disabled":false,"diaperTable":false,"emergencyBell":false,"cctv":false,"managerTel":"0617972998","source":"public","category":"public"},{"id":"202458000000100551","name":"와우호수공원","lat":34.949128,"lng":127.720592,"roadAddr":"전남광주통합특별시 광양시 백운로 1435(마동)","jibunAddr":"전남광주통합특별시 광양시 마동 12-1","openHours":"상시","maleToilets":3,"femaleToilets":2,"disabled":true,"diaperTable":true,"emergencyBell":true,"cctv":false,"managerTel":"0617972998","source":"public","category":"public"},{"id":"202458000000100552","name":"광영 도촌선착장","lat":34.950724,"lng":127.725635,"roadAddr":"전남광주통합특별시 광양시 강변로 42","jibunAddr":"전남광주통합특별시 광양시 광영동 1616-3","openHours":"상시","maleToilets":2,"femaleToilets":2,"disabled":false,"diaperTable":false,"emergencyBell":false,"cctv":false,"managerTel":"0617972998","source":"public","category":"public"},{"id":"202458000000100553","name":"광영체육공원","lat":34.962709,"lng":127.726809,"roadAddr":"전남광주통합특별시 광양시 광영의암1로 17","jibunAddr":"전남광주통합특별시 광양시 광영동 1089","openHours":"상시","maleToilets":9,"femaleToilets":3,"disabled":true,"diaperTable":true,"emergencyBell":true,"cctv":false,"managerTel":"0617972998","source":"public","category":"public"},{"id":"202458000000100554","name":"하광공원","lat":34.96073,"lng":127.721823,"roadAddr":"전남광주통합특별시 광양시 광포3길 22","jibunAddr":"전남광주통합특별시 광양시 광영동 686","openHours":"상시","maleToilets":4,"femaleToilets":2,"disabled":true,"diaperTable":true,"emergencyBell":true,"cctv":false,"managerTel":"0617972998","source":"public","category":"public"},{"id":"202458000000100555","name":"광영근린공원","lat":34.960924,"lng":127.719124,"roadAddr":"전남광주통합특별시 광양시 금영로 109","jibunAddr":"전남광주통합특별시 광양시 광영동 산 41-3","openHours":"상시","maleToilets":5,"femaleToilets":6,"disabled":true,"diaperTable":true,"emergencyBell":true,"cctv":false,"managerTel":"0617972998","source":"public","category":"public"},{"id":"202458000000100558","name":"상광공원","lat":34.964956,"lng":127.718249,"roadAddr":"전남광주통합특별시 광양시 영수공원길 30","jibunAddr":"전남광주통합특별시 광양시 광영동 773","openHours":"상시","maleToilets":3,"femaleToilets":1,"disabled":true,"diaperTable":false,"emergencyBell":true,"cctv":true,"managerTel":"0617972998","source":"public","category":"public"},{"id":"202458000000100559","name":"광영그라운드골프장","lat":34.965286,"lng":127.70886,"roadAddr":"전남광주통합특별시 광양시 광영큰골길 41","jibunAddr":"전남광주통합특별시 광양시 광영동 304","openHours":"상시","maleToilets":2,"femaleToilets":1,"disabled":true,"diaperTable":false,"emergencyBell":true,"cctv":false,"managerTel":"0617972998","source":"public","category":"public"},{"id":"202458000000100523","name":"중복도로 중주차장","lat":34.948542,"lng":127.706011,"roadAddr":"전남광주통합특별시 광양시 가야로 134(마동)","jibunAddr":"전남광주통합특별시 광양시 마동 산 68-20","openHours":"상시","maleToilets":2,"femaleToilets":2,"disabled":true,"diaperTable":false,"emergencyBell":true,"cctv":false,"managerTel":"0617972998","source":"public","category":"public"},{"id":"202458000000100524","name":"가야산 시민쉼터","lat":34.956175,"lng":127.710724,"roadAddr":"전남광주통합특별시 광양시 가야로 241","jibunAddr":"전남광주통합특별시 광양시 마동 276-7","openHours":"상시","maleToilets":3,"femaleToilets":3,"disabled":true,"diaperTable":true,"emergencyBell":true,"cctv":true,"managerTel":"0617972998","source":"public","category":"public"},{"id":"202458000000100546","name":"어버이집","lat":34.938049,"lng":127.736498,"roadAddr":"전남광주통합특별시 광양시 금섬해안길 35","jibunAddr":"전남광주통합특별시 광양시 금호동 756","openHours":"상시","maleToilets":3,"femaleToilets":2,"disabled":false,"diaperTable":false,"emergencyBell":false,"cctv":false,"managerTel":"0617972998","source":"public","category":"public"},{"id":"202458000000100547","name":"금호 조각공원","lat":34.940176,"lng":127.73234,"roadAddr":"전남광주통합특별시 광양시 폭포사랑길 99","jibunAddr":"전남광주통합특별시 광양시 금호동 716","openHours":"상시","maleToilets":2,"femaleToilets":5,"disabled":true,"diaperTable":false,"emergencyBell":true,"cctv":false,"managerTel":"0617972998","source":"public","category":"public"},{"id":"202458000000100436","name":"금호동사무소","lat":34.937701,"lng":127.723175,"roadAddr":"전남광주통합특별시 광양시 희망길 50","jibunAddr":"전남광주통합특별시 광양시 금호동 624-9","openHours":"09:00~18:00","maleToilets":1,"femaleToilets":3,"disabled":true,"diaperTable":false,"emergencyBell":false,"cctv":false,"managerTel":"0617974872","source":"public","category":"public"},{"id":"202458000000100437","name":"금호동주민자치센터","lat":34.93714,"lng":127.723098,"roadAddr":"전남광주통합특별시 광양시 희망길 42","jibunAddr":"전남광주통합특별시 광양시 금호동 624-22","openHours":"09:00~22:00","maleToilets":9,"femaleToilets":7,"disabled":true,"diaperTable":false,"emergencyBell":false,"cctv":false,"managerTel":"0617974873","source":"public","category":"public"},{"id":"202458000000100422","name":"광양제철고등학교","lat":34.946589,"lng":127.727132,"roadAddr":"전남광주통합특별시 광양시 금호동 마로니에길 61","jibunAddr":"전남광주통합특별시 광양시 금호동 678","openHours":"미개방","maleToilets":142,"femaleToilets":155,"disabled":true,"diaperTable":false,"emergencyBell":false,"cctv":true,"managerTel":"0617981213","source":"public","category":"public"},{"id":"202458000000100424","name":"광영고등학교","lat":34.961872,"lng":127.7145,"roadAddr":"전남광주통합특별시 광양시 가야로 322","jibunAddr":"전남광주통합특별시 광양시 광영동 410","openHours":"미개방","maleToilets":91,"femaleToilets":94,"disabled":true,"diaperTable":true,"emergencyBell":false,"cctv":true,"managerTel":"0617978706","source":"public","category":"public"}]