[{"id":"202454400000100634","name":"진교시외버스터미널","lat":35.029528,"lng":127.903169,"roadAddr":"경상남도 하동군 진교면 진교중앙길 14-8","jibunAddr":"경상남도 하동군 진교면 진교리 426-66","openHours":"정시","maleToilets":9,"femaleToilets":6,"disabled":false,"diaperTable":false,"emergencyBell":true,"cctv":true,"source":"public","category":"public"},{"id":"202454400000100617","name":"진교농협주유소","lat":35.028595,"lng":127.904839,"roadAddr":"경상남도 하동군  진교면 경충로 1065","jibunAddr":"경상남도 하동군 진교면 진교리 302-91","openHours":"정시","maleToilets":3,"femaleToilets":1,"disabled":false,"diaperTable":false,"emergencyBell":false,"cctv":false,"source":"public","category":"public"},{"id":"202454400000100619","name":"남해주유소","lat":35.034389,"lng":127.90392,"roadAddr":"경상남도 하동군 진교면 민다리안길 9","jibunAddr":"경상남도 하동군 진교면 진교리 482-24","openHours":"정시","maleToilets":6,"femaleToilets":3,"disabled":false,"diaperTable":false,"emergencyBell":false,"cctv":false,"source":"public","category":"public"},{"id":"202454400000100497","name":"진교면사무소","lat":35.030277,"lng":127.900721,"roadAddr":"경상남도 하동군 진교면 민다리안길 62","jibunAddr":"경상남도 하동군 진교면 진교리 338-1","openHours":"정시","maleToilets":4,"femaleToilets":2,"disabled":true,"diaperTable":false,"emergencyBell":false,"cctv":false,"source":"public","category":"public"},{"id":"202454400000100627","name":"진남제2주유소","lat":35.030588,"lng":127.904855,"roadAddr":"경상남도 하동군 진교면 경충로 1089","jibunAddr":"경상남도 하동군 진교면 진교리 2-3","openHours":"정시","maleToilets":4,"femaleToilets":1,"disabled":false,"diaperTable":false,"emergencyBell":false,"cctv":false,"source":"public","category":"public"},{"id":"202454400000100446","name":"사기마을","lat":35.037205,"lng":127.885772,"jibunAddr":"경상남도 하동군 진교면 백련리 126-1","openHours":"정시","maleToilets":4,"femaleToilets":4,"disabled":true,"diaperTable":false,"emergencyBell":true,"cctv":false,"source":"public","category":"public"},{"id":"202454400000100547","name":"정동원길","lat":35.058965,"lng":127.887517,"roadAddr":"경상남도 하동군 진교면 성평길 36","jibunAddr":"경상남도 하동군 진교면 관곡리 673-4","openHours":"정시","maleToilets":2,"femaleToilets":2,"disabled":false,"diaperTable":true,"emergencyBell":false,"cctv":false,"source":"public","category":"public"},{"id":"202454400000100447","name":"민다리 근린공원 관리동","lat":35.027971,"lng":127.900142,"roadAddr":"경상남도 하동군 진교면 진양로 36-30","jibunAddr":"경상남도 하동군 진교면 진교리 155-1","openHours":"정시","maleToilets":4,"femaleToilets":2,"disabled":true,"diaperTable":true,"emergencyBell":true,"cctv":false,"source":"public","category":"public"},{"id":"202454400000100433","name":"진교공설시장","lat":35.027174,"lng":127.903816,"roadAddr":"경상남도 하동군 진교면 선창길 24","jibunAddr":"경상남도 하동군 진교면 진교리 302-4","openHours":"정시","maleToilets":8,"femaleToilets":6,"disabled":false,"diaperTable":false,"emergencyBell":true,"cctv":true,"source":"public","category":"public"},{"id":"202454400000100589","name":"진교119안전센터","lat":35.025239,"lng":127.901308,"roadAddr":"경상남도 하동군 진교면 진양로 27","jibunAddr":"경상남도 하동군 진교면 진교리 102-9","openHours":"정시","maleToilets":8,"femaleToilets":1,"disabled":false,"diaperTable":false,"emergencyBell":false,"cctv":false,"source":"public","category":"public"}]