[{"id":"202458000000100568","name":"신황마을","lat":35.052015,"lng":127.689267,"roadAddr":"전남광주통합특별시 광양시 신황길 152-12","jibunAddr":"전남광주통합특별시 광양시 황죽리 250-49","openHours":"상시","maleToilets":2,"femaleToilets":2,"disabled":false,"diaperTable":false,"emergencyBell":false,"cctv":false,"managerTel":"0617972998","source":"public","category":"public"},{"id":"202458000000100569","name":"백학동 복지관","lat":35.049987,"lng":127.692598,"roadAddr":"전남광주통합특별시 광양시 성지로 2-1","jibunAddr":"전남광주통합특별시 광양시 황죽리 117-1","openHours":"상시","maleToilets":4,"femaleToilets":2,"disabled":false,"diaperTable":false,"emergencyBell":true,"cctv":false,"managerTel":"0617972998","source":"public","category":"public"},{"id":"202458000000100570","name":"웅동비닐바위","lat":35.03903,"lng":127.68255,"roadAddr":"전남광주통합특별시 광양시 성지로 173","jibunAddr":"전남광주통합특별시 광양시 황죽리 산 164-8","openHours":"상시","maleToilets":2,"femaleToilets":2,"disabled":false,"diaperTable":false,"emergencyBell":false,"cctv":false,"managerTel":"0617972998","source":"public","category":"public"},{"id":"202458000000100573","name":"만불사","lat":35.053002,"lng":127.689861,"roadAddr":"전남광주통합특별시 광양시 백학로 467","jibunAddr":"전남광주통합특별시 광양시 황죽리 195-1","openHours":"상시","maleToilets":4,"femaleToilets":1,"disabled":true,"diaperTable":false,"emergencyBell":true,"cctv":false,"managerTel":"0617972998","source":"public","category":"public"},{"id":"202458000000100574","name":"어치보건소 뒤","lat":35.058112,"lng":127.684703,"roadAddr":"전남광주통합특별시 광양시 백학로 533-15","jibunAddr":"전남광주통합특별시 광양시 어치리 208","openHours":"상시","maleToilets":2,"femaleToilets":2,"disabled":false,"diaperTable":false,"emergencyBell":false,"cctv":false,"managerTel":"0617972998","source":"public","category":"public"},{"id":"202458000000100575","name":"상어치 입구","lat":35.061543,"lng":127.686027,"roadAddr":"전남광주통합특별시 광양시 백학로 573","jibunAddr":"전남광주통합특별시 광양시 어치리 266-10","openHours":"상시","maleToilets":4,"femaleToilets":4,"disabled":false,"diaperTable":false,"emergencyBell":true,"cctv":false,"managerTel":"0617972998","source":"public","category":"public"},{"id":"202458000000100576","name":"어치교","lat":35.066382,"lng":127.683594,"roadAddr":"전남광주통합특별시 광양시 백학로 643","jibunAddr":"전남광주통합특별시 광양시 어치리 492-1","openHours":"상시","maleToilets":2,"femaleToilets":2,"disabled":false,"diaperTable":false,"emergencyBell":false,"cctv":false,"managerTel":"0617972998","source":"public","category":"public"}]