[{"id":"202458000000100601","name":"소학정","lat":35.090542,"lng":127.703317,"roadAddr":"전남광주통합특별시 광양시 섬진강매화로 1723-13","jibunAddr":"전남광주통합특별시 광양시 도사리 1160","openHours":"상시","maleToilets":5,"femaleToilets":4,"disabled":true,"diaperTable":false,"emergencyBell":true,"cctv":false,"managerTel":"0617972998","source":"public","category":"public"},{"id":"202458000000100603","name":"관동마을 앞","lat":35.102288,"lng":127.692636,"roadAddr":"전남광주통합특별시 광양시 섬진강매화로 1898","jibunAddr":"전남광주통합특별시 광양시 고사리 162-1","openHours":"상시","maleToilets":5,"femaleToilets":3,"disabled":false,"diaperTable":false,"emergencyBell":false,"cctv":false,"managerTel":"0617972998","source":"public","category":"public"},{"id":"202458000000100577","name":"지계마을","lat":35.076634,"lng":127.680403,"roadAddr":"전남광주통합특별시 광양시 백학로 771","jibunAddr":"전남광주통합특별시 광양시 어치리 691-4","openHours":"상시","maleToilets":2,"femaleToilets":3,"disabled":true,"diaperTable":false,"emergencyBell":true,"cctv":false,"managerTel":"0617972998","source":"public","category":"public"},{"id":"202458000000100578","name":"시골산장옆","lat":35.090314,"lng":127.675212,"roadAddr":"전남광주통합특별시 광양시 백학로 995","jibunAddr":"전남광주통합특별시 광양시 어치리 914","openHours":"상시","maleToilets":2,"femaleToilets":1,"disabled":false,"diaperTable":false,"emergencyBell":true,"cctv":false,"managerTel":"0617972998","source":"public","category":"public"},{"id":"202458000000100579","name":"구 회두분교","lat":35.092713,"lng":127.674845,"roadAddr":"전남광주통합특별시 광양시 회두길 30-1","jibunAddr":"전남광주통합특별시 광양시 어치리 1149","openHours":"상시","maleToilets":4,"femaleToilets":2,"disabled":true,"diaperTable":false,"emergencyBell":true,"cctv":false,"managerTel":"0617972998","source":"public","category":"public"},{"id":"202458000000100580","name":"1박2일 아래","lat":35.097728,"lng":127.671853,"roadAddr":"전남광주통합특별시 광양시 백학로 1114","jibunAddr":"전남광주통합특별시 광양시 어치리 1165-1","openHours":"상시","maleToilets":5,"femaleToilets":2,"disabled":false,"diaperTable":false,"emergencyBell":false,"cctv":false,"managerTel":"0617972998","source":"public","category":"public"},{"id":"202458000000100581","name":"1박2일 위","lat":35.101218,"lng":127.671077,"roadAddr":"전남광주통합특별시 광양시 백학로 1150-1","jibunAddr":"전남광주통합특별시 광양시 어치리 1324","openHours":"상시","maleToilets":4,"femaleToilets":4,"disabled":false,"diaperTable":false,"emergencyBell":false,"cctv":false,"managerTel":"0617972998","source":"public","category":"public"},{"id":"202458000000100582","name":"안사지목 위","lat":35.103068,"lng":127.665647,"roadAddr":"전남광주통합특별시 광양시 백학로 1213","jibunAddr":"전남광주통합특별시 광양시 어치리 산 309","openHours":"상시","maleToilets":1,"femaleToilets":4,"disabled":false,"diaperTable":false,"emergencyBell":false,"cctv":false,"managerTel":"0617972998","source":"public","category":"public"},{"id":"202458000000100583","name":"노면주차장(97) 위","lat":35.103312,"lng":127.664425,"roadAddr":"전남광주통합특별시 광양시 백학로 1225","jibunAddr":"전남광주통합특별시 광양시 어치리 산 308","openHours":"상시","maleToilets":2,"femaleToilets":3,"disabled":false,"diaperTable":false,"emergencyBell":false,"cctv":false,"managerTel":"0617972998","source":"public","category":"public"},{"id":"202458000000100584","name":"계곡산장 아래","lat":35.104094,"lng":127.662543,"roadAddr":"전남광주통합특별시 광양시 백학로 1243","jibunAddr":"전남광주통합특별시 광양시 어치리 산 308","openHours":"상시","maleToilets":1,"femaleToilets":1,"disabled":false,"diaperTable":false,"emergencyBell":false,"cctv":false,"managerTel":"0617972998","source":"public","category":"public"},{"id":"202458000000100587","name":"천수암 위","lat":35.085395,"lng":127.676811,"roadAddr":"전남광주통합특별시 광양시 백학로 921","jibunAddr":"전남광주통합특별시 광양시 백학로 921","openHours":"상시","maleToilets":2,"femaleToilets":2,"disabled":true,"diaperTable":false,"emergencyBell":false,"cctv":false,"managerTel":"0617972998","source":"public","category":"public"}]