[{"id":"202454400000100540","name":"배다리공원","lat":35.021348,"lng":127.832435,"jibunAddr":"경상남도 하동군 고전면 성평리 719-6","openHours":"09:00~18:00","maleToilets":2,"femaleToilets":1,"disabled":false,"diaperTable":false,"emergencyBell":false,"cctv":false,"source":"public","category":"public"},{"id":"202454400000100597","name":"대동주유소","lat":34.982204,"lng":127.815877,"roadAddr":"경상남도 하동군 금남면 경제산업로 154","jibunAddr":"경상남도 하동군 금남면 진정리 1039-12","openHours":"09:00~18:00","maleToilets":0,"femaleToilets":0,"disabled":false,"diaperTable":false,"emergencyBell":false,"cctv":false,"source":"public","category":"public"},{"id":"202454400000100476","name":"만남의광장","lat":34.999349,"lng":127.804167,"roadAddr":"경상남도 하동군 고전면 하동읍성로 9","jibunAddr":"경상남도 하동군 고전면 전도리 206-1","openHours":"09:00~18:00","maleToilets":4,"femaleToilets":3,"disabled":false,"diaperTable":false,"emergencyBell":false,"cctv":false,"source":"public","category":"public"},{"id":"202454400000100495","name":"고전면사무소","lat":35.022244,"lng":127.817247,"roadAddr":"경상남도 하동군 고전면 하동읍성로 349","jibunAddr":"경상남도 하동군 고전면 범아리 226","openHours":"09:00~18:00","maleToilets":3,"femaleToilets":1,"disabled":true,"diaperTable":false,"emergencyBell":false,"cctv":false,"source":"public","category":"public"},{"id":"202454400000100432","name":"계천시장","lat":34.995988,"lng":127.809499,"roadAddr":"경상남도 하동군 금남면 섬진강대로 977-17","jibunAddr":"경상남도 하동군 금남면 계천리 355-3","openHours":"09:00~18:00","maleToilets":5,"femaleToilets":3,"disabled":false,"diaperTable":false,"emergencyBell":false,"cctv":false,"source":"public","category":"public"},{"id":"202454400000100628","name":"하동IC주유소","lat":34.989005,"lng":127.803796,"roadAddr":"경상남도 하동군 금남면 산업로 915","jibunAddr":"경상남도 하동군 금남면 계천리 725-1","openHours":"09:00~18:00","maleToilets":3,"femaleToilets":2,"disabled":false,"diaperTable":false,"emergencyBell":false,"cctv":false,"source":"public","category":"public"},{"id":"202454400000100436","name":"전도버스정류소","lat":34.99721,"lng":127.808068,"roadAddr":"경상남도 하동군 금남면 섬진강대로 981","jibunAddr":"경상남도 하동군 금남면 계천리 264-5","openHours":"09:00~18:00","maleToilets":4,"femaleToilets":3,"disabled":true,"diaperTable":false,"emergencyBell":true,"cctv":false,"source":"public","category":"public"},{"id":"202454400000100601","name":"금남주유소(현대)","lat":34.986385,"lng":127.836733,"roadAddr":"경상남도 하동군 금남면 섬진강대로 669","jibunAddr":"경상남도 하동군 금남면 덕천리 1433-7","openHours":"09:00~18:00","maleToilets":0,"femaleToilets":0,"disabled":false,"diaperTable":false,"emergencyBell":false,"cctv":false,"source":"public","category":"public"},{"id":"202454400000100541","name":"고전면생활체육공원","lat":35.022759,"lng":127.818022,"roadAddr":"경상남도 하동군 고전면 하동읍성로 355","jibunAddr":"경상남도 하동군 고전면 범아리 산 128-2","openHours":"09:00~18:00","maleToilets":3,"femaleToilets":2,"disabled":false,"diaperTable":false,"emergencyBell":false,"cctv":false,"source":"public","category":"public"},{"id":"202454400000100602","name":"대경주유소","lat":34.995112,"lng":127.813806,"roadAddr":"경상남도 하동군 금남면 섬진강대로 929","jibunAddr":"경상남도 하동군 금남면 계천리 384-3","openHours":"09:00~18:00","maleToilets":3,"femaleToilets":2,"disabled":false,"diaperTable":false,"emergencyBell":false,"cctv":false,"source":"public","category":"public"},{"id":"202454400000100600","name":"창성주유소","lat":34.989376,"lng":127.806473,"roadAddr":"경상남도 하동군 금남면 산업로 938","jibunAddr":"경상남도 하동군 금남면 계천리 1005-7","openHours":"09:00~18:00","maleToilets":4,"femaleToilets":2,"disabled":false,"diaperTable":false,"emergencyBell":false,"cctv":false,"source":"public","category":"public"}]