[{"id":"202454300000100017","name":"물건독일마을 입구","lat":34.796124,"lng":128.045505,"roadAddr":"경상남도 남해군 삼동면 독일로 4","jibunAddr":"경상남도 남해군 삼동면 물건리 295","openHours":"상시","maleToilets":5,"femaleToilets":4,"disabled":true,"diaperTable":true,"emergencyBell":true,"cctv":false,"managerTel":"0558603280","source":"public","category":"public"},{"id":"202454300000100085","name":"요트학교","lat":34.793745,"lng":128.052814,"roadAddr":"경상남도 남해군 삼동면 동부대로1030번길 42-26","jibunAddr":"경상남도 남해군 삼동면 물건리 484-9","openHours":"상시","maleToilets":4,"femaleToilets":2,"disabled":true,"diaperTable":false,"emergencyBell":false,"cctv":false,"managerTel":"0558603071","source":"public","category":"public"},{"id":"202454300000100081","name":"삼동면 물건1","lat":34.796694,"lng":128.050115,"roadAddr":"경상남도 삼동면 동부대로1030번길 70","openHours":"상시","maleToilets":8,"femaleToilets":7,"disabled":true,"diaperTable":true,"emergencyBell":false,"cctv":false,"managerTel":"0558608633","source":"public","category":"public"},{"id":"202454300000100127","name":"독일마을 주차장(봉화방면)","lat":34.802752,"lng":128.029435,"roadAddr":"경상남도 남해군 삼동면 독일로 180","jibunAddr":"경상남도 남해군 삼동면 물건리 1154","openHours":"상시","maleToilets":3,"femaleToilets":3,"disabled":true,"diaperTable":true,"emergencyBell":false,"cctv":false,"managerTel":"0558608653","source":"public","category":"public"},{"id":"202454300000100086","name":"파독전시관","lat":34.800097,"lng":128.038456,"roadAddr":"경상남도 남해군 삼동면 독일로 89-7","jibunAddr":"경상남도 남해군 삼동면 물건리 1154","openHours":"상시","maleToilets":6,"femaleToilets":5,"disabled":true,"diaperTable":false,"emergencyBell":true,"cctv":true,"managerTel":"0558608653","source":"public","category":"public"},{"id":"202454300000100049","name":"원예예술촌(주차장)","lat":34.800946,"lng":128.038499,"roadAddr":"경상남도 남해군 삼동면 예술길 3","jibunAddr":"경상남도 남해군 삼동면 봉화리 2571","openHours":"상시","maleToilets":12,"femaleToilets":11,"disabled":true,"diaperTable":true,"emergencyBell":false,"cctv":false,"managerTel":"0558608653","source":"public","category":"public"},{"id":"202454300000100048","name":"원예예술촌 (매표소옆)","lat":34.801286,"lng":128.037567,"roadAddr":"경상남도 남해군 삼동면 예술길 25-21","jibunAddr":"경상남도 남해군 삼동면 봉화리 2571-2","openHours":"상시","maleToilets":3,"femaleToilets":2,"disabled":false,"diaperTable":false,"emergencyBell":false,"cctv":false,"managerTel":"0558608653","source":"public","category":"public"},{"id":"202454300000100083","name":"은점해안쉼터","lat":34.782852,"lng":128.049088,"roadAddr":"경상남도 남해군 삼동면 동부대로942번길 8-16","jibunAddr":"경상남도 삼동면 물건리 724-1","openHours":"하절기(7~9월)","maleToilets":4,"femaleToilets":4,"disabled":true,"diaperTable":false,"emergencyBell":false,"cctv":false,"managerTel":"0558603280","source":"public","category":"public"},{"id":"202454300000100018","name":"내산 화천주차장","lat":34.792934,"lng":128.02393,"roadAddr":"경상남도 남해군 삼동면 금암로 125-4","jibunAddr":"경상남도 남해군 삼동면 봉화로 1274","openHours":"상시","maleToilets":4,"femaleToilets":3,"disabled":true,"diaperTable":false,"emergencyBell":false,"cctv":false,"managerTel":"0558603494","source":"public","category":"public"}]