[{"id":"202653700000100207","name":"근포항","lat":34.720198,"lng":128.588272,"jibunAddr":"경상남도 거제시 남부면 저구리 489-18","openHours":"상시","maleToilets":4,"femaleToilets":4,"disabled":true,"diaperTable":true,"emergencyBell":true,"cctv":false,"source":"public","category":"public"},{"id":"202653700000100213","name":"다포물양장","lat":34.728898,"lng":128.6255,"jibunAddr":"경상남도 거제시 남부면 다포리 199-9","openHours":"상시","maleToilets":2,"femaleToilets":2,"disabled":false,"diaperTable":false,"emergencyBell":true,"cctv":false,"source":"public","category":"public"},{"id":"202653700000100206","name":"근포땅굴","lat":34.722766,"lng":128.590311,"roadAddr":"경상남도 거제시 남부면 근포3길 42-14","jibunAddr":"경상남도 거제시 남부면 저구리 450-1","openHours":"상시","maleToilets":2,"femaleToilets":2,"disabled":true,"diaperTable":true,"emergencyBell":true,"cctv":true,"source":"public","category":"public"},{"id":"202653700000100212","name":"다포물양장2","lat":34.728134,"lng":128.62629,"roadAddr":"경상남도 거제시 남부면 다포3길 57","jibunAddr":"경상남도 거제시 남부면 다포리 199-3","openHours":"상시","maleToilets":3,"femaleToilets":3,"disabled":true,"diaperTable":false,"emergencyBell":true,"cctv":true,"source":"public","category":"public"},{"id":"202653700000100214","name":"다댐마을회관 옆","lat":34.73754,"lng":128.627424,"roadAddr":"경상남도 거제시 남부면 거제대로 161","jibunAddr":"경상남도 거제시 남부면 다대리 99-3","openHours":"상시","maleToilets":1,"femaleToilets":1,"disabled":false,"diaperTable":false,"emergencyBell":true,"cctv":false,"source":"public","category":"public"},{"id":"202653700000100243","name":"남부면주민자치센터 1층","lat":34.732226,"lng":128.610098,"roadAddr":"경상남도 거제시 남부면 남부해안로 30, 남부면사무소","jibunAddr":"경상남도 거제시 남부면 저구리 70 남부면사무소","openHours":"정시","maleToilets":1,"femaleToilets":1,"disabled":true,"diaperTable":false,"emergencyBell":false,"cctv":false,"source":"public","category":"public"},{"id":"202653700000100205","name":"명사해수욕장 주차장","lat":34.726216,"lng":128.602643,"roadAddr":"경상남도 거제시 남부면 명사길 18","jibunAddr":"경상남도 거제시 남부면 저구리 248-17","openHours":"상시","maleToilets":3,"femaleToilets":3,"disabled":true,"diaperTable":true,"emergencyBell":true,"cctv":false,"source":"public","category":"public"},{"id":"202653700000100203","name":"저구망산등산로","lat":34.729901,"lng":128.613546,"jibunAddr":"경상남도 거제시 남부면 저구리 1","openHours":"상시","maleToilets":2,"femaleToilets":2,"disabled":false,"diaperTable":false,"emergencyBell":true,"cctv":false,"source":"public","category":"public"},{"id":"202653700000100204","name":"명사해수욕장","lat":34.726926,"lng":128.604723,"roadAddr":"경상남도 거제시 남부면 명사해수욕장길 30","jibunAddr":"경상남도 거제시 남부면 저구리 265-5","openHours":"상시","maleToilets":6,"femaleToilets":8,"disabled":true,"diaperTable":true,"emergencyBell":true,"cctv":true,"source":"public","category":"public"},{"id":"202653700000100242","name":"남부면사무소 1층","lat":34.732226,"lng":128.610098,"roadAddr":"경상남도 거제시 남부면 남부해안로 30, 남부면사무소","jibunAddr":"경상남도 거제시 남부면 저구리 70 남부면사무소","openHours":"정시","maleToilets":2,"femaleToilets":2,"disabled":false,"diaperTable":false,"emergencyBell":false,"cctv":false,"source":"public","category":"public"},{"id":"202653700000100371","name":"저구항","lat":34.730969,"lng":128.606858,"jibunAddr":"경상남도 거제시 남부면 저구리 216-5","openHours":"상시","maleToilets":4,"femaleToilets":4,"disabled":true,"diaperTable":true,"emergencyBell":true,"cctv":false,"source":"public","category":"public"}]