[{"id":"202454200000100314","name":"반다비 체육문화센터","lat":34.980107,"lng":128.311942,"roadAddr":"경상남도 고성군 고성읍 기월리 90","jibunAddr":"경상남도 고성군 고성읍 기월리 90","openHours":"09:00~18:00","maleToilets":4,"femaleToilets":5,"disabled":true,"diaperTable":false,"emergencyBell":true,"cctv":false,"managerTel":"0556705843","source":"public","category":"public"},{"id":"202454200000100271","name":"수남유수지생태공원 화장실(백세공원)","lat":34.963168,"lng":128.319187,"roadAddr":"경상남도 고성군 고성읍 수남리 511-39","jibunAddr":"경상남도 고성군 고성읍 수남리 511-39","openHours":"상시","maleToilets":3,"femaleToilets":2,"disabled":false,"diaperTable":false,"emergencyBell":true,"cctv":true,"managerTel":"0556702664","source":"public","category":"public"},{"id":"202454200000100286","name":"고성군보건소","lat":34.969574,"lng":128.315403,"roadAddr":"경상남도 고성군 고성읍 남포로79번길 103-3","jibunAddr":"경상남도 고성군 고성읍 대독리 4","openHours":"09:00~18:00","maleToilets":4,"femaleToilets":2,"disabled":true,"diaperTable":false,"emergencyBell":true,"cctv":false,"managerTel":"0556704005","source":"public","category":"public"},{"id":"202454200000100215","name":"고성군청소년센터\"온\" 화장실","lat":34.976882,"lng":128.316324,"roadAddr":"경상남도 고성군 성내로 61","jibunAddr":"경상남도 고성군 고성읍 서외리 77-4","openHours":"09:00~20:00","maleToilets":9,"femaleToilets":11,"disabled":true,"diaperTable":true,"emergencyBell":true,"cctv":true,"managerTel":"0556705933","source":"public","category":"public"},{"id":"202454200000100270","name":"수남유수지 관리사무소 화장실","lat":34.963168,"lng":128.319187,"roadAddr":"경상남도 고성군 고성읍 수남리 511-39","jibunAddr":"경상남도 고성군 고성읍 수남리 511-39","openHours":"상시","maleToilets":5,"femaleToilets":6,"disabled":true,"diaperTable":true,"emergencyBell":true,"cctv":false,"managerTel":"0556702664","source":"public","category":"public"},{"id":"202454200000100328","name":"실내체육관 화장실","lat":34.978688,"lng":128.310489,"roadAddr":"경상남도 고성군 고성읍 교사리 391-1","jibunAddr":"경상남도 고성군 고성읍 교사리 391-1","openHours":"09:00~18:00","maleToilets":11,"femaleToilets":4,"disabled":true,"diaperTable":false,"emergencyBell":true,"cctv":false,"managerTel":"0556705843","source":"public","category":"public"},{"id":"202454200000100317","name":"고성군 그라운드 골프장 화장실","lat":34.966094,"lng":128.317137,"roadAddr":"경상남도 고성군 고성읍 수남리 511-2","jibunAddr":"경상남도 고성군 고성읍 수남리 511-2","openHours":"09:00~18:00","maleToilets":5,"femaleToilets":6,"disabled":true,"diaperTable":false,"emergencyBell":true,"cctv":false,"managerTel":"0556705843","source":"public","category":"public"},{"id":"202454200000100210","name":"고성군종합사회복지관 분관","lat":34.977766,"lng":128.314132,"roadAddr":"경상남도 고성군 송학로 47-3","jibunAddr":"경상남도 고성군 고성읍 교사리 13","openHours":"09:00~18:00","maleToilets":9,"femaleToilets":6,"disabled":true,"diaperTable":false,"emergencyBell":true,"cctv":true,"managerTel":"0556705917","source":"public","category":"public"},{"id":"202454200000100214","name":"CGV고성 작은영화관 화장실","lat":34.977079,"lng":128.315936,"roadAddr":"경상남도 고성군 고성읍 송학로 58","jibunAddr":"경상남도 고성군 고성읍 서외리 77-1","openHours":"09:00~21:00","maleToilets":4,"femaleToilets":5,"disabled":true,"diaperTable":false,"emergencyBell":true,"cctv":true,"managerTel":"0556702205","source":"public","category":"public"},{"id":"202454200000100213","name":"고성읍행정복지센터 화장실","lat":34.978072,"lng":128.319222,"roadAddr":"경상남도 고성군 고성읍 송학로 93","jibunAddr":"경상남도 고성군 고성읍 기월리 653-3","openHours":"09:00~18:00","maleToilets":15,"femaleToilets":9,"disabled":true,"diaperTable":false,"emergencyBell":true,"cctv":false,"managerTel":"0556705894","source":"public","category":"public"},{"id":"202454200000100320","name":"거류체육공원 화장실","lat":34.979313,"lng":128.310722,"roadAddr":"경상남도 고성군 고성읍 송학고분로 193 일원","jibunAddr":"경상남도 고성군 기월리 611","openHours":"09:00~18:00","maleToilets":4,"femaleToilets":5,"disabled":true,"diaperTable":false,"emergencyBell":true,"cctv":false,"managerTel":"0556705843","source":"public","category":"public"},{"id":"202454200000100211","name":"대독누리길 화장실","lat":34.971155,"lng":128.31059,"roadAddr":"경상남도 고성군 고성읍 남포로 79번길 88-119","jibunAddr":"경상남도 고성군 고성읍 교사리 153","openHours":"상시","maleToilets":2,"femaleToilets":2,"disabled":true,"diaperTable":true,"emergencyBell":true,"cctv":true,"managerTel":"0556702824","source":"public","category":"public"},{"id":"202454200000100324","name":"국민체육센터 화장실","lat":34.980107,"lng":128.311942,"roadAddr":"경상남도 고성군 고성읍 기월리 90","jibunAddr":"경상남도 고성군 고성읍 기월리 90","openHours":"09:00~18:00","maleToilets":14,"femaleToilets":15,"disabled":false,"diaperTable":false,"emergencyBell":true,"cctv":false,"managerTel":"0556705843","source":"public","category":"public"},{"id":"202454200000100212","name":"고성읍행정복지센터 제2화장실","lat":34.978072,"lng":128.319222,"roadAddr":"경상남도 고성군 고성읍 송학로 93","jibunAddr":"경상남도 고성군 고성읍 기월리 653-3","openHours":"09:00~18:00","maleToilets":3,"femaleToilets":2,"disabled":false,"diaperTable":false,"emergencyBell":true,"cctv":false,"managerTel":"0556705894","source":"public","category":"public"}]