[{"id":"202453400000100069","name":"와룡산청룡사앞","lat":34.974918,"lng":128.110634,"roadAddr":"경상남도 사천시 와룡길 351-8 (와룡동)","jibunAddr":"경상남도 사천시 와룡동 555","openHours":"상시","maleToilets":2,"femaleToilets":1,"disabled":false,"diaperTable":false,"emergencyBell":true,"cctv":true,"managerTel":"0558312763","source":"public","category":"public"},{"id":"202453400000100272","name":"남포주유소","lat":34.946838,"lng":128.118174,"roadAddr":"경상남도 경상남도 사천시 삼상로  415 (이금동)","jibunAddr":"경상남도 경상남도 사천시 이금동   99-1","openHours":"09:00-18:00","maleToilets":2,"femaleToilets":1,"disabled":false,"diaperTable":false,"emergencyBell":false,"cctv":false,"managerTel":"0558354147","source":"public","category":"public"},{"id":"202453400000100067","name":"와룡마을","lat":34.96168,"lng":128.102522,"roadAddr":"경상남도 사천시 와룡1길  6","jibunAddr":"경상남도 사천시 와룡동  201-5","openHours":"00:00-24:00","maleToilets":2,"femaleToilets":2,"disabled":false,"diaperTable":false,"emergencyBell":true,"cctv":true,"managerTel":"0558312763","source":"public","category":"public"},{"id":"202453400000100284","name":"하남주유소","lat":34.942549,"lng":128.104655,"roadAddr":"경상남도 경상남도 사천시 삼상로  279 (봉남동)","jibunAddr":"경상남도 경상남도 사천시 봉남동  224-5","openHours":"09:00-18:00","maleToilets":2,"femaleToilets":1,"disabled":false,"diaperTable":false,"emergencyBell":false,"cctv":false,"managerTel":"0558355151","source":"public","category":"public"},{"id":"202453400000100044","name":"진분계","lat":34.978093,"lng":128.132876,"roadAddr":"경상남도 사천시 사남면 삼상로  830-1","jibunAddr":"경상남도 사천시 사남면 계양리  383-13","openHours":"00:00-24:00","maleToilets":5,"femaleToilets":5,"disabled":false,"diaperTable":false,"emergencyBell":true,"cctv":true,"managerTel":"0558312763","source":"public","category":"public"},{"id":"202453400000100068","name":"와룡주차장","lat":34.969139,"lng":128.107884,"roadAddr":"경상남도 사천시 와룡길  288 (와룡동)","jibunAddr":"경상남도 사천시 와룡동  318","openHours":"00:00-24:00","maleToilets":3,"femaleToilets":2,"disabled":false,"diaperTable":false,"emergencyBell":false,"cctv":false,"managerTel":"0558312763","source":"public","category":"public"},{"id":"202454200000100303","name":"봉현보건진료소","lat":34.952791,"lng":128.13379,"roadAddr":"경상남도 고성군 하이면 하이로 543-34","jibunAddr":"경상남도 고성군 하이면 봉현리 276-8","openHours":"09:00~18:00","maleToilets":2,"femaleToilets":1,"disabled":false,"diaperTable":false,"emergencyBell":true,"cctv":false,"managerTel":"0556704591","source":"public","category":"public"}]