[{"id":"202454200000100180","name":"문수암 화장실","lat":34.978245,"lng":128.206722,"roadAddr":"경상남도 고성군 상리면 무선리 산182-2","jibunAddr":"경상남도 고성군 상리면 무선리 산182-2","openHours":"상시","maleToilets":8,"femaleToilets":3,"disabled":false,"diaperTable":false,"emergencyBell":false,"cctv":false,"managerTel":"0556702224","source":"public","category":"public"},{"id":"202654200000100001","name":"하일복지문화센터 화장실","lat":34.943317,"lng":128.19384,"roadAddr":"경상남도 고성군 하일면 공룡로 992","jibunAddr":"경상남도 고성군 하일면 학림리 665-1","openHours":"정시","maleToilets":3,"femaleToilets":1,"disabled":true,"diaperTable":true,"emergencyBell":true,"cctv":true,"source":"public","category":"public"},{"id":"202454200000100289","name":"하일보건지소","lat":34.943587,"lng":128.192245,"roadAddr":"경상남도 고성군 하일면 학림2길 15","jibunAddr":"경상남도 고성군 하일면 학림리 739-6","openHours":"정시","maleToilets":2,"femaleToilets":2,"disabled":true,"diaperTable":false,"emergencyBell":true,"cctv":false,"managerTel":"0556704891","source":"public","category":"public"},{"id":"202454200000100323","name":"하일체육공원 화장실","lat":34.944383,"lng":128.192296,"roadAddr":"경상남도 고성군 하일면 학림리 735-1","jibunAddr":"경상남도 고성군 하일면 학림리 735-1","openHours":"정시","maleToilets":3,"femaleToilets":4,"disabled":false,"diaperTable":false,"emergencyBell":true,"cctv":false,"managerTel":"0556705843","source":"public","category":"public"},{"id":"202454200000100301","name":"수태보건진료소","lat":34.952514,"lng":128.213821,"roadAddr":"경상남도 고성군 하일면 수양1길 30","jibunAddr":"경상남도 고성군 하일면 용태리 188-1","openHours":"정시","maleToilets":2,"femaleToilets":1,"disabled":false,"diaperTable":false,"emergencyBell":true,"cctv":false,"managerTel":"0556704589","source":"public","category":"public"},{"id":"202454200000100246","name":"농기계임대사업소 서부권역 화장실","lat":34.938543,"lng":128.198011,"roadAddr":"경상남도 고성군 하일면 자란만로 1700","jibunAddr":"경상남도 고성군 하일면 학림리 381","openHours":"정시","maleToilets":2,"femaleToilets":1,"disabled":false,"diaperTable":false,"emergencyBell":true,"cctv":false,"managerTel":"0556704282","source":"public","category":"public"},{"id":"202454200000100247","name":"하일면사무소 화장실","lat":34.943445,"lng":128.192414,"roadAddr":"경상남도 고성군 하일면 공룡로 979","jibunAddr":"경상남도 고성군 하일면 학림리 657-1","openHours":"정시","maleToilets":3,"femaleToilets":2,"disabled":false,"diaperTable":false,"emergencyBell":true,"cctv":false,"managerTel":"0556705103","source":"public","category":"public"},{"id":"202454200000100248","name":"고성 학동마을 옛담장 화장실","lat":34.949389,"lng":128.192873,"roadAddr":"경상남도 고성군 하일면 학동돌담길 21-4","jibunAddr":"경상남도 고성군 하일면 학림리 922-6","openHours":"정시","maleToilets":3,"femaleToilets":2,"disabled":false,"diaperTable":false,"emergencyBell":true,"cctv":false,"managerTel":"0556702226","source":"public","category":"public"}]