[{"id":"202453400000100039","name":"우천숲 주차장앞","lat":35.036405,"lng":128.118642,"roadAddr":"경상남도 사천시 사남면 사남로  584-22","jibunAddr":"경상남도 사천시 사남면 우천리 214","openHours":"상시","maleToilets":3,"femaleToilets":2,"disabled":true,"diaperTable":false,"emergencyBell":true,"cctv":true,"managerTel":"0558312763","source":"public","category":"public"},{"id":"202453400000100247","name":"정동농협주유소","lat":35.056459,"lng":128.12276,"roadAddr":"경상남도 경상남도 사천시 정동면 상정대로  2540-27","jibunAddr":"경상남도 경상남도 사천시 정동면 대곡리  444-10","openHours":"정시","maleToilets":2,"femaleToilets":1,"disabled":false,"diaperTable":false,"emergencyBell":false,"cctv":false,"managerTel":"0558528916","source":"public","category":"public"},{"id":"202453400000100118","name":"능화마을입구","lat":35.030368,"lng":128.122552,"roadAddr":"경상남도 사천시 사남면 능화길  39","jibunAddr":"경상남도 사천시 사남면 우천리 1476","openHours":"상시","maleToilets":2,"femaleToilets":1,"disabled":false,"diaperTable":false,"emergencyBell":false,"cctv":false,"managerTel":"0558312763","source":"public","category":"public"},{"id":"202453400000100198","name":"정동면행정복지센터 화장실","lat":35.056048,"lng":128.123811,"roadAddr":"경상남도 사천시 정동면 상정대로 2540-39, 정동면행정복지센터 1층","jibunAddr":"경상남도 사천시 정동면 대곡리  298-2","openHours":"정시","maleToilets":3,"femaleToilets":4,"disabled":true,"diaperTable":false,"emergencyBell":true,"cctv":false,"managerTel":"0558315052","source":"public","category":"public"},{"id":"202453400000100090","name":"대곡숲","lat":35.058681,"lng":128.123272,"roadAddr":"경상남도 사천시 정동면 한실안길  11-13","jibunAddr":"경상남도 사천시 정동면 대곡리 488-2","openHours":"상시","maleToilets":3,"femaleToilets":3,"disabled":true,"diaperTable":false,"emergencyBell":true,"cctv":true,"managerTel":"0558313417","source":"public","category":"public"},{"id":"202453400000100119","name":"대곡저수지","lat":35.066828,"lng":128.131288,"roadAddr":"경상남도 사천시 정동면 대곡1길  319","jibunAddr":"경상남도 사천시 정동면 대곡리  33","openHours":"상시","maleToilets":2,"femaleToilets":1,"disabled":false,"diaperTable":false,"emergencyBell":false,"cctv":false,"managerTel":"0558312763","source":"public","category":"public"},{"id":"202453400000100121","name":"대산마을체육공원","lat":35.053529,"lng":128.139935,"roadAddr":"경상남도 사천시 정동면 노천2길  253","jibunAddr":"경상남도 사천시 정동면 장산리  438-3","openHours":"상시","maleToilets":3,"femaleToilets":2,"disabled":true,"diaperTable":false,"emergencyBell":false,"cctv":false,"managerTel":"0558312763","source":"public","category":"public"},{"id":"202453400000100041","name":"능화숲","lat":35.033625,"lng":128.12427,"roadAddr":"경상남도 사천시 사남면 능화길 193-23","jibunAddr":"경상남도 사천시 사남면 우천리 534","openHours":"상시","maleToilets":3,"femaleToilets":4,"disabled":false,"diaperTable":false,"emergencyBell":true,"cctv":true,"managerTel":"0558312763","source":"public","category":"public"},{"id":"202453400000100116","name":"만마마을","lat":35.041155,"lng":128.142571,"roadAddr":"경상남도 사천시 정동면 상정대로  2167-26","jibunAddr":"경상남도 사천시 정동면 학촌리  896-4","openHours":"상시","maleToilets":2,"femaleToilets":1,"disabled":false,"diaperTable":false,"emergencyBell":false,"cctv":false,"managerTel":"0558312763","source":"public","category":"public"},{"id":"202453400000100035","name":"수청숲","lat":35.059953,"lng":128.113242,"roadAddr":"경상남도 사천시 정동면 수청길  112-38","jibunAddr":"경상남도 사천시 정동면 수청리 139","openHours":"상시","maleToilets":3,"femaleToilets":3,"disabled":false,"diaperTable":false,"emergencyBell":true,"cctv":true,"managerTel":"0558312763","source":"public","category":"public"},{"id":"202453400000100040","name":"우천숲 관리동옆","lat":35.036369,"lng":128.121041,"roadAddr":"경상남도 사천시 사남면 사남로  584-48","jibunAddr":"경상남도 사천시 사남면 우천리  215","openHours":"상시","maleToilets":4,"femaleToilets":4,"disabled":false,"diaperTable":false,"emergencyBell":true,"cctv":true,"managerTel":"0558312763","source":"public","category":"public"}]