[{"id":"202453100000102133","name":"대풍엘피지가스","lat":35.145601,"lng":128.101263,"roadAddr":"경상남도 진주시 진주대로 405","jibunAddr":"경상남도 진주시 가좌동 1011-5","openHours":"09:00~22:00","maleToilets":2,"femaleToilets":2,"disabled":false,"diaperTable":false,"emergencyBell":false,"cctv":false,"managerTel":"0557495233","source":"public","category":"public"},{"id":"202453100000102066","name":"진주남부농협 정촌주유소","lat":35.127628,"lng":128.103288,"roadAddr":"경상남도 진주시 화개천로 120","jibunAddr":"경상남도 진주시 예하리 1301-5","openHours":"09:00~22:00","maleToilets":2,"femaleToilets":1,"disabled":false,"diaperTable":false,"emergencyBell":false,"cctv":false,"managerTel":"0557495233","source":"public","category":"public"},{"id":"202453100000101998","name":"정촌119안전센터","lat":35.116234,"lng":128.101274,"roadAddr":"경상남도 진주시 정촌면 뿌리산단로 2","jibunAddr":"경상남도 진주시 정촌면 예하리 1383-3","openHours":"상시","maleToilets":6,"femaleToilets":2,"disabled":true,"diaperTable":false,"emergencyBell":false,"cctv":false,"managerTel":"0557609450","source":"public","category":"public"},{"id":"202453100000102158","name":"개양주유소","lat":35.146146,"lng":128.102357,"roadAddr":"경상남도 진주시 진주대로 414","jibunAddr":"경상남도 진주시 가좌동 1025-1","openHours":"09:00~22:00","maleToilets":2,"femaleToilets":1,"disabled":false,"diaperTable":false,"emergencyBell":false,"cctv":false,"managerTel":"0557495233","source":"public","category":"public"},{"id":"202453100000101968","name":"진주역","lat":35.15115,"lng":128.118234,"roadAddr":"경상남도 진주시 진주역로 130","jibunAddr":"경상남도 진주시 가좌동 68-10","openHours":"상시","maleToilets":8,"femaleToilets":8,"disabled":true,"diaperTable":true,"emergencyBell":true,"cctv":false,"managerTel":"0557537788","source":"public","category":"public"},{"id":"202453100000102297","name":"소곡진료소","lat":35.122615,"lng":128.121453,"roadAddr":"경상남도 진주시 정촌면 정촌로 279번길 9","jibunAddr":"경상남도 진주시 정촌면 소곡리 987-5","openHours":"09:00~18:00","maleToilets":1,"femaleToilets":1,"disabled":false,"diaperTable":false,"emergencyBell":false,"cctv":false,"managerTel":"0557495736","source":"public","category":"public"},{"id":"202453100000102252","name":"정촌산단 경관녹지","lat":35.124789,"lng":128.10116,"jibunAddr":"경상남도 진주시 정촌면 예하리 1350","openHours":"상시","maleToilets":2,"femaleToilets":1,"disabled":true,"diaperTable":false,"emergencyBell":true,"cctv":true,"managerTel":"0557498752","source":"public","category":"public"},{"id":"202453100000102253","name":"신진주역세권 희망공원","lat":35.152369,"lng":128.115185,"roadAddr":"경상남도 진주역로 111","jibunAddr":"경상남도 진주시 가좌동 1965","openHours":"상시","maleToilets":4,"femaleToilets":4,"disabled":true,"diaperTable":false,"emergencyBell":true,"cctv":true,"managerTel":"0557498752","source":"public","category":"public"},{"id":"202453100000102336","name":"신진주역세권 자전거도로","lat":35.151525,"lng":128.124711,"jibunAddr":"경상남도 진주시 가좌동 1705-2","openHours":"상시","maleToilets":1,"femaleToilets":2,"disabled":true,"diaperTable":false,"emergencyBell":true,"cctv":true,"managerTel":"0557494537","source":"public","category":"public"},{"id":"202453100000102022","name":"진주가좌동우체국","lat":35.156066,"lng":128.105821,"roadAddr":"경상남도 진주시 가좌길 15 (가좌동)","jibunAddr":"경상남도 진주시 가좌동 868-26","openHours":"09:00~18:00","maleToilets":2,"femaleToilets":1,"disabled":true,"diaperTable":false,"emergencyBell":false,"cctv":false,"managerTel":"0557598400","source":"public","category":"public"},{"id":"202453100000102391","name":"정촌면사무소","lat":35.131427,"lng":128.102607,"roadAddr":"경상남도 진주시 정촌면 정촌로 57","jibunAddr":"경상남도 진주시 정촌면 화개리 976","openHours":"09:00~18:00","maleToilets":8,"femaleToilets":8,"disabled":true,"diaperTable":false,"emergencyBell":false,"cctv":true,"managerTel":"0557493061","source":"public","category":"public"},{"id":"202453100000102138","name":"대양석유㈜경대앞주유소","lat":35.150843,"lng":128.10391,"roadAddr":"경상남도 진주시 진주대로 488","jibunAddr":"경상남도 진주시 가좌동 552-4","openHours":"09:00~22:00","maleToilets":2,"femaleToilets":2,"disabled":false,"diaperTable":false,"emergencyBell":false,"cctv":false,"managerTel":"0557495233","source":"public","category":"public"},{"id":"202453100000102247","name":"프린지공원","lat":35.151745,"lng":128.106363,"jibunAddr":"경상남도 진주시 가좌동 539","openHours":"상시","maleToilets":2,"femaleToilets":1,"disabled":true,"diaperTable":false,"emergencyBell":true,"cctv":true,"managerTel":"0557498752","source":"public","category":"public"}]