[{"id":"202553400000100010","name":"선진거북선공원","lat":35.046539,"lng":128.04262,"roadAddr":"경상남도 사천시 용현면 선진공원길 623","jibunAddr":"경상남도 사천시 용현면 선진리 1126","openHours":"상시","maleToilets":3,"femaleToilets":3,"disabled":true,"diaperTable":false,"emergencyBell":true,"cctv":true,"managerTel":"0558313126","source":"public","category":"public"},{"id":"202453400000100084","name":"방지공원","lat":35.063028,"lng":128.051531,"roadAddr":"경상남도 사천시 사남면 방지로  52-26","jibunAddr":"경상남도 사천시 사남면 방지리  678","openHours":"상시","maleToilets":6,"femaleToilets":4,"disabled":false,"diaperTable":false,"emergencyBell":true,"cctv":true,"managerTel":"0558313417","source":"public","category":"public"},{"id":"202453400000100005","name":"조명군총","lat":35.040212,"lng":128.04811,"roadAddr":"경상남도 사천시 용현면 선진공원길 324","jibunAddr":"경상남도 사천시 용현면 통양리  249","openHours":"상시","maleToilets":20,"femaleToilets":20,"disabled":true,"diaperTable":true,"emergencyBell":true,"cctv":true,"managerTel":"0558312716","source":"public","category":"public"},{"id":"202453400000100130","name":"종포산단주차장","lat":35.031055,"lng":128.042788,"roadAddr":"경상남도 사천시 용현면 종포산단로 118","jibunAddr":"경상남도 사천시 용현면 신촌리  585-1","openHours":"00:00-24:00","maleToilets":3,"femaleToilets":3,"disabled":false,"diaperTable":false,"emergencyBell":true,"cctv":true,"managerTel":"0558312763","source":"public","category":"public"},{"id":"202453400000100081","name":"미관광장","lat":35.058782,"lng":128.040748,"roadAddr":"경상남도 사천시 사남면 해안산업로  474","jibunAddr":"경상남도 사천시 사남면 초전리  1989","openHours":"상시","maleToilets":5,"femaleToilets":5,"disabled":true,"diaperTable":false,"emergencyBell":true,"cctv":true,"managerTel":"0558313417","source":"public","category":"public"},{"id":"202453400000100004","name":"선진공원 주차장","lat":35.044117,"lng":128.043069,"roadAddr":"경상남도 사천시 선진공원길 673","jibunAddr":"경상남도 사천시 용현면 선진리  746","openHours":"상시","maleToilets":6,"femaleToilets":7,"disabled":false,"diaperTable":false,"emergencyBell":true,"cctv":true,"managerTel":"0558312716","source":"public","category":"public"},{"id":"202453400000100003","name":"선진리성","lat":35.04375,"lng":128.04151,"roadAddr":"경상남도 사천시 선진안길  83-28","jibunAddr":"경상남도 사천시 용현면 선진리  771","openHours":"상시","maleToilets":12,"femaleToilets":8,"disabled":true,"diaperTable":true,"emergencyBell":true,"cctv":true,"managerTel":"0558312716","source":"public","category":"public"},{"id":"202453400000100099","name":"통양사랑테마공원","lat":35.035421,"lng":128.052805,"roadAddr":"경상남도 사천시 용현면 신촌길  58","jibunAddr":"경상남도 사천시 용현면 신촌리  60-2","openHours":"상시","maleToilets":3,"femaleToilets":4,"disabled":true,"diaperTable":false,"emergencyBell":true,"cctv":true,"managerTel":"0558313277","source":"public","category":"public"}]