[{"id":"202553400000100006","name":"물빛정원","lat":35.134593,"lng":127.977948,"roadAddr":"경상남도 사천시 곤명면 경서대로 3435-1","jibunAddr":"경상남도 사천시 곤명면 정곡리 106-8","openHours":"상시","maleToilets":2,"femaleToilets":2,"disabled":true,"diaperTable":false,"emergencyBell":true,"cctv":true,"managerTel":"0558312730","source":"public","category":"public"},{"id":"202453400000100288","name":"곤명농협주유소","lat":35.130253,"lng":127.976467,"roadAddr":"경상남도 경상남도 사천시 곤명면 경서대로  3401","jibunAddr":"경상남도 경상남도 사천시 곤명면 정곡리  844-1","openHours":"09:00-18:00","maleToilets":2,"femaleToilets":1,"disabled":false,"diaperTable":false,"emergencyBell":false,"cctv":false,"managerTel":"0558532141","source":"public","category":"public"},{"id":"202453400000100294","name":"경서대로주유소","lat":35.141061,"lng":127.997946,"roadAddr":"경상남도 경상남도 사천시 곤명면 경서대로  3643","jibunAddr":"경상남도 경상남도 사천시 곤명면 신흥리  4-3","openHours":"09:00-18:00","maleToilets":2,"femaleToilets":1,"disabled":false,"diaperTable":false,"emergencyBell":false,"cctv":false,"managerTel":"0558555005","source":"public","category":"public"},{"id":"202453400000100231","name":"완사역","lat":35.13402,"lng":127.976896,"roadAddr":"경상남도 사천시 경서대로 3435, 완사역","jibunAddr":"경상남도 사천시 곤명면 정곡리  120-14","openHours":"06:00-22:30","maleToilets":5,"femaleToilets":2,"disabled":true,"diaperTable":true,"emergencyBell":true,"cctv":false,"managerTel":"15447788","source":"public","category":"public"},{"id":"202453400000100110","name":"완사시장","lat":35.131218,"lng":127.976343,"roadAddr":"경상남도 사천시 곤명면 완사2길  12","jibunAddr":"경상남도 사천시 곤명면 정곡리 842","openHours":"상시","maleToilets":4,"femaleToilets":2,"disabled":false,"diaperTable":false,"emergencyBell":false,"cctv":false,"managerTel":"0558313062","source":"public","category":"public"},{"id":"202453400000100045","name":"장신소공원","lat":35.14509,"lng":127.97201,"roadAddr":"경상남도 사천시 곤명면 장신2길 1","jibunAddr":"경상남도 사천시 곤명면 금성리  473-2","openHours":"00:00-24:00","maleToilets":2,"femaleToilets":1,"disabled":false,"diaperTable":false,"emergencyBell":false,"cctv":false,"managerTel":"0558312763","source":"public","category":"public"},{"id":"202453400000100046","name":"곤명생태학습장","lat":35.133139,"lng":127.980468,"roadAddr":"경상남도 사천시 곤명면 흥신로 844","jibunAddr":"경상남도 사천시 곤명면 신흥리 1008","openHours":"00:00-24:00","maleToilets":5,"femaleToilets":5,"disabled":true,"diaperTable":false,"emergencyBell":true,"cctv":true,"managerTel":"0558312763","source":"public","category":"public"}]