[{"id":"202453300000101347","name":"통영시청 제1청사(민원용)","lat":34.854342,"lng":128.433178,"roadAddr":"경상남도 통영시 통영해안로515","openHours":"상시","maleToilets":5,"femaleToilets":5,"disabled":true,"diaperTable":true,"emergencyBell":false,"cctv":false,"managerTel":"0556504440","source":"public","category":"public"},{"id":"202453300000101361","name":"무전동주민센터","lat":34.858942,"lng":128.42905,"roadAddr":"경상남도 통영시 중앙로 320","openHours":"정시","maleToilets":12,"femaleToilets":12,"disabled":true,"diaperTable":false,"emergencyBell":true,"cctv":false,"managerTel":"0556503740","source":"public","category":"public"},{"id":"202453300000101129","name":"한국전기안전공사 경남남부지사","lat":34.857353,"lng":128.424983,"roadAddr":"경상남도 통영시 원문로 33","openHours":"정시","maleToilets":5,"femaleToilets":2,"disabled":false,"diaperTable":false,"emergencyBell":false,"cctv":false,"managerTel":"0559003435","source":"public","category":"public"},{"id":"202453300000101139","name":"통영관광휴게소","lat":34.878201,"lng":128.449735,"roadAddr":"경상남도 통영시 용남면 남해안대로 325","openHours":"상시","maleToilets":8,"femaleToilets":8,"disabled":true,"diaperTable":false,"emergencyBell":false,"cctv":false,"managerTel":"0556466967","source":"public","category":"public"},{"id":"202453300000101141","name":"통영종합버스터미널","lat":34.885077,"lng":128.416926,"roadAddr":"경상남도 통영시 광도면 죽림4로 24","openHours":"상시","maleToilets":10,"femaleToilets":10,"disabled":true,"diaperTable":false,"emergencyBell":false,"cctv":false,"managerTel":"16880017","source":"public","category":"public"},{"id":"202453300000101335","name":"죽림다목적구장(풋살)","lat":34.880133,"lng":128.412975,"roadAddr":"경상남도 통영시 광도면 죽림리292-5","openHours":"상시","maleToilets":2,"femaleToilets":1,"disabled":false,"diaperTable":false,"emergencyBell":false,"cctv":false,"managerTel":"0556504732","source":"public","category":"public"},{"id":"202453300000101208","name":"농업기술센터","lat":34.874933,"lng":128.412122,"roadAddr":"경상남도 통영시 광도면 향교옆길 31","openHours":"정시","maleToilets":11,"femaleToilets":4,"disabled":true,"diaperTable":false,"emergencyBell":false,"cctv":false,"managerTel":"0556506214","source":"public","category":"public"},{"id":"202453300000101146","name":"용남주유소","lat":34.877644,"lng":128.448658,"roadAddr":"경상남도 통영시 남해안대로 332","openHours":"상시","maleToilets":5,"femaleToilets":2,"disabled":false,"diaperTable":false,"emergencyBell":false,"cctv":false,"managerTel":"0556491067","source":"public","category":"public"},{"id":"202453300000101143","name":"세인주유소","lat":34.854301,"lng":128.435811,"roadAddr":"경상남도 통영시 통영해안로 532","openHours":"상시","maleToilets":2,"femaleToilets":1,"disabled":false,"diaperTable":false,"emergencyBell":false,"cctv":false,"managerTel":"0556460036","source":"public","category":"public"},{"id":"202453300000101159","name":"이마트통영점","lat":34.887133,"lng":128.418,"roadAddr":"경상남도 통영시 광도면 죽림4로 9","openHours":"정시","maleToilets":27,"femaleToilets":13,"disabled":true,"diaperTable":true,"emergencyBell":true,"cctv":false,"managerTel":"0556501055","source":"public","category":"public"},{"id":"202453300000101379","name":"죽림십자공원(죽림6어린이공원)","lat":34.885378,"lng":128.418765,"roadAddr":"경상남도 통영시 광도면 죽림4로23-76","openHours":"상시","maleToilets":3,"femaleToilets":2,"disabled":false,"diaperTable":false,"emergencyBell":true,"cctv":true,"managerTel":"0556501413","source":"public","category":"public"},{"id":"202453300000101121","name":"통영시장애인종합복지관","lat":34.872842,"lng":128.420013,"roadAddr":"경상남도 통영시 용남면 기호바깥길 7-89","openHours":"정시","maleToilets":12,"femaleToilets":12,"disabled":true,"diaperTable":true,"emergencyBell":true,"cctv":true,"managerTel":"0556504231","source":"public","category":"public"},{"id":"202453300000101193","name":"창원지방검찰청 통영지청","lat":34.864692,"lng":128.444735,"roadAddr":"경상남도 통영시 용남면 동달안길 65","openHours":"정시","maleToilets":3,"femaleToilets":2,"disabled":true,"diaperTable":false,"emergencyBell":false,"cctv":false,"managerTel":"0556404549","source":"public","category":"public"},{"id":"202453300000101130","name":"통영해양경찰서(민원동)","lat":34.880388,"lng":128.417862,"roadAddr":"경상남도 통영시 광도면 죽림2로 45","openHours":"정시","maleToilets":1,"femaleToilets":1,"disabled":true,"diaperTable":true,"emergencyBell":false,"cctv":false,"managerTel":"0556472000","source":"public","category":"public"},{"id":"202453300000101247","name":"원문공원(입구)","lat":34.869218,"lng":128.417629,"roadAddr":"경상남도 통영시 용남면 장문리995","openHours":"상시","maleToilets":6,"femaleToilets":4,"disabled":false,"diaperTable":false,"emergencyBell":true,"cctv":true,"managerTel":"0556501413","source":"public","category":"public"},{"id":"202453300000101303","name":"충무체육관","lat":34.851095,"lng":128.428937,"roadAddr":"경상남도 통영시 북문2길34","openHours":"정시","maleToilets":9,"femaleToilets":4,"disabled":true,"diaperTable":false,"emergencyBell":false,"cctv":false,"managerTel":"0556504732","source":"public","category":"public"},{"id":"202453300000101360","name":"북신동사무소","lat":34.857027,"lng":128.42558,"roadAddr":"경상남도 통영시 여황로403-6","openHours":"정시","maleToilets":8,"femaleToilets":4,"disabled":false,"diaperTable":false,"emergencyBell":false,"cctv":false,"managerTel":"0556503720","source":"public","category":"public"},{"id":"202453300000101242","name":"통영RCE세자트라센터","lat":34.849306,"lng":128.447928,"roadAddr":"경상남도 통영시 용남해안로116","openHours":"상시","maleToilets":26,"femaleToilets":26,"disabled":true,"diaperTable":true,"emergencyBell":false,"cctv":false,"managerTel":"0556502622","source":"public","category":"public"},{"id":"202453300000101131","name":"통영우체국","lat":34.859538,"lng":128.428286,"roadAddr":"경상남도 통영시 중앙로 325","openHours":"정시","maleToilets":19,"femaleToilets":9,"disabled":true,"diaperTable":true,"emergencyBell":true,"cctv":false,"managerTel":"0556502008","source":"public","category":"public"},{"id":"202453300000101336","name":"내죽도공원","lat":34.881315,"lng":128.420765,"roadAddr":"경상남도 통영시 광도면 죽림리1574-3","openHours":"상시","maleToilets":2,"femaleToilets":1,"disabled":true,"diaperTable":false,"emergencyBell":true,"cctv":true,"managerTel":"0556501413","source":"public","category":"public"},{"id":"202453300000101183","name":"북신지구대","lat":34.859821,"lng":128.424989,"roadAddr":"경상남도 통영시 무전대로 40","openHours":"정시","maleToilets":4,"femaleToilets":1,"disabled":true,"diaperTable":false,"emergencyBell":false,"cctv":false,"managerTel":"0556400333","source":"public","category":"public"},{"id":"202453300000101136","name":"한국국토정보공사 통영지사","lat":34.858245,"lng":128.429822,"roadAddr":"경상남도 통영시 안개2길16","openHours":"정시","maleToilets":3,"femaleToilets":1,"disabled":false,"diaperTable":false,"emergencyBell":false,"cctv":false,"managerTel":"0557255630","source":"public","category":"public"},{"id":"202453300000101122","name":"통영시공설봉안당","lat":34.852096,"lng":128.439292,"roadAddr":"경상남도 통영시 장대길 144","openHours":"정시","maleToilets":5,"femaleToilets":2,"disabled":true,"diaperTable":false,"emergencyBell":false,"cctv":true,"managerTel":"0556504242","source":"public","category":"public"},{"id":"202453300000101142","name":"천일주유소","lat":34.85533,"lng":128.438056,"roadAddr":"경상남도 통영시 통영해안로 559","openHours":"상시","maleToilets":2,"femaleToilets":1,"disabled":false,"diaperTable":false,"emergencyBell":false,"cctv":false,"managerTel":"0556490041","source":"public","category":"public"},{"id":"202453300000101127","name":"한국자산관리공사 통영지사","lat":34.856806,"lng":128.427996,"roadAddr":"경상남도 통영시 중앙로 297","openHours":"정시","maleToilets":5,"femaleToilets":2,"disabled":false,"diaperTable":false,"emergencyBell":false,"cctv":false,"managerTel":"0556488795","source":"public","category":"public"},{"id":"202453300000101123","name":"통영체육청소년센터","lat":34.874722,"lng":128.421278,"roadAddr":"경상남도 통영시 광도면 죽림해안로 187","openHours":"정시","maleToilets":17,"femaleToilets":11,"disabled":true,"diaperTable":false,"emergencyBell":true,"cctv":false,"managerTel":"0556504732","source":"public","category":"public"},{"id":"202453300000101313","name":"북신해변공원","lat":34.861194,"lng":128.420414,"roadAddr":"경상남도 통영시 무전동1053","openHours":"상시","maleToilets":5,"femaleToilets":4,"disabled":true,"diaperTable":false,"emergencyBell":true,"cctv":true,"managerTel":"0556501413","source":"public","category":"public"},{"id":"202453300000101124","name":"통영시선거관리위원회","lat":34.881998,"lng":128.420349,"roadAddr":"경상남도 통영시 광도면 죽림3로 64","openHours":"정시","maleToilets":4,"femaleToilets":1,"disabled":false,"diaperTable":false,"emergencyBell":false,"cctv":false,"managerTel":"0556452490","source":"public","category":"public"},{"id":"202453300000101198","name":"선촌마을 공중화장실","lat":34.851493,"lng":128.450173,"roadAddr":"경상남도 통영시 용남면 용남해안로 116-1","openHours":"상시","maleToilets":2,"femaleToilets":2,"disabled":true,"diaperTable":true,"emergencyBell":true,"cctv":true,"managerTel":"0556505462","source":"public","category":"public"},{"id":"202453300000101381","name":"정량천 생태하천","lat":34.851984,"lng":128.435978,"roadAddr":"경상남도 통영시 장대길88-1","openHours":"상시","maleToilets":2,"femaleToilets":1,"disabled":true,"diaperTable":true,"emergencyBell":true,"cctv":false,"managerTel":"0556502343","source":"public","category":"public"},{"id":"202453300000101353","name":"용남면사무소","lat":34.867642,"lng":128.442435,"roadAddr":"경상남도 통영시 용남면 달포큰길28","openHours":"정시","maleToilets":4,"femaleToilets":2,"disabled":false,"diaperTable":false,"emergencyBell":false,"cctv":false,"managerTel":"0556503520","source":"public","category":"public"},{"id":"202453300000101334","name":"죽림다목적구장(족구)","lat":34.882104,"lng":128.412938,"roadAddr":"경상남도 통영시 광도면 죽림리318-30","openHours":"상시","maleToilets":2,"femaleToilets":2,"disabled":false,"diaperTable":false,"emergencyBell":false,"cctv":false,"managerTel":"0556504732","source":"public","category":"public"},{"id":"202453300000101132","name":"국립농산물품질관리원 통영·거제사무소","lat":34.876638,"lng":128.41059,"roadAddr":"경상남도 통영시 광도면 향교옆길 86","openHours":"정시","maleToilets":6,"femaleToilets":3,"disabled":true,"diaperTable":false,"emergencyBell":false,"cctv":false,"managerTel":"0556486060","source":"public","category":"public"},{"id":"202453300000101144","name":"해동주유소","lat":34.857415,"lng":128.429013,"roadAddr":"경상남도 통영시 중앙로 304","openHours":"상시","maleToilets":3,"femaleToilets":1,"disabled":false,"diaperTable":false,"emergencyBell":false,"cctv":false,"managerTel":"0556452792","source":"public","category":"public"},{"id":"202453300000101248","name":"원문공원(기호마을)","lat":34.869404,"lng":128.422458,"roadAddr":"경상남도 통영시 용남면 장문리1024","openHours":"상시","maleToilets":2,"femaleToilets":2,"disabled":true,"diaperTable":false,"emergencyBell":true,"cctv":true,"managerTel":"0556501413","source":"public","category":"public"},{"id":"202453300000101138","name":"동남지방통계청 통영사무소","lat":34.868057,"lng":128.450854,"roadAddr":"경상남도 통영시 용남면 용남해안로 355","openHours":"정시","maleToilets":12,"femaleToilets":9,"disabled":true,"diaperTable":false,"emergencyBell":true,"cctv":false,"managerTel":"0556400712","source":"public","category":"public"},{"id":"202453300000101337","name":"죽림산책로 공중화장실","lat":34.889253,"lng":128.419143,"roadAddr":"경상남도 통영시 광도면 죽림해안로9-8","openHours":"상시","maleToilets":2,"femaleToilets":1,"disabled":true,"diaperTable":true,"emergencyBell":true,"cctv":true,"managerTel":"0556505462","source":"public","category":"public"},{"id":"202453300000101133","name":"근로복지공단 통영지사","lat":34.880534,"lng":128.418612,"roadAddr":"경상남도 통영시 광도면 죽림2로 49-10","openHours":"정시","maleToilets":12,"femaleToilets":8,"disabled":false,"diaperTable":false,"emergencyBell":false,"cctv":true,"managerTel":"0553115723","source":"public","category":"public"},{"id":"202453300000101252","name":"충무도서관","lat":34.873494,"lng":128.420603,"roadAddr":"경상남도 통영시 용남면 기호바깥길7-87","openHours":"정시","maleToilets":8,"femaleToilets":4,"disabled":true,"diaperTable":true,"emergencyBell":false,"cctv":false,"managerTel":"0556502631","source":"public","category":"public"},{"id":"202453300000101206","name":"광도면 죽림민원실","lat":34.882111,"lng":128.419565,"roadAddr":"경상남도 통영시 광도면 죽림3로 56","openHours":"정시","maleToilets":3,"femaleToilets":2,"disabled":true,"diaperTable":false,"emergencyBell":false,"cctv":false,"managerTel":"0556503870","source":"public","category":"public"},{"id":"202453300000101125","name":"창원보호관찰소 통영지소","lat":34.857,"lng":128.425359,"roadAddr":"경상남도 통영시 여황로 403-8","openHours":"정시","maleToilets":6,"femaleToilets":3,"disabled":false,"diaperTable":false,"emergencyBell":false,"cctv":true,"managerTel":"0556453126","source":"public","category":"public"},{"id":"202453300000101152","name":"롯데마트","lat":34.860578,"lng":128.428238,"roadAddr":"경상남도 통영시 무전대로 65","openHours":"정시","maleToilets":14,"femaleToilets":8,"disabled":true,"diaperTable":true,"emergencyBell":false,"cctv":false,"managerTel":"0556402500","source":"public","category":"public"},{"id":"202453300000101149","name":"통영주유소","lat":34.857465,"lng":128.43121,"roadAddr":"경상남도 통영시 안개로 22","openHours":"상시","maleToilets":2,"femaleToilets":1,"disabled":false,"diaperTable":false,"emergencyBell":false,"cctv":false,"managerTel":"0556438011","source":"public","category":"public"},{"id":"202453300000101304","name":"공설운동장","lat":34.851133,"lng":128.42943,"roadAddr":"경상남도 통영시 북문2길25","openHours":"상시","maleToilets":29,"femaleToilets":18,"disabled":true,"diaperTable":false,"emergencyBell":true,"cctv":false,"managerTel":"0556504732","source":"public","category":"public"},{"id":"202453300000101312","name":"원문공원(말구리)","lat":34.86679,"lng":128.422383,"roadAddr":"경상남도 통영시 무전동757-1","openHours":"상시","maleToilets":2,"femaleToilets":2,"disabled":true,"diaperTable":false,"emergencyBell":false,"cctv":false,"managerTel":"0556501413","source":"public","category":"public"},{"id":"202453300000101341","name":"통영시청 제2청사(민원용)","lat":34.856035,"lng":128.430445,"roadAddr":"경상남도 통영시 해미당1길33","openHours":"정시","maleToilets":4,"femaleToilets":2,"disabled":false,"diaperTable":true,"emergencyBell":false,"cctv":false,"managerTel":"0556504440","source":"public","category":"public"},{"id":"202453300000101128","name":"통영교육지원청","lat":34.881909,"lng":128.416707,"roadAddr":"경상남도 통영시 광도면 죽림2로 25-32","openHours":"정시","maleToilets":6,"femaleToilets":3,"disabled":true,"diaperTable":true,"emergencyBell":false,"cctv":true,"managerTel":"0556508065","source":"public","category":"public"},{"id":"202453300000101314","name":"통영시립도서관","lat":34.861507,"lng":128.424711,"roadAddr":"경상남도 통영시 무전3길29","openHours":"정시","maleToilets":16,"femaleToilets":7,"disabled":true,"diaperTable":true,"emergencyBell":false,"cctv":false,"managerTel":"0556502631","source":"public","category":"public"},{"id":"202453300000101349","name":"정량천 물놀이시설","lat":34.850789,"lng":128.432648,"roadAddr":"경상남도 통영시 장대4길26","openHours":"상시","maleToilets":4,"femaleToilets":4,"disabled":true,"diaperTable":true,"emergencyBell":true,"cctv":false,"managerTel":"0556502343","source":"public","category":"public"},{"id":"202453300000101395","name":"죽림4어린이공원(무장애통합놀이터)","lat":34.880982,"lng":128.415442,"roadAddr":"경상남도 통영시 광도면 죽림리 1576-1","openHours":"상시","maleToilets":2,"femaleToilets":2,"disabled":true,"diaperTable":true,"emergencyBell":true,"cctv":true,"managerTel":"0556501413","source":"public","category":"public"},{"id":"202453300000101311","name":"북포루 공중화장실","lat":34.849641,"lng":128.420378,"roadAddr":"경상남도 통영시 문화동산2","openHours":"상시","maleToilets":4,"femaleToilets":1,"disabled":false,"diaperTable":false,"emergencyBell":false,"cctv":false,"managerTel":"0556504542","source":"public","category":"public"},{"id":"202653300000100002","name":"통영시공설화장장","lat":34.852502,"lng":128.439816,"roadAddr":"경상남도 통영시 장대길 115, 통영시추모공원 (정량동)","jibunAddr":"경상남도 통영시 정량동 28 통영시추모공원","openHours":"정시","maleToilets":8,"femaleToilets":8,"disabled":true,"diaperTable":false,"emergencyBell":true,"cctv":true,"managerTel":"0556504244","source":"public","category":"public"},{"id":"202453300000101251","name":"동암 공중화장실","lat":34.865458,"lng":128.446476,"roadAddr":"경상남도 통영시 용남면 동달리1408-1","openHours":"상시","maleToilets":3,"femaleToilets":2,"disabled":false,"diaperTable":false,"emergencyBell":true,"cctv":true,"managerTel":"0556505462","source":"public","category":"public"},{"id":"202453300000101166","name":"광도지구대","lat":34.883078,"lng":128.416349,"roadAddr":"경상남도 통영시 광도면 죽림3로 25","openHours":"정시","maleToilets":3,"femaleToilets":1,"disabled":false,"diaperTable":false,"emergencyBell":false,"cctv":false,"managerTel":"0556400333","source":"public","category":"public"},{"id":"202453300000101200","name":"세자트라(방문자센터)","lat":34.849306,"lng":128.447928,"roadAddr":"경상남도 통영시 용남면 용남해안로 116","openHours":"상시","maleToilets":7,"femaleToilets":8,"disabled":true,"diaperTable":false,"emergencyBell":false,"cctv":false,"managerTel":"0556502622","source":"public","category":"public"},{"id":"202453300000101137","name":"고용노동부 통영지청","lat":34.876948,"lng":128.420641,"roadAddr":"경상남도 통영시 광도면 죽림1로 69","openHours":"정시","maleToilets":20,"femaleToilets":10,"disabled":true,"diaperTable":false,"emergencyBell":true,"cctv":true,"managerTel":"0556501933","source":"public","category":"public"},{"id":"202453300000101165","name":"통영경찰서","lat":34.882483,"lng":128.420002,"roadAddr":"경상남도 통영시 광도면 죽림3로 53","openHours":"정시","maleToilets":40,"femaleToilets":15,"disabled":true,"diaperTable":false,"emergencyBell":false,"cctv":false,"managerTel":"0556400333","source":"public","category":"public"}]