[{"id":"202653700000100301","name":"거제동상우체국 1층","lat":34.850822,"lng":128.591555,"roadAddr":"경상남도 거제시 거제면 읍내로2길 18, 거제동상우체국","jibunAddr":"경상남도 거제시 거제면 동상리 545-1 거제동상우체국","openHours":"미개방","maleToilets":2,"femaleToilets":1,"disabled":false,"diaperTable":false,"emergencyBell":false,"cctv":false,"source":"public","category":"public"},{"id":"202653700000100291","name":"고현종합시장 공영주차장","lat":34.885429,"lng":128.624015,"roadAddr":"경상남도 거제시 거제중앙로17길 6 (고현동)","jibunAddr":"경상남도 거제시 고현동 104-2","openHours":"미개방","maleToilets":8,"femaleToilets":8,"disabled":true,"diaperTable":false,"emergencyBell":false,"cctv":false,"source":"public","category":"public"},{"id":"202653700000100293","name":"거제시청소년수련관","lat":34.8848,"lng":128.618889,"roadAddr":"경상남도 거제시 계룡로 175, 거제시청소년수련관 (고현동)","jibunAddr":"경상남도 거제시 고현동 767 거제시청소년수련관","openHours":"정시","maleToilets":28,"femaleToilets":17,"disabled":true,"diaperTable":false,"emergencyBell":true,"cctv":false,"source":"public","category":"public"},{"id":"202653700000100299","name":"거제우체국 안내실","lat":34.884047,"lng":128.623136,"roadAddr":"경상남도 거제시 거제중앙로17길 19, 거제우체국 (고현동)","jibunAddr":"경상남도 거제시 고현동 693-1 거제우체국","openHours":"미개방","maleToilets":0,"femaleToilets":0,"disabled":true,"diaperTable":true,"emergencyBell":true,"cctv":true,"source":"public","category":"public"},{"id":"202653700000100296","name":"거제시어린이교통공원","lat":34.860125,"lng":128.6053,"roadAddr":"경상남도 거제시 거제면 서정1길 97-40","jibunAddr":"경상남도 거제시 거제면 서상리 산 13","openHours":"정시","maleToilets":5,"femaleToilets":5,"disabled":true,"diaperTable":false,"emergencyBell":false,"cctv":false,"source":"public","category":"public"},{"id":"202653700000100263","name":"장평지구대 1층","lat":34.891822,"lng":128.604234,"roadAddr":"경상남도 거제시 장평1로 154, 거제경찰서장평지구대 (장평동)","jibunAddr":"경상남도 거제시 장평동 626 거제경찰서장평지구대","openHours":"상시","maleToilets":1,"femaleToilets":1,"disabled":true,"diaperTable":false,"emergencyBell":false,"cctv":false,"source":"public","category":"public"},{"id":"202653700000100285","name":"스포츠파크 주 경기장","lat":34.851347,"lng":128.584536,"roadAddr":"경상남도 거제시 거제면 거제남서로 3485-17, 거제국민체육센터","jibunAddr":"경상남도 거제시 거제면 서정리 808-7 거제국민체육센터","openHours":"상시","maleToilets":3,"femaleToilets":4,"disabled":true,"diaperTable":false,"emergencyBell":true,"cctv":false,"source":"public","category":"public"},{"id":"202653700000100286","name":"스포츠파크 풋살장","lat":34.851347,"lng":128.584536,"roadAddr":"경상남도 거제시 거제면 거제남서로 3485-17, 거제국민체육센터","jibunAddr":"경상남도 거제시 거제면 서정리 808-7 거제국민체육센터","openHours":"상시","maleToilets":6,"femaleToilets":9,"disabled":true,"diaperTable":false,"emergencyBell":true,"cctv":false,"source":"public","category":"public"},{"id":"202653700000100273","name":"통영세무서 거제지서 1층","lat":34.88217,"lng":128.619797,"roadAddr":"경상남도 거제시 계룡로11길 9, 통영세무서거제지서 (고현동)","jibunAddr":"경상남도 거제시 고현동 577 통영세무서거제지서","openHours":"정시","maleToilets":5,"femaleToilets":2,"disabled":false,"diaperTable":true,"emergencyBell":false,"cctv":true,"source":"public","category":"public"},{"id":"202653700000100274","name":"거제포로수용소 대형주차장","lat":34.876379,"lng":128.62537,"roadAddr":"경상남도 거제시 계룡로 61, 거제포로수용소유적공원 (고현동)","jibunAddr":"경상남도 거제시 고현동 362 거제포로수용소유적공원","openHours":"상시","maleToilets":22,"femaleToilets":13,"disabled":true,"diaperTable":false,"emergencyBell":true,"cctv":true,"source":"public","category":"public"},{"id":"202653700000100283","name":"거제시체육관","lat":34.882734,"lng":128.616306,"roadAddr":"경상남도 거제시 계룡로11길 35, 거제시체육관 (고현동)","jibunAddr":"경상남도 거제시 고현동 910 거제시체육관","openHours":"미개방","maleToilets":19,"femaleToilets":12,"disabled":true,"diaperTable":true,"emergencyBell":true,"cctv":false,"source":"public","category":"public"},{"id":"202653700000100284","name":"국민체육센터","lat":34.851347,"lng":128.584536,"roadAddr":"경상남도 거제시 거제면 거제남서로 3485-17, 거제국민체육센터","jibunAddr":"경상남도 거제시 거제면 서정리 808-7 거제국민체육센터","openHours":"정시","maleToilets":4,"femaleToilets":6,"disabled":true,"diaperTable":true,"emergencyBell":true,"cctv":false,"source":"public","category":"public"},{"id":"202653700000100287","name":"스포츠파크 테니스장","lat":34.851347,"lng":128.584536,"roadAddr":"경상남도 거제시 거제면 거제남서로 3485-17, 거제국민체육센터","jibunAddr":"경상남도 거제시 거제면 서정리 808-7 거제국민체육센터","openHours":"상시","maleToilets":8,"femaleToilets":9,"disabled":true,"diaperTable":false,"emergencyBell":true,"cctv":false,"source":"public","category":"public"},{"id":"202653700000100239","name":"장평동주민센터 1층","lat":34.889454,"lng":128.609413,"roadAddr":"경상남도 거제시 장평3로 10, 장평동주민센터 (장평동)","jibunAddr":"경상남도 거제시 장평동 174 장평동주민센터","openHours":"정시","maleToilets":5,"femaleToilets":3,"disabled":true,"diaperTable":false,"emergencyBell":false,"cctv":false,"source":"public","category":"public"},{"id":"202653700000100060","name":"거제면사무소 주차장","lat":34.851034,"lng":128.590438,"roadAddr":"경상남도 거제시 거제면 서상길 1, 거제면사무소","jibunAddr":"경상남도 거제시 거제면 서상리 298-1 거제면사무소","openHours":"상시","maleToilets":3,"femaleToilets":3,"disabled":false,"diaperTable":false,"emergencyBell":true,"cctv":true,"source":"public","category":"public"},{"id":"202653700000100061","name":"거제전통시장","lat":34.85056,"lng":128.59018,"roadAddr":"경상남도 거제시 거제면 읍내로2길 28, 거제종합시장","jibunAddr":"경상남도 거제시 거제면 서상리 325-2 거제종합시장","openHours":"상시","maleToilets":0,"femaleToilets":0,"disabled":false,"diaperTable":false,"emergencyBell":true,"cctv":true,"source":"public","category":"public"},{"id":"202653700000100062","name":"소나무동산","lat":34.853031,"lng":128.590863,"roadAddr":"경상남도 거제시 거제면 기성로 66","jibunAddr":"경상남도 거제시 거제면 서상리 243-1","openHours":"상시","maleToilets":1,"femaleToilets":0,"disabled":true,"diaperTable":true,"emergencyBell":true,"cctv":true,"source":"public","category":"public"},{"id":"202653700000100063","name":"계룡산등산로(거제면)","lat":34.851619,"lng":128.596137,"roadAddr":"경상남도 거제시 거제면 동상3길 33","jibunAddr":"경상남도 거제시 거제면 동상리 268-4","openHours":"상시","maleToilets":5,"femaleToilets":5,"disabled":false,"diaperTable":false,"emergencyBell":true,"cctv":true,"source":"public","category":"public"},{"id":"202653700000100297","name":"거제반다비체육센터","lat":34.882549,"lng":128.620406,"roadAddr":"경상남도 거제시 계룡로 149 (고현동)","jibunAddr":"경상남도 거제시 고현동 652","openHours":"정시","maleToilets":4,"femaleToilets":5,"disabled":true,"diaperTable":false,"emergencyBell":true,"cctv":false,"source":"public","category":"public"},{"id":"202653700000100307","name":"거제장평동우체국 1층","lat":34.891338,"lng":128.611544,"roadAddr":"경상남도 거제시 장평로 52, 거제장평동우체국 (장평동)","jibunAddr":"경상남도 거제시 장평동 39 거제장평동우체국","openHours":"미개방","maleToilets":0,"femaleToilets":0,"disabled":false,"diaperTable":false,"emergencyBell":true,"cctv":true,"source":"public","category":"public"},{"id":"202653700000100224","name":"거제시청 본관 증축동 1층","lat":34.880554,"lng":128.620789,"roadAddr":"경상남도 거제시 계룡로 125, 거제시청 (고현동)","jibunAddr":"경상남도 거제시 고현동 717 거제시청","openHours":"정시","maleToilets":5,"femaleToilets":3,"disabled":true,"diaperTable":false,"emergencyBell":false,"cctv":false,"source":"public","category":"public"},{"id":"202653700000100240","name":"거제면사무소 1층","lat":34.851034,"lng":128.590438,"roadAddr":"경상남도 거제시 거제면 서상길 1, 거제면사무소","jibunAddr":"경상남도 거제시 거제면 서상리 298-1 거제면사무소","openHours":"정시","maleToilets":4,"femaleToilets":2,"disabled":true,"diaperTable":false,"emergencyBell":false,"cctv":false,"source":"public","category":"public"},{"id":"202653700000100250","name":"고현동주민센터 1층","lat":34.882132,"lng":128.618442,"roadAddr":"경상남도 거제시 계룡로11길 21, 고현동주민센터 (고현동)","jibunAddr":"경상남도 거제시 고현동 552 고현동주민센터","openHours":"정시","maleToilets":5,"femaleToilets":2,"disabled":false,"diaperTable":false,"emergencyBell":false,"cctv":false,"source":"public","category":"public"},{"id":"202653700000100241","name":"거제면주민자치센터 1층","lat":34.851092,"lng":128.596059,"roadAddr":"경상남도 거제시 거제면 동상3길 26, 거제면주민자치센터","jibunAddr":"경상남도 거제시 거제면 동상리 648 거제면주민자치센터","openHours":"정시","maleToilets":4,"femaleToilets":2,"disabled":false,"diaperTable":false,"emergencyBell":false,"cctv":false,"source":"public","category":"public"},{"id":"202653700000100149","name":"계룡산등산로(절)","lat":34.87765,"lng":128.621301,"roadAddr":"경상남도 거제시 계룡로7길 27 (고현동)","jibunAddr":"경상남도 거제시 고현동 505-18","openHours":"상시","maleToilets":6,"femaleToilets":6,"disabled":false,"diaperTable":true,"emergencyBell":true,"cctv":true,"source":"public","category":"public"},{"id":"202653700000100157","name":"계룡산편백숲입구","lat":34.884468,"lng":128.596536,"jibunAddr":"경상남도 거제시 장평동 산 209","openHours":"상시","maleToilets":2,"femaleToilets":1,"disabled":false,"diaperTable":false,"emergencyBell":false,"cctv":false,"source":"public","category":"public"},{"id":"202653700000100158","name":"계룡산휴게소인근","lat":34.883092,"lng":128.599255,"jibunAddr":"경상남도 거제시 장평동 산 90","openHours":"상시","maleToilets":2,"femaleToilets":2,"disabled":false,"diaperTable":false,"emergencyBell":false,"cctv":false,"source":"public","category":"public"},{"id":"202653700000100141","name":"계룡산임도삼거리(입구)","lat":34.860454,"lng":128.627073,"jibunAddr":"경상남도 거제시 상동동 산 68-8","openHours":"상시","maleToilets":2,"femaleToilets":2,"disabled":false,"diaperTable":false,"emergencyBell":true,"cctv":true,"source":"public","category":"public"},{"id":"202653700000100223","name":"거제시청 본관 1층","lat":34.880554,"lng":128.620789,"roadAddr":"경상남도 거제시 계룡로 125, 거제시청 (고현동)","jibunAddr":"경상남도 거제시 고현동 717 거제시청","openHours":"정시","maleToilets":5,"femaleToilets":3,"disabled":true,"diaperTable":false,"emergencyBell":false,"cctv":false,"source":"public","category":"public"},{"id":"202653700000100226","name":"거제시청 별관2동 1층","lat":34.880554,"lng":128.620789,"roadAddr":"경상남도 거제시 계룡로 125, 거제시청 (고현동)","jibunAddr":"경상남도 거제시 고현동 717 거제시청","openHours":"정시","maleToilets":5,"femaleToilets":3,"disabled":true,"diaperTable":false,"emergencyBell":false,"cctv":false,"source":"public","category":"public"},{"id":"202653700000100227","name":"거제시청 별관3동 1층","lat":34.880554,"lng":128.620789,"roadAddr":"경상남도 거제시 계룡로 125, 거제시청 (고현동)","jibunAddr":"경상남도 거제시 고현동 717 거제시청","openHours":"정시","maleToilets":5,"femaleToilets":2,"disabled":true,"diaperTable":false,"emergencyBell":false,"cctv":false,"source":"public","category":"public"},{"id":"202653700000100152","name":"분수공원","lat":34.888231,"lng":128.615664,"jibunAddr":"경상남도 거제시 고현동 888-3","openHours":"상시","maleToilets":2,"femaleToilets":2,"disabled":true,"diaperTable":true,"emergencyBell":true,"cctv":true,"source":"public","category":"public"},{"id":"202653700000100153","name":"장평포로수용소","lat":34.89063,"lng":128.615795,"roadAddr":"경상남도 거제시 장평로 9 (장평동)","jibunAddr":"경상남도 거제시 장평동 58-14","openHours":"상시","maleToilets":2,"femaleToilets":1,"disabled":false,"diaperTable":false,"emergencyBell":true,"cctv":true,"source":"public","category":"public"},{"id":"202653700000100155","name":"쌈지공원","lat":34.885464,"lng":128.607803,"roadAddr":"경상남도 거제시 장평2로4길 20 (장평동)","jibunAddr":"경상남도 거제시 장평동 145","openHours":"상시","maleToilets":3,"femaleToilets":1,"disabled":true,"diaperTable":false,"emergencyBell":true,"cctv":true,"source":"public","category":"public"},{"id":"202653700000100156","name":"계룡산유아숲체험원","lat":34.885272,"lng":128.589614,"jibunAddr":"경상남도 거제시 장평동 산 100","openHours":"상시","maleToilets":1,"femaleToilets":1,"disabled":true,"diaperTable":true,"emergencyBell":true,"cctv":true,"source":"public","category":"public"},{"id":"202653700000100159","name":"계룡산임도1(거제공고 위)","lat":34.87983,"lng":128.610091,"jibunAddr":"경상남도 거제시 장평동 산 21-1","openHours":"상시","maleToilets":2,"femaleToilets":1,"disabled":false,"diaperTable":false,"emergencyBell":false,"cctv":false,"source":"public","category":"public"},{"id":"202653700000100160","name":"계룡산임도2(약수터 앞)","lat":34.872632,"lng":128.614246,"jibunAddr":"경상남도 거제시 고현동 산 83-23","openHours":"상시","maleToilets":2,"femaleToilets":1,"disabled":false,"diaperTable":false,"emergencyBell":false,"cctv":false,"source":"public","category":"public"},{"id":"202653700000100225","name":"거제시청 별관1동 1층","lat":34.880554,"lng":128.620789,"roadAddr":"경상남도 거제시 계룡로 125, 거제시청 (고현동)","jibunAddr":"경상남도 거제시 고현동 717 거제시청","openHours":"정시","maleToilets":5,"femaleToilets":2,"disabled":false,"diaperTable":false,"emergencyBell":false,"cctv":false,"source":"public","category":"public"},{"id":"202653700000100121","name":"고현근린공원","lat":34.887265,"lng":128.613424,"jibunAddr":"경상남도 거제시 장평동 산 16-14","openHours":"상시","maleToilets":2,"femaleToilets":2,"disabled":true,"diaperTable":true,"emergencyBell":true,"cctv":true,"source":"public","category":"public"},{"id":"202653700000100122","name":"충혼탑","lat":34.885908,"lng":128.613427,"roadAddr":"경상남도 거제시 계룡로13길 67 (고현동)","jibunAddr":"경상남도 거제시 고현동 산 59-7","openHours":"상시","maleToilets":5,"femaleToilets":3,"disabled":false,"diaperTable":false,"emergencyBell":true,"cctv":true,"source":"public","category":"public"},{"id":"202653700000100151","name":"신현제1근린공원","lat":34.889638,"lng":128.619393,"roadAddr":"경상남도 거제시 거제중앙로29길 26 (고현동)","jibunAddr":"경상남도 거제시 고현동 968-1","openHours":"상시","maleToilets":1,"femaleToilets":1,"disabled":true,"diaperTable":true,"emergencyBell":true,"cctv":true,"source":"public","category":"public"},{"id":"202653700000100150","name":"버스전용주차장관리동","lat":34.886252,"lng":128.62455,"roadAddr":"경상남도 거제시 거제중앙로20길 5 (고현동)","jibunAddr":"경상남도 거제시 고현동 44-29","openHours":"상시","maleToilets":4,"femaleToilets":4,"disabled":true,"diaperTable":false,"emergencyBell":true,"cctv":true,"source":"public","category":"public"}]