[{"id":"202453300000101308","name":"미수광바위 공중화장실","lat":34.823603,"lng":128.392935,"roadAddr":"경상남도 통영시 미수동854-3","openHours":"상시","maleToilets":2,"femaleToilets":1,"disabled":true,"diaperTable":true,"emergencyBell":true,"cctv":true,"managerTel":"0556505554","source":"public","category":"public"},{"id":"202453300000101151","name":"미수주유소","lat":34.823188,"lng":128.398366,"roadAddr":"경상남도 통영시 미수로 73","openHours":"상시","maleToilets":4,"femaleToilets":3,"disabled":false,"diaperTable":false,"emergencyBell":false,"cctv":false,"managerTel":"0556495189","source":"public","category":"public"},{"id":"202453300000101320","name":"통영생태숲(관리동)","lat":34.837035,"lng":128.406114,"roadAddr":"경상남도 통영시 통영터널로15-28","openHours":"상시","maleToilets":5,"femaleToilets":9,"disabled":true,"diaperTable":false,"emergencyBell":true,"cctv":true,"managerTel":"0556501413","source":"public","category":"public"},{"id":"202453300000101321","name":"통영생태숲(입구)","lat":34.837035,"lng":128.406114,"roadAddr":"경상남도 통영시 통영터널로15-28","openHours":"상시","maleToilets":5,"femaleToilets":6,"disabled":true,"diaperTable":false,"emergencyBell":true,"cctv":true,"managerTel":"0556501413","source":"public","category":"public"},{"id":"202453300000101306","name":"미수해양공원 공중화장실","lat":34.82964,"lng":128.406,"roadAddr":"경상남도 통영시 미수해안로45","openHours":"상시","maleToilets":8,"femaleToilets":7,"disabled":true,"diaperTable":false,"emergencyBell":true,"cctv":true,"managerTel":"0556501413","source":"public","category":"public"},{"id":"202453300000101240","name":"민양회차지 공중화장실","lat":34.843615,"lng":128.39091,"roadAddr":"경상남도 통영시 인평동761-2","openHours":"상시","maleToilets":2,"femaleToilets":1,"disabled":true,"diaperTable":false,"emergencyBell":false,"cctv":false,"managerTel":"0556505354","source":"public","category":"public"},{"id":"202453300000101239","name":"민양마을 입구 공중화장실","lat":34.8439,"lng":128.383501,"roadAddr":"경상남도 통영시 인평동932-2","openHours":"상시","maleToilets":2,"femaleToilets":2,"disabled":false,"diaperTable":false,"emergencyBell":true,"cctv":true,"managerTel":"0556505462","source":"public","category":"public"},{"id":"202453300000101346","name":"도천동사무소","lat":34.839321,"lng":128.400746,"roadAddr":"경상남도 통영시 평인일주로36","openHours":"정시","maleToilets":2,"femaleToilets":1,"disabled":true,"diaperTable":false,"emergencyBell":false,"cctv":false,"managerTel":"0556503760","source":"public","category":"public"},{"id":"202453300000101241","name":"민양마을 종점 공중화장실","lat":34.843938,"lng":128.381545,"roadAddr":"경상남도 통영시 인평동1135-9","openHours":"상시","maleToilets":2,"femaleToilets":1,"disabled":false,"diaperTable":false,"emergencyBell":true,"cctv":true,"managerTel":"0556505462","source":"public","category":"public"},{"id":"202453300000101378","name":"국치마을 공중화장실","lat":34.835576,"lng":128.391502,"roadAddr":"경상남도 통영시 국치2길66-10","openHours":"상시","maleToilets":3,"femaleToilets":3,"disabled":true,"diaperTable":true,"emergencyBell":true,"cctv":true,"managerTel":"0556505462","source":"public","category":"public"},{"id":"202453300000101330","name":"당동 어선대체부두","lat":34.834531,"lng":128.402721,"roadAddr":"경상남도 통영시 통영해안로20","openHours":"상시","maleToilets":2,"femaleToilets":2,"disabled":true,"diaperTable":true,"emergencyBell":true,"cctv":true,"managerTel":"0556505552","source":"public","category":"public"},{"id":"202453300000101394","name":"미수동 어선대체부두 공중화장실","lat":34.82879,"lng":128.40079,"roadAddr":"경상남도 통영시 미우지해안로 52","openHours":"상시","maleToilets":1,"femaleToilets":2,"disabled":true,"diaperTable":true,"emergencyBell":true,"cctv":false,"managerTel":"0556505554","source":"public","category":"public"},{"id":"202453300000101309","name":"미수체육공원 공중화장실","lat":34.821515,"lng":128.404499,"roadAddr":"경상남도 통영시 미수동601-5","openHours":"상시","maleToilets":2,"femaleToilets":1,"disabled":false,"diaperTable":false,"emergencyBell":false,"cctv":false,"managerTel":"0556504732","source":"public","category":"public"},{"id":"202453300000101374","name":"미수동사무소","lat":34.830372,"lng":128.406018,"roadAddr":"경상남도 통영시 미수해안로51-1","openHours":"정시","maleToilets":6,"femaleToilets":3,"disabled":true,"diaperTable":false,"emergencyBell":false,"cctv":true,"managerTel":"0556503800","source":"public","category":"public"}]