[{"id":"202454200000100346","name":"빗물 화장실","lat":35.059036,"lng":128.399487,"roadAddr":"경상남도 고성군 회화면 당항만로 1116","jibunAddr":"경상남도 고성군 회화면 봉동리 950-1","openHours":"09:00~18:00","maleToilets":6,"femaleToilets":8,"disabled":true,"diaperTable":false,"emergencyBell":true,"cctv":false,"managerTel":"0556704518","source":"public","category":"public"},{"id":"202454200000100349","name":"사무실 2층 화장실","lat":35.059036,"lng":128.399487,"roadAddr":"경상남도 고성군 회화면 당항만로 1116","jibunAddr":"경상남도 고성군 회화면 봉동리 950-1","openHours":"09:00~18:00","maleToilets":4,"femaleToilets":3,"disabled":false,"diaperTable":false,"emergencyBell":true,"cctv":false,"managerTel":"0556704518","source":"public","category":"public"},{"id":"202454200000100222","name":"배둔시외버스터미널 화장실","lat":35.055535,"lng":128.366837,"roadAddr":"경상남도 고성군 회화면 회진로 11","jibunAddr":"경상남도 고성군 고성읍 회화면 배둔리 1288-28","openHours":"09:00~18:00","maleToilets":2,"femaleToilets":2,"disabled":false,"diaperTable":false,"emergencyBell":true,"cctv":false,"managerTel":"0556704685","source":"public","category":"public"},{"id":"202454200000100337","name":"바다의 문 화장실","lat":35.059036,"lng":128.399487,"roadAddr":"경상남도 고성군 회화면 당항만로 1116","jibunAddr":"경상남도 고성군 회화면 봉동리 950-1","openHours":"09:00~18:00","maleToilets":9,"femaleToilets":4,"disabled":false,"diaperTable":false,"emergencyBell":true,"cctv":false,"managerTel":"0556704518","source":"public","category":"public"},{"id":"202454200000100250","name":"고성동부도서관 화장실","lat":35.057292,"lng":128.37264,"roadAddr":"경상남도 고성군 회화면 관인로44번길 26-5, 2층","jibunAddr":"경상남도 고성군 회화면 배둔리 468-14","openHours":"(평일)09:00~22:00+(주말)09:00~18:00","maleToilets":2,"femaleToilets":2,"disabled":true,"diaperTable":false,"emergencyBell":true,"cctv":false,"managerTel":"0556702916","source":"public","category":"public"},{"id":"202454200000100269","name":"회화양지공원 화장실","lat":35.060059,"lng":128.371807,"roadAddr":"경상남도 고성군 회화면 배둔리 372-2","jibunAddr":"경상남도 고성군 회화면 배둔리 372-2","openHours":"09:00~18:00","maleToilets":3,"femaleToilets":2,"disabled":true,"diaperTable":true,"emergencyBell":true,"cctv":false,"managerTel":"0556702664","source":"public","category":"public"},{"id":"202454200000100194","name":"동해주유소","lat":35.028945,"lng":128.389264,"roadAddr":"경상남도 고성군 동해면 동해로 961","jibunAddr":"경상남도 고성군 동해면 내곡리 1658-1","openHours":"09:00~18:00","maleToilets":3,"femaleToilets":2,"disabled":false,"diaperTable":false,"emergencyBell":false,"cctv":false,"managerTel":"0556734090","source":"public","category":"public"},{"id":"202454200000100350","name":"사무실 1층 화장실","lat":35.059036,"lng":128.399487,"roadAddr":"경상남도 고성군 회화면 당항만로 1116","jibunAddr":"경상남도 고성군 회화면 봉동리 950-1","openHours":"09:00~18:00","maleToilets":5,"femaleToilets":3,"disabled":true,"diaperTable":false,"emergencyBell":true,"cctv":false,"managerTel":"0556704518","source":"public","category":"public"},{"id":"202454200000100335","name":"회화면사무소","lat":35.060334,"lng":128.373272,"roadAddr":"경상남도 고성군 회화면 배둔로 80","jibunAddr":"경상남도 고성군 회화면 배둔리 344-7","openHours":"09:00~18:00","maleToilets":12,"femaleToilets":10,"disabled":true,"diaperTable":true,"emergencyBell":true,"cctv":true,"managerTel":"0556705506","source":"public","category":"public"},{"id":"202454200000100336","name":"홀로그램 화장실","lat":35.059036,"lng":128.399487,"roadAddr":"경상남도 고성군 회화면 당항만로 1116","jibunAddr":"경상남도 고성군 회화면 봉동리 950-1","openHours":"상시","maleToilets":4,"femaleToilets":3,"disabled":false,"diaperTable":false,"emergencyBell":true,"cctv":false,"managerTel":"0556704518","source":"public","category":"public"},{"id":"202454200000100344","name":"주제관 1층 화장실","lat":35.059036,"lng":128.399487,"roadAddr":"경상남도 고성군 회화면 당항만로 1116","jibunAddr":"경상남도 고성군 회화면 봉동리 950-1","openHours":"09:00~18:00","maleToilets":11,"femaleToilets":8,"disabled":true,"diaperTable":false,"emergencyBell":true,"cctv":false,"managerTel":"0556704518","source":"public","category":"public"},{"id":"202454200000100345","name":"풍차 화장실","lat":35.059036,"lng":128.399487,"roadAddr":"경상남도 고성군 회화면 당항만로 1116","jibunAddr":"경상남도 고성군 회화면 봉동리 950-1","openHours":"09:00~18:00","maleToilets":4,"femaleToilets":4,"disabled":true,"diaperTable":false,"emergencyBell":true,"cctv":false,"managerTel":"0556704518","source":"public","category":"public"},{"id":"202454200000100342","name":"주제관 3층 화장실","lat":35.059036,"lng":128.399487,"roadAddr":"경상남도 고성군 회화면 당항만로 1116","jibunAddr":"경상남도 고성군 회화면 봉동리 950-1","openHours":"09:00~18:00","maleToilets":6,"femaleToilets":3,"disabled":false,"diaperTable":false,"emergencyBell":true,"cctv":false,"managerTel":"0556704518","source":"public","category":"public"},{"id":"202454200000100330","name":"동고성 체육공원 화장실","lat":35.048764,"lng":128.366611,"roadAddr":"경상남도 고성군 회화면 배둔리 1336","jibunAddr":"경상남도 고성군 회화면 배둔리 1336","openHours":"09:00~18:00","maleToilets":14,"femaleToilets":16,"disabled":true,"diaperTable":false,"emergencyBell":true,"cctv":false,"managerTel":"0556705843","source":"public","category":"public"},{"id":"202454200000100340","name":"트리케라톱스 화장실","lat":35.059036,"lng":128.399487,"roadAddr":"경상남도 고성군 회화면 당항만로 1116","jibunAddr":"경상남도 고성군 회화면 봉동리 950-1","openHours":"09:00~18:00","maleToilets":9,"femaleToilets":8,"disabled":true,"diaperTable":false,"emergencyBell":true,"cctv":false,"managerTel":"0556704518","source":"public","category":"public"},{"id":"202454200000100339","name":"해전관 화장실","lat":35.059036,"lng":128.399487,"roadAddr":"경상남도 고성군 회화면 당항만로 1116","jibunAddr":"경상남도 고성군 회화면 봉동리 950-1","openHours":"09:00~18:00","maleToilets":5,"femaleToilets":2,"disabled":true,"diaperTable":false,"emergencyBell":true,"cctv":false,"managerTel":"0556704518","source":"public","category":"public"},{"id":"202454200000100354","name":"A캠핑장 화장실","lat":35.059036,"lng":128.399487,"roadAddr":"경상남도 고성군 회화면 당항만로 1116","jibunAddr":"경상남도 고성군 회화면 봉동리 950-1","openHours":"09:00~18:00","maleToilets":4,"femaleToilets":4,"disabled":true,"diaperTable":false,"emergencyBell":true,"cctv":false,"managerTel":"0556704518","source":"public","category":"public"},{"id":"202454200000100338","name":"거북선 화장실","lat":35.059036,"lng":128.399487,"roadAddr":"경상남도 고성군 회화면 당항만로 1116","jibunAddr":"경상남도 고성군 회화면 봉동리 950-1","openHours":"09:00~18:00","maleToilets":9,"femaleToilets":8,"disabled":true,"diaperTable":false,"emergencyBell":true,"cctv":false,"managerTel":"0556704518","source":"public","category":"public"},{"id":"202454200000100191","name":"회화복지회관","lat":35.057589,"lng":128.37171,"roadAddr":"경상남도 고성군 회화면 관인로27","jibunAddr":"경상남도 고성군 회화면 배둔리1288-23","openHours":"09:00~18:00","maleToilets":4,"femaleToilets":4,"disabled":false,"diaperTable":false,"emergencyBell":false,"cctv":true,"managerTel":"0556705506","source":"public","category":"public"},{"id":"202454200000100341","name":"공룡알 화장실","lat":35.059036,"lng":128.399487,"roadAddr":"경상남도 고성군 회화면 당항만로 1116","jibunAddr":"경상남도 고성군 회화면 봉동리 950-1","openHours":"09:00~18:00","maleToilets":10,"femaleToilets":4,"disabled":true,"diaperTable":false,"emergencyBell":true,"cctv":false,"managerTel":"0556704518","source":"public","category":"public"},{"id":"202454200000100348","name":"요트앤스쿨 화장실","lat":35.059036,"lng":128.399487,"roadAddr":"경상남도 고성군 회화면 당항만로 1116","jibunAddr":"경상남도 고성군 회화면 봉동리 950-1","openHours":"09:00~18:00","maleToilets":4,"femaleToilets":3,"disabled":false,"diaperTable":false,"emergencyBell":true,"cctv":false,"managerTel":"0556704518","source":"public","category":"public"},{"id":"202454200000100347","name":"EXPO 화장실","lat":35.059036,"lng":128.399487,"roadAddr":"경상남도 고성군 회화면 당항만로 1116","jibunAddr":"경상남도 고성군 회화면 봉동리 950-1","openHours":"09:00~18:00","maleToilets":12,"femaleToilets":6,"disabled":true,"diaperTable":false,"emergencyBell":true,"cctv":false,"managerTel":"0556704518","source":"public","category":"public"},{"id":"202454200000100254","name":"배둔시장","lat":35.057626,"lng":128.36931,"roadAddr":"경상남도 고성군 회화면 배둔로31번길 15","jibunAddr":"경상남도 고성군 회화면 배둔리 825-46","openHours":"09:00~18:00","maleToilets":6,"femaleToilets":4,"disabled":false,"diaperTable":false,"emergencyBell":true,"cctv":true,"managerTel":"0556702303","source":"public","category":"public"},{"id":"202454200000100343","name":"주제관 2층 화장실","lat":35.059036,"lng":128.399487,"roadAddr":"경상남도 고성군 회화면 당항만로 1116","jibunAddr":"경상남도 고성군 회화면 봉동리 950-1","openHours":"09:00~18:00","maleToilets":7,"femaleToilets":4,"disabled":false,"diaperTable":false,"emergencyBell":true,"cctv":false,"managerTel":"0556704518","source":"public","category":"public"},{"id":"202454200000100353","name":"S캠핑장 화장실","lat":35.059036,"lng":128.399487,"roadAddr":"경상남도 고성군 회화면 당항만로 1116","jibunAddr":"경상남도 고성군 회화면 봉동리 950-1","openHours":"09:00~18:00","maleToilets":9,"femaleToilets":8,"disabled":true,"diaperTable":false,"emergencyBell":true,"cctv":false,"managerTel":"0556704518","source":"public","category":"public"},{"id":"202454200000100249","name":"당항만 둘레길 이용객 화장실","lat":35.051683,"lng":128.38735,"roadAddr":"경상남도 고성군 회화면 당항만로 1063","jibunAddr":"경상남도 고성군 회화면 당항리 570-11","openHours":"상시","maleToilets":3,"femaleToilets":3,"disabled":true,"diaperTable":true,"emergencyBell":true,"cctv":true,"managerTel":"0556702824","source":"public","category":"public"},{"id":"202454200000100352","name":"B캠핑장 화장실","lat":35.059036,"lng":128.399487,"roadAddr":"경상남도 고성군 회화면 당항만로 1116","jibunAddr":"경상남도 고성군 회화면 봉동리 950-1","openHours":"09:00~18:00","maleToilets":4,"femaleToilets":2,"disabled":false,"diaperTable":false,"emergencyBell":true,"cctv":false,"managerTel":"0556704518","source":"public","category":"public"},{"id":"202454200000100351","name":"C캠핑장 화장실","lat":35.059036,"lng":128.399487,"roadAddr":"경상남도 고성군 회화면 당항만로 1116","jibunAddr":"경상남도 고성군 회화면 봉동리 950-1","openHours":"09:00~18:00","maleToilets":8,"femaleToilets":12,"disabled":true,"diaperTable":false,"emergencyBell":true,"cctv":false,"managerTel":"0556704518","source":"public","category":"public"}]