[{"id":"202454200000100202","name":"옥수관광휴게소","lat":35.089092,"lng":128.376585,"roadAddr":"경상남도 고성군 회화면 남해안대로 4061","jibunAddr":"경상남도 고성군 회화면 삼덕리 513","openHours":"정시","maleToilets":10,"femaleToilets":5,"disabled":false,"diaperTable":false,"emergencyBell":false,"cctv":false,"managerTel":"0556730886","source":"public","category":"public"},{"id":"202454200000100200","name":"주남낚시휴게소","lat":35.094402,"lng":128.382035,"roadAddr":"경상남도 고성군 회화면 남해안대로 4139","jibunAddr":"경상남도 고성군 고성읍 삼덕리 산 67-6","openHours":"정시","maleToilets":2,"femaleToilets":1,"disabled":false,"diaperTable":false,"emergencyBell":false,"cctv":false,"managerTel":"0556730886","source":"public","category":"public"},{"id":"202454200000100203","name":"옥수주유소","lat":35.088619,"lng":128.376428,"roadAddr":"경상남도 고성군 회화면 남해안대로 4059","jibunAddr":"경상남도 고성군 회화면 삼덕리 513-3","openHours":"정시","maleToilets":3,"femaleToilets":2,"disabled":false,"diaperTable":false,"emergencyBell":false,"cctv":false,"managerTel":"0556734477","source":"public","category":"public"},{"id":"202356700000100247","name":"용댐유원지(월안교)","lat":35.109627,"lng":128.403991,"roadAddr":"경상남도 창원시 마산합포구 진전면 월안로 86","jibunAddr":"경상남도 창원시 마산합포구 진전면 곡안리 476-12","openHours":"상시","maleToilets":3,"femaleToilets":3,"disabled":false,"diaperTable":true,"emergencyBell":true,"cctv":true,"managerTel":"0552204521","source":"public","category":"public"},{"id":"202456701560100003","name":"소가야가는길","lat":35.101345,"lng":128.401736,"roadAddr":"경상남도 창원시 마산합포구 진전면 남해안대로 4368","jibunAddr":"경상남도 창원시 마산합포구 진전면 오서리 1457","openHours":"상시","maleToilets":8,"femaleToilets":5,"disabled":false,"diaperTable":false,"emergencyBell":false,"cctv":true,"source":"public","category":"public"}]