[{"id":"202356700000100885","name":"수정보건진료소 화장실","lat":35.119592,"lng":128.582145,"roadAddr":"경상남도 창원시 마산합포구 구산면 수정1길 62-44, 수정보건진료소","jibunAddr":"경상남도 창원시 마산합포구 구산면 수정리 660-28 수정보건진료소","openHours":"정시","maleToilets":1,"femaleToilets":1,"disabled":false,"diaperTable":false,"emergencyBell":false,"cctv":false,"source":"public","category":"public"},{"id":"202356700000100546","name":"현동행정복지센터","lat":35.149888,"lng":128.553793,"roadAddr":"경상남도 창원시 마산합포구 현동7길 27, 현동 행정복지센터 (현동)","jibunAddr":"경상남도 창원시 마산합포구 현동 383 현동 행정복지센터","openHours":"정시","maleToilets":5,"femaleToilets":3,"disabled":true,"diaperTable":false,"emergencyBell":true,"cctv":false,"managerTel":"0552205328","source":"public","category":"public"},{"id":"202356700000100201","name":"현동근린공원","lat":35.146692,"lng":128.55286,"roadAddr":"경상남도창원시마산합포구현동6길54","jibunAddr":"경상남도창원시마산합포구현동1294","openHours":"상시","maleToilets":9,"femaleToilets":6,"disabled":true,"diaperTable":true,"emergencyBell":true,"cctv":false,"source":"public","category":"public"},{"id":"202356700000100267","name":"덕동 체육공원","lat":35.137396,"lng":128.577234,"roadAddr":"경상남도 창원시 마산합포구 덕동남2길 72 (덕동동)","jibunAddr":"경상남도 창원시 마산합포구 덕동동 581-5","openHours":"상시","maleToilets":3,"femaleToilets":2,"disabled":true,"diaperTable":true,"emergencyBell":true,"cctv":true,"managerTel":"0552204521","source":"public","category":"public"},{"id":"202456700000100020","name":"덕동테니스장 관리동","lat":35.134003,"lng":128.56727,"roadAddr":"경상남도 창원시 마산합포구 가포로 789, 덕동시립테니스장 (덕동동)","jibunAddr":"경상남도 창원시 마산합포구 덕동동 692","openHours":"상시","maleToilets":9,"femaleToilets":4,"disabled":true,"diaperTable":false,"emergencyBell":false,"cctv":false,"managerTel":"0557120852","source":"public","category":"public"},{"id":"202356700000100437","name":"전망대주유소","lat":35.137937,"lng":128.57392,"roadAddr":"경상남도창원시마산합포구가포로721(덕동동,주유기)","openHours":"영업시간 내","maleToilets":1,"femaleToilets":1,"disabled":false,"diaperTable":false,"emergencyBell":false,"cctv":true,"source":"public","category":"public"},{"id":"202356700000100450","name":"유산주유소","lat":35.132185,"lng":128.567569,"roadAddr":"경상남도창원시마산합포구구산면구산로784(유산리,유산주유소)","openHours":"영업시간 내","maleToilets":1,"femaleToilets":1,"disabled":false,"diaperTable":false,"emergencyBell":false,"cctv":false,"source":"public","category":"public"},{"id":"202356700000100449","name":"구산파출소 화장실","lat":35.120215,"lng":128.580267,"roadAddr":"경상남도창원시마산합포구구산면구산로562(수정리,구산파출소)","openHours":"근무시간 내","maleToilets":2,"femaleToilets":1,"disabled":false,"diaperTable":false,"emergencyBell":false,"cctv":false,"source":"public","category":"public"},{"id":"202356700000100270","name":"청량산 임도2","lat":35.152355,"lng":128.576163,"jibunAddr":"경상남도창원시마산합포구가포동산128-2","openHours":"상시","maleToilets":2,"femaleToilets":1,"disabled":false,"diaperTable":false,"emergencyBell":true,"cctv":true,"managerTel":"0552204521","source":"public","category":"public"},{"id":"202356700000100448","name":"구산면사무소 화장실","lat":35.119704,"lng":128.580815,"roadAddr":"경상남도창원시마산합포구구산면구산로554(구산면,구산면사무소)","openHours":"근무시간 내","maleToilets":8,"femaleToilets":4,"disabled":true,"diaperTable":false,"emergencyBell":false,"cctv":false,"source":"public","category":"public"},{"id":"202356700000100436","name":"동강주유소","lat":35.143567,"lng":128.580607,"roadAddr":"경상남도창원시마산합포구가포로628(덕동동,동강주유소)","openHours":"영업시간 내","maleToilets":2,"femaleToilets":2,"disabled":false,"diaperTable":false,"emergencyBell":false,"cctv":true,"source":"public","category":"public"},{"id":"202356700000100197","name":"현동물놀이장","lat":35.147277,"lng":128.554977,"roadAddr":"경상남도 창원시 마산합포구 현동로 96, 공중화장실 (현동)","jibunAddr":"경상남도 창원시 마산합포구 현동 1294 공중화장실","openHours":"상시","maleToilets":1,"femaleToilets":1,"disabled":true,"diaperTable":false,"emergencyBell":true,"cctv":false,"source":"public","category":"public"},{"id":"202356700000101008","name":"수정시내버스 환승센터","lat":35.115171,"lng":128.57826,"roadAddr":"경상남도마산합포구구산면석곡로414","openHours":"-","maleToilets":4,"femaleToilets":2,"disabled":false,"diaperTable":false,"emergencyBell":false,"cctv":false,"source":"public","category":"public"}]