[{"id":"202356700000100255","name":"일암다리","lat":35.126309,"lng":128.375041,"roadAddr":"경상남도 창원시 마산합포구 진전면 적석산길 101","jibunAddr":"경상남도 창원시 마산합포구 진전면 일암리 1313-1","openHours":"상시","maleToilets":2,"femaleToilets":1,"disabled":false,"diaperTable":false,"emergencyBell":false,"cctv":false,"managerTel":"0552204521","source":"public","category":"public"},{"id":"202356700000100254","name":"양전교","lat":35.123043,"lng":128.380493,"roadAddr":"경상남도 창원시 마산합포구 진전면 일암1길 90","jibunAddr":"경상남도 창원시 마산합포구 진전면 일암리 1313","openHours":"상시","maleToilets":2,"femaleToilets":1,"disabled":false,"diaperTable":false,"emergencyBell":false,"cctv":false,"managerTel":"0552204521","source":"public","category":"public"},{"id":"202356700000100248","name":"세월교","lat":35.114857,"lng":128.395056,"jibunAddr":"경상남도창원시마산합포구진전면곡안리590-2","openHours":"상시","maleToilets":2,"femaleToilets":1,"disabled":false,"diaperTable":false,"emergencyBell":false,"cctv":false,"managerTel":"0552204521","source":"public","category":"public"},{"id":"202356700000100536","name":"의산보건진료소 화장실","lat":35.146614,"lng":128.370103,"roadAddr":"경상남도 창원시 마산합포구 진전면 의산삼일로 195, 의산보건진료소","jibunAddr":"경상남도 창원시 마산합포구 진전면 고사리 753-4 의산보건진료소","openHours":"정시","maleToilets":1,"femaleToilets":2,"disabled":false,"diaperTable":false,"emergencyBell":false,"cctv":false,"source":"public","category":"public"},{"id":"202356700000100256","name":"적석산공영주차장","lat":35.120342,"lng":128.371836,"roadAddr":"경상남도 창원시 마산합포구 진전면 적석산길 254","jibunAddr":"경상남도 창원시 마산합포구 진전면 일암리 820-1","openHours":"상시","maleToilets":4,"femaleToilets":4,"disabled":false,"diaperTable":false,"emergencyBell":true,"cctv":true,"managerTel":"0552204521","source":"public","category":"public"},{"id":"202356700000100252","name":"거락마을회관옆","lat":35.141551,"lng":128.372004,"roadAddr":"경상남도 창원시 마산합포구 진전면 거락2길 8","jibunAddr":"경상남도 창원시 마산합포구 진전면 고사리 1027-2","openHours":"상시","maleToilets":5,"femaleToilets":4,"disabled":false,"diaperTable":true,"emergencyBell":true,"cctv":true,"managerTel":"0552204521","source":"public","category":"public"},{"id":"202356700000100257","name":"적석산 등산로입구","lat":35.117167,"lng":128.371121,"roadAddr":"경상남도 창원시 마산합포구 진전면 적석산2길 9-3","jibunAddr":"경상남도 창원시 마산합포구 진전면 일암리 981","openHours":"상시","maleToilets":6,"femaleToilets":6,"disabled":false,"diaperTable":false,"emergencyBell":true,"cctv":true,"managerTel":"0552204521","source":"public","category":"public"},{"id":"202356700000100253","name":"거락숲 아래하천","lat":35.141153,"lng":128.371867,"jibunAddr":"경상남도창원시마산합포구진전면고사리1180-13","openHours":"상시","maleToilets":2,"femaleToilets":1,"disabled":false,"diaperTable":false,"emergencyBell":false,"cctv":false,"managerTel":"0552204521","source":"public","category":"public"}]