[{"id":"202454200000100218","name":"송학동고분군 화장실","lat":34.98129,"lng":128.322197,"roadAddr":"경상남도 고성군 고성읍 송학고분로 296","jibunAddr":"경상남도 고성군 고성읍 송학리 468-3","openHours":"상시","maleToilets":1,"femaleToilets":1,"disabled":true,"diaperTable":false,"emergencyBell":true,"cctv":false,"managerTel":"0556702233","source":"public","category":"public"},{"id":"202454200000100332","name":"상하수도사업소 생태학습관(1층, 2층)","lat":34.983765,"lng":128.343683,"roadAddr":"경상남도 고성군 고성읍 동해로 115","jibunAddr":"경상남도 고성군 고성읍 송학리 1-1","openHours":"정시","maleToilets":9,"femaleToilets":5,"disabled":false,"diaperTable":false,"emergencyBell":true,"cctv":false,"managerTel":"0556704418","source":"public","category":"public"},{"id":"202454200000100217","name":"고성여객버스터미널 화장실","lat":34.981551,"lng":128.327154,"roadAddr":"경상남도 고성군 고성읍 송학고분로 339 (송학리)","jibunAddr":"경상남도 고성군 고성읍 송학리 416-2","openHours":"정시","maleToilets":7,"femaleToilets":4,"disabled":true,"diaperTable":false,"emergencyBell":true,"cctv":true,"managerTel":"0556704685","source":"public","category":"public"},{"id":"202454200000100220","name":"농기계임대사업소 본소 화장실","lat":34.996014,"lng":128.325767,"roadAddr":"경상남도 고성군 고성읍 남해안대로 2829-60","jibunAddr":"경상남도 고성군 고성읍 우산리 206-2","openHours":"정시","maleToilets":6,"femaleToilets":2,"disabled":false,"diaperTable":false,"emergencyBell":true,"cctv":false,"managerTel":"0556704237","source":"public","category":"public"},{"id":"202454200000100167","name":"친환경농업연구소 화장실","lat":34.996014,"lng":128.325767,"roadAddr":"경상남도 고성군 고성읍 남해안대로 2829-60","jibunAddr":"경상남도 고성군 고성읍 우산리 206-2","openHours":"정시","maleToilets":9,"femaleToilets":8,"disabled":true,"diaperTable":false,"emergencyBell":false,"cctv":false,"managerTel":"0556704115","source":"public","category":"public"},{"id":"202454200000100201","name":"남부주유소","lat":34.98407,"lng":128.327263,"roadAddr":"경상남도 고성군 고성읍 남해안대로 2719-26","jibunAddr":"경상남도 고성군 고성읍 송학리 366-2","openHours":"정시","maleToilets":3,"femaleToilets":2,"disabled":false,"diaperTable":false,"emergencyBell":false,"cctv":false,"managerTel":"0556730886","source":"public","category":"public"},{"id":"202454200000100333","name":"상하수도사업소 관리동화장실","lat":34.984711,"lng":128.345212,"roadAddr":"경상남도 고성군 고성읍 동해로 121","jibunAddr":"경상남도 고성군 고성읍 송학리 1-1","openHours":"정시","maleToilets":7,"femaleToilets":3,"disabled":true,"diaperTable":false,"emergencyBell":true,"cctv":false,"managerTel":"0556704418","source":"public","category":"public"},{"id":"202454200000100166","name":"농업기술센터 화장실","lat":34.996014,"lng":128.325767,"roadAddr":"경상남도 고성군 고성읍 남해안대로 2829-60","jibunAddr":"경상남도 고성군 고성읍 우산리 206-2","openHours":"정시","maleToilets":4,"femaleToilets":5,"disabled":true,"diaperTable":false,"emergencyBell":false,"cctv":false,"managerTel":"0556704115","source":"public","category":"public"},{"id":"202454200000100331","name":"상하수도사업소 생태학습관(야외)","lat":34.983765,"lng":128.343683,"roadAddr":"경상남도 고성군 고성읍 동해로 115","jibunAddr":"경상남도 고성군 고성읍 송학리 1-1","openHours":"상시","maleToilets":3,"femaleToilets":3,"disabled":false,"diaperTable":false,"emergencyBell":true,"cctv":false,"managerTel":"0556704418","source":"public","category":"public"},{"id":"202454200000100195","name":"부곡졸음쉼터","lat":35.022466,"lng":128.346722,"roadAddr":"경상남도 고성군 마암면 남해안대로","jibunAddr":"경상남도 고성군 마암면 삼락리 산96-20","openHours":"상시","maleToilets":4,"femaleToilets":3,"disabled":false,"diaperTable":false,"emergencyBell":false,"cctv":false,"managerTel":"0556705556","source":"public","category":"public"}]