[{"id":"202653700000100268","name":"아주지구대 1층","lat":34.864642,"lng":128.689753,"roadAddr":"경상남도 거제시 아주로 47, 아주지구대 (아주동)","jibunAddr":"경상남도 거제시 아주동 317-2 아주지구대","openHours":"상시","maleToilets":1,"femaleToilets":0,"disabled":false,"diaperTable":false,"emergencyBell":true,"cctv":false,"source":"public","category":"public"},{"id":"202653700000100123","name":"아주체육공원","lat":34.876837,"lng":128.681211,"jibunAddr":"경상남도 거제시 아주동 산 62","openHours":"상시","maleToilets":2,"femaleToilets":1,"disabled":false,"diaperTable":false,"emergencyBell":false,"cctv":false,"source":"public","category":"public"},{"id":"202653700000100232","name":"아주동주민센터 1층","lat":34.862096,"lng":128.690621,"roadAddr":"경상남도 거제시 탑곡로 73, 아주동주민센터 (아주동)","jibunAddr":"경상남도 거제시 아주동 290 아주동주민센터","openHours":"정시","maleToilets":3,"femaleToilets":3,"disabled":true,"diaperTable":false,"emergencyBell":false,"cctv":false,"source":"public","category":"public"},{"id":"202653700000100305","name":"거제옥포동우체국 1층","lat":34.891207,"lng":128.692594,"roadAddr":"경상남도 거제시 옥포로10길 12, 거제옥포동우체국 (옥포동)","jibunAddr":"경상남도 거제시 옥포동 548-14 거제옥포동우체국","openHours":"미개방","maleToilets":0,"femaleToilets":0,"disabled":false,"diaperTable":false,"emergencyBell":false,"cctv":false,"source":"public","category":"public"},{"id":"202653700000100126","name":"아주천","lat":34.87312,"lng":128.691767,"roadAddr":"경상남도 거제시 거제대로 3528 (아주동)","jibunAddr":"경상남도 거제시 아주동 565","openHours":"상시","maleToilets":3,"femaleToilets":2,"disabled":true,"diaperTable":true,"emergencyBell":true,"cctv":true,"source":"public","category":"public"},{"id":"202653700000100128","name":"옥포항(조라)","lat":34.890537,"lng":128.699378,"roadAddr":"경상남도 거제시 옥포로2길 55 (옥포동)","jibunAddr":"경상남도 거제시 옥포동 1923-1","openHours":"상시","maleToilets":3,"femaleToilets":3,"disabled":false,"diaperTable":false,"emergencyBell":true,"cctv":true,"source":"public","category":"public"},{"id":"202653700000100179","name":"옥림해안","lat":34.849096,"lng":128.714735,"jibunAddr":"경상남도 거제시 일운면 옥림리 363-1","openHours":"상시","maleToilets":2,"femaleToilets":2,"disabled":false,"diaperTable":false,"emergencyBell":false,"cctv":false,"source":"public","category":"public"},{"id":"202653700000100234","name":"옥포1동주민센터 1층","lat":34.890989,"lng":128.692667,"roadAddr":"경상남도 거제시 옥포대첩로4길 34, 옥포1동주민센터 (옥포동)","jibunAddr":"경상남도 거제시 옥포동 548-30 옥포1동주민센터","openHours":"정시","maleToilets":3,"femaleToilets":2,"disabled":true,"diaperTable":false,"emergencyBell":false,"cctv":false,"source":"public","category":"public"},{"id":"202653700000100124","name":"아주해오름공원(아주제3어린이공원)","lat":34.868206,"lng":128.679324,"jibunAddr":"경상남도 거제시 아주동 1672","openHours":"상시","maleToilets":1,"femaleToilets":1,"disabled":true,"diaperTable":true,"emergencyBell":true,"cctv":true,"source":"public","category":"public"},{"id":"202653700000100125","name":"아주게이트볼장","lat":34.86178,"lng":128.689712,"jibunAddr":"경상남도 거제시 아주동 290-13","openHours":"상시","maleToilets":2,"femaleToilets":1,"disabled":false,"diaperTable":false,"emergencyBell":false,"cctv":false,"source":"public","category":"public"},{"id":"202653700000100127","name":"옥포친수공간","lat":34.890497,"lng":128.696594,"roadAddr":"경상남도 거제시 옥포로2길 14 (옥포동)","jibunAddr":"경상남도 거제시 옥포동 1978-1","openHours":"상시","maleToilets":4,"femaleToilets":4,"disabled":true,"diaperTable":true,"emergencyBell":true,"cctv":true,"source":"public","category":"public"}]