[{"id":"202653700000100271","name":"통영해양경찰서 장승포파출소","lat":34.867448,"lng":128.728473,"roadAddr":"경상남도 거제시 장승포로 56-14, 통영해양경찰서 장승포파출소 (장승포동)","jibunAddr":"경상남도 거제시 장승포동 703 통영해양경찰서 장승포파출소","openHours":"09:00~18:00","maleToilets":2,"femaleToilets":1,"disabled":false,"diaperTable":false,"emergencyBell":false,"cctv":false,"source":"public","category":"public"},{"id":"202653700000100258","name":"장승포지구대 1층","lat":34.864411,"lng":128.722818,"roadAddr":"경상남도 거제시 장승로 109, 장승포지구대 (장승포동)","jibunAddr":"경상남도 거제시 장승포동 535-2 장승포지구대","openHours":"상시","maleToilets":2,"femaleToilets":1,"disabled":false,"diaperTable":true,"emergencyBell":false,"cctv":false,"source":"public","category":"public"},{"id":"202653700000100300","name":"장승포우체국 1층","lat":34.866825,"lng":128.730298,"roadAddr":"경상남도 거제시 장승포로 59, 장승포우체국 (장승포동)","jibunAddr":"경상남도 거제시 장승포동 231-2 장승포우체국","openHours":"미개방","maleToilets":2,"femaleToilets":1,"disabled":false,"diaperTable":false,"emergencyBell":false,"cctv":false,"source":"public","category":"public"},{"id":"202653700000100306","name":"거제능포동우체국 1층","lat":34.876567,"lng":128.731505,"roadAddr":"경상남도 거제시 능포로 141, 거제능포동우체국 (능포동)","jibunAddr":"경상남도 거제시 능포동 645-9 거제능포동우체국","openHours":"미개방","maleToilets":0,"femaleToilets":0,"disabled":false,"diaperTable":false,"emergencyBell":false,"cctv":false,"source":"public","category":"public"},{"id":"202653700000100248","name":"장승포동주민센터 1층","lat":34.867271,"lng":128.727127,"roadAddr":"경상남도 거제시 장승로 146-25, 장승포동주민센터 (장승포동)","jibunAddr":"경상남도 거제시 장승포동 702-3 장승포동주민센터","openHours":"09:00~18:00 (휴일제외)","maleToilets":3,"femaleToilets":2,"disabled":true,"diaperTable":false,"emergencyBell":false,"cctv":false,"source":"public","category":"public"},{"id":"202653700000100166","name":"양지암 조각공원","lat":34.880309,"lng":128.738062,"roadAddr":"경상남도 거제시 능포로 194 (능포동)","jibunAddr":"경상남도 거제시 능포동 427-2","openHours":"상시","maleToilets":3,"femaleToilets":3,"disabled":true,"diaperTable":true,"emergencyBell":true,"cctv":true,"source":"public","category":"public"},{"id":"202653700000100164","name":"능포바다낚시터","lat":34.886718,"lng":128.741617,"roadAddr":"경상남도 거제시 능포로16길 55 (능포동)","jibunAddr":"경상남도 거제시 능포동 31-6","openHours":"상시","maleToilets":6,"femaleToilets":3,"disabled":false,"diaperTable":false,"emergencyBell":true,"cctv":false,"source":"public","category":"public"},{"id":"202653700000100173","name":"마전게이트볼장","lat":34.864062,"lng":128.723798,"roadAddr":"경상남도 거제시 마전9길 11 (장승포동)","jibunAddr":"경상남도 거제시 장승포동 685","openHours":"상시","maleToilets":3,"femaleToilets":3,"disabled":true,"diaperTable":true,"emergencyBell":true,"cctv":true,"source":"public","category":"public"},{"id":"202653700000100171","name":"장승포항(지심도 도선)","lat":34.867404,"lng":128.727682,"roadAddr":"경상남도 거제시 장승포로 56-20 (장승포동)","jibunAddr":"경상남도 거제시 장승포동 703-2","openHours":"상시","maleToilets":8,"femaleToilets":8,"disabled":true,"diaperTable":false,"emergencyBell":true,"cctv":true,"source":"public","category":"public"},{"id":"202653700000100229","name":"능포동주민센터 1층","lat":34.879168,"lng":128.734618,"roadAddr":"경상남도 거제시 능포로 182, 능포동주민센터 (능포동)","jibunAddr":"경상남도 거제시 능포동 401-4 능포동주민센터","openHours":"09:00~18:00 (휴일제외)","maleToilets":4,"femaleToilets":4,"disabled":false,"diaperTable":false,"emergencyBell":false,"cctv":false,"source":"public","category":"public"},{"id":"202653700000100169","name":"장승포마을회관","lat":34.863714,"lng":128.73133,"roadAddr":"경상남도 거제시 장승포해안로 9, 장승포동마을회관 (장승포동)","jibunAddr":"경상남도 거제시 장승포동 157-6 장승포동마을회관","openHours":"상시","maleToilets":1,"femaleToilets":0,"disabled":false,"diaperTable":false,"emergencyBell":true,"cctv":true,"source":"public","category":"public"},{"id":"202653700000100163","name":"나잠어업인 쉼터","lat":34.88487,"lng":128.737834,"roadAddr":"경상남도 거제시 능포로 252 (능포동)","jibunAddr":"경상남도 거제시 능포동 480-43","openHours":"상시","maleToilets":0,"femaleToilets":0,"disabled":true,"diaperTable":false,"emergencyBell":true,"cctv":true,"source":"public","category":"public"},{"id":"202653700000100165","name":"능포체육공원","lat":34.884636,"lng":128.742071,"jibunAddr":"경상남도 거제시 능포동 80-1","openHours":"상시","maleToilets":2,"femaleToilets":2,"disabled":false,"diaperTable":false,"emergencyBell":false,"cctv":false,"source":"public","category":"public"},{"id":"202653700000100167","name":"양지암 조각공원 주차장(장미공원)","lat":34.876512,"lng":128.737849,"jibunAddr":"경상남도 거제시 능포동 산 45-42","openHours":"상시","maleToilets":3,"femaleToilets":3,"disabled":true,"diaperTable":true,"emergencyBell":true,"cctv":true,"source":"public","category":"public"},{"id":"202653700000100168","name":"장승포체육공원","lat":34.867321,"lng":128.74069,"jibunAddr":"경상남도 거제시 장승포동 산 1-6","openHours":"상시","maleToilets":2,"femaleToilets":2,"disabled":false,"diaperTable":false,"emergencyBell":false,"cctv":false,"source":"public","category":"public"},{"id":"202653700000100170","name":"신부시장","lat":34.867575,"lng":128.729169,"roadAddr":"경상남도 거제시 장승포로 48 (장승포동)","jibunAddr":"경상남도 거제시 장승포동 703-3","openHours":"상시","maleToilets":5,"femaleToilets":3,"disabled":false,"diaperTable":false,"emergencyBell":true,"cctv":true,"source":"public","category":"public"},{"id":"202653700000100172","name":"장승포차 부속 화장실","lat":34.866966,"lng":128.72591,"roadAddr":"경상남도 거제시 장승로 146-12 (장승포동)","jibunAddr":"경상남도 거제시 장승포동 685-3","openHours":"상시","maleToilets":1,"femaleToilets":1,"disabled":true,"diaperTable":false,"emergencyBell":true,"cctv":true,"source":"public","category":"public"},{"id":"202653700000100174","name":"마전산림공원","lat":34.861184,"lng":128.725641,"roadAddr":"경상남도 거제시 마전7길 19-1 (장승포동)","jibunAddr":"경상남도 거제시 장승포동 550-163","openHours":"상시","maleToilets":1,"femaleToilets":1,"disabled":true,"diaperTable":true,"emergencyBell":true,"cctv":false,"source":"public","category":"public"},{"id":"202653700000100175","name":"마전삼밭공원","lat":34.858368,"lng":128.72306,"jibunAddr":"경상남도 거제시 장승포동 산 73-14","openHours":"상시","maleToilets":2,"femaleToilets":2,"disabled":false,"diaperTable":false,"emergencyBell":false,"cctv":false,"source":"public","category":"public"},{"id":"202653700000100162","name":"능포어촌계 종합상가","lat":34.884966,"lng":128.737385,"roadAddr":"경상남도 거제시 능포로 251, 능포어촌계종합상가 (능포동)","jibunAddr":"경상남도 거제시 능포동 480-50 능포어촌계종합상가","openHours":"상시","maleToilets":7,"femaleToilets":3,"disabled":false,"diaperTable":false,"emergencyBell":true,"cctv":false,"source":"public","category":"public"},{"id":"202653700000100161","name":"능포항 수변공원","lat":34.886467,"lng":128.735621,"roadAddr":"경상남도 거제시 능포로15길 32 (능포동)","jibunAddr":"경상남도 거제시 능포동 564-25","openHours":"상시","maleToilets":3,"femaleToilets":3,"disabled":true,"diaperTable":false,"emergencyBell":true,"cctv":true,"source":"public","category":"public"},{"id":"202653700000100178","name":"옥화마을","lat":34.848647,"lng":128.720772,"roadAddr":"경상남도 거제시 일운면 옥림길 120","jibunAddr":"경상남도 거제시 일운면 옥림리 587-3","openHours":"상시","maleToilets":2,"femaleToilets":2,"disabled":false,"diaperTable":false,"emergencyBell":true,"cctv":true,"source":"public","category":"public"},{"id":"202653700000100177","name":"옥림 유아숲체험원","lat":34.850021,"lng":128.725388,"roadAddr":"경상남도 거제시 마전1길 91, 거제대학 (장승포동)","jibunAddr":"경상남도 거제시 장승포동 654-1 거제대학","openHours":"상시","maleToilets":1,"femaleToilets":1,"disabled":true,"diaperTable":true,"emergencyBell":true,"cctv":true,"source":"public","category":"public"}]