[{"id":"202653700000100278","name":"옥포대첩기념관 1층","lat":34.902196,"lng":128.714059,"roadAddr":"경상남도 거제시 팔랑포2길 87, 옥포대첩기념공원 (옥포동)","jibunAddr":"경상남도 거제시 옥포동 산 1-1 옥포대첩기념공원","openHours":"09:00~18:00","maleToilets":4,"femaleToilets":2,"disabled":false,"diaperTable":false,"emergencyBell":false,"cctv":false,"source":"public","category":"public"},{"id":"202653700000100279","name":"옥포대첩기념공원 하부","lat":34.902196,"lng":128.714059,"roadAddr":"경상남도 거제시 팔랑포2길 87, 옥포대첩기념공원 (옥포동)","jibunAddr":"경상남도 거제시 옥포동 산 1-1 옥포대첩기념공원","openHours":"상시","maleToilets":9,"femaleToilets":4,"disabled":false,"diaperTable":false,"emergencyBell":false,"cctv":false,"source":"public","category":"public"},{"id":"202653700000100294","name":"옥포청소년문화의집","lat":34.894021,"lng":128.696056,"roadAddr":"경상남도 거제시 옥포대첩로 84-1, 청소년문화의집 (옥포동)","jibunAddr":"경상남도 거제시 옥포동 671 청소년문화의집","openHours":"09:00~18:00","maleToilets":10,"femaleToilets":4,"disabled":false,"diaperTable":false,"emergencyBell":true,"cctv":false,"source":"public","category":"public"},{"id":"202653700000100254","name":"거제경찰서 별관2동 1층","lat":34.898977,"lng":128.686705,"roadAddr":"경상남도 거제시 진목1길 2, 거제경찰서 (옥포동)","jibunAddr":"경상남도 거제시 옥포동 1284-2 거제경찰서","openHours":"09:00~18:00","maleToilets":0,"femaleToilets":2,"disabled":false,"diaperTable":false,"emergencyBell":false,"cctv":false,"source":"public","category":"public"},{"id":"202653700000100280","name":"옥포대첩기념공원 상부","lat":34.902196,"lng":128.714059,"roadAddr":"경상남도 거제시 팔랑포2길 87, 옥포대첩기념공원 (옥포동)","jibunAddr":"경상남도 거제시 옥포동 산 1-1 옥포대첩기념공원","openHours":"09:00~17:00","maleToilets":9,"femaleToilets":4,"disabled":false,"diaperTable":false,"emergencyBell":false,"cctv":false,"source":"public","category":"public"},{"id":"202653700000100251","name":"거제경찰서 본관 1층","lat":34.898977,"lng":128.686705,"roadAddr":"경상남도 거제시 진목1길 2, 거제경찰서 (옥포동)","jibunAddr":"경상남도 거제시 옥포동 1284-2 거제경찰서","openHours":"09:00~18:00","maleToilets":6,"femaleToilets":1,"disabled":true,"diaperTable":false,"emergencyBell":false,"cctv":false,"source":"public","category":"public"},{"id":"202653700000100269","name":"옥포지구대 1층","lat":34.89547,"lng":128.692996,"roadAddr":"경상남도 거제시 옥포로22길 21, 거제경찰서옥포지구대 (옥포동)","jibunAddr":"경상남도 거제시 옥포동 520-24 거제경찰서옥포지구대","openHours":"상시","maleToilets":2,"femaleToilets":1,"disabled":false,"diaperTable":false,"emergencyBell":false,"cctv":false,"source":"public","category":"public"},{"id":"202653700000100252","name":"거제경찰서 교통민원관 1층","lat":34.898977,"lng":128.686705,"roadAddr":"경상남도 거제시 진목1길 2, 거제경찰서 (옥포동)","jibunAddr":"경상남도 거제시 옥포동 1284-2 거제경찰서","openHours":"09:00~18:00","maleToilets":6,"femaleToilets":3,"disabled":true,"diaperTable":false,"emergencyBell":false,"cctv":false,"source":"public","category":"public"},{"id":"202653700000100253","name":"거제경찰서 별관1동 1층","lat":34.898977,"lng":128.686705,"roadAddr":"경상남도 거제시 진목1길 2, 거제경찰서 (옥포동)","jibunAddr":"경상남도 거제시 옥포동 1284-2 거제경찰서","openHours":"09:00~18:00","maleToilets":1,"femaleToilets":0,"disabled":false,"diaperTable":false,"emergencyBell":false,"cctv":false,"source":"public","category":"public"},{"id":"202653700000100246","name":"옥포도서관 1층","lat":34.897044,"lng":128.687552,"roadAddr":"경상남도 거제시 진목로 20, 거제시립옥포도서관 (옥포동)","jibunAddr":"경상남도 거제시 옥포동 1291-6 거제시립옥포도서관","openHours":"09:00~18:00 (휴일제외)","maleToilets":3,"femaleToilets":3,"disabled":false,"diaperTable":false,"emergencyBell":false,"cctv":false,"source":"public","category":"public"},{"id":"202653700000100132","name":"옥포중앙공원","lat":34.893756,"lng":128.702813,"roadAddr":"경상남도 거제시 옥포대첩로 128 (옥포동)","jibunAddr":"경상남도 거제시 옥포동 산 71-26","openHours":"상시","maleToilets":4,"femaleToilets":4,"disabled":false,"diaperTable":true,"emergencyBell":true,"cctv":true,"source":"public","category":"public"},{"id":"202653700000100133","name":"덕포해수욕장","lat":34.911054,"lng":128.710407,"roadAddr":"경상남도 거제시 덕포5길 32-4 (덕포동)","jibunAddr":"경상남도 거제시 덕포동 365-15","openHours":"상시","maleToilets":6,"femaleToilets":5,"disabled":false,"diaperTable":true,"emergencyBell":true,"cctv":true,"source":"public","category":"public"},{"id":"202653700000100131","name":"옥포중앙시장","lat":34.893964,"lng":128.690498,"roadAddr":"경상남도 거제시 옥포로 215, 중앙시장 (옥포동)","jibunAddr":"경상남도 거제시 옥포동 529-8 중앙시장","openHours":"상시","maleToilets":3,"femaleToilets":2,"disabled":false,"diaperTable":false,"emergencyBell":true,"cctv":false,"source":"public","category":"public"},{"id":"202653700000100244","name":"옥포2동주민센터 1층","lat":34.896647,"lng":128.687571,"roadAddr":"경상남도 거제시 옥포로25길 20, 옥포2동주민센터 (옥포동)","jibunAddr":"경상남도 거제시 옥포동 1291-7 옥포2동주민센터","openHours":"09:00~18:00 (휴일제외)","maleToilets":4,"femaleToilets":2,"disabled":true,"diaperTable":false,"emergencyBell":false,"cctv":false,"source":"public","category":"public"},{"id":"202653700000100245","name":"옥포2동주민자칫센터 1층","lat":34.896563,"lng":128.688273,"roadAddr":"경상남도 거제시 옥포로25길 16 (옥포동)","jibunAddr":"경상남도 거제시 옥포동 1291-1","openHours":"09:00~18:00 (휴일제외)","maleToilets":4,"femaleToilets":2,"disabled":false,"diaperTable":false,"emergencyBell":false,"cctv":false,"source":"public","category":"public"},{"id":"202653700000100031","name":"대계마을","lat":34.930618,"lng":128.714722,"roadAddr":"경상남도 거제시 장목면 옥포대첩로 735","jibunAddr":"경상남도 거제시 장목면 외포리 1337","openHours":"상시","maleToilets":5,"femaleToilets":4,"disabled":true,"diaperTable":true,"emergencyBell":true,"cctv":true,"source":"public","category":"public"},{"id":"202653700000100130","name":"옥포국제시장","lat":34.894365,"lng":128.689541,"roadAddr":"경상남도 거제시 옥포로19길 12-1 (옥포동)","jibunAddr":"경상남도 거제시 옥포동 525-19","openHours":"상시","maleToilets":2,"femaleToilets":2,"disabled":false,"diaperTable":false,"emergencyBell":true,"cctv":false,"source":"public","category":"public"},{"id":"202653700000100129","name":"진목정","lat":34.900035,"lng":128.686837,"roadAddr":"경상남도 거제시 옥포로 296-8, 시립테니스장 (옥포동)","jibunAddr":"경상남도 거제시 옥포동 1285 시립테니스장","openHours":"상시","maleToilets":2,"femaleToilets":1,"disabled":false,"diaperTable":false,"emergencyBell":true,"cctv":true,"source":"public","category":"public"},{"id":"202653700000100134","name":"덕포 펭귄","lat":34.91287,"lng":128.714129,"roadAddr":"경상남도 거제시 덕포5길 69 (덕포동)","jibunAddr":"경상남도 거제시 덕포동 81-1","openHours":"상시","maleToilets":6,"femaleToilets":5,"disabled":true,"diaperTable":true,"emergencyBell":true,"cctv":true,"source":"public","category":"public"},{"id":"202653700000100135","name":"팔랑포마을","lat":34.899691,"lng":128.708187,"jibunAddr":"경상남도 거제시 옥포동 66-3","openHours":"상시","maleToilets":1,"femaleToilets":1,"disabled":true,"diaperTable":true,"emergencyBell":true,"cctv":true,"source":"public","category":"public"},{"id":"202653700000100029","name":"소계마을 하수처리장","lat":34.936002,"lng":128.714628,"roadAddr":"경상남도 거제시 장목면 옥포대첩로 836-25","jibunAddr":"경상남도 거제시 장목면 외포리 1189","openHours":"상시","maleToilets":1,"femaleToilets":1,"disabled":false,"diaperTable":false,"emergencyBell":true,"cctv":false,"source":"public","category":"public"}]