[{"id":"202633600000100014","name":"낙동아트센터 3층(콘서트홀)","lat":35.102095,"lng":128.903988,"roadAddr":"부산광역시 강서구 명지국제1로 141 (명지동)","jibunAddr":"부산광역시 강서구 명지동 630-8","openHours":"불규칙","maleToilets":5,"femaleToilets":10,"disabled":true,"diaperTable":false,"emergencyBell":false,"cctv":false,"managerTel":"0519702705","source":"public","category":"public"},{"id":"202633600000100012","name":"낙동아트센터 1층(앙상블극장)","lat":35.102095,"lng":128.903988,"roadAddr":"부산광역시 강서구 명지국제1로 141 (명지동)","jibunAddr":"부산광역시 강서구 명지동 630-8","openHours":"불규칙","maleToilets":3,"femaleToilets":2,"disabled":true,"diaperTable":false,"emergencyBell":false,"cctv":false,"managerTel":"0519702705","source":"public","category":"public"},{"id":"202633600000100013","name":"낙동아트센터 2층(콘서트홀)","lat":35.102095,"lng":128.903988,"roadAddr":"부산광역시 강서구 명지국제1로 141 (명지동)","jibunAddr":"부산광역시 강서구 명지동 630-8","openHours":"불규칙","maleToilets":3,"femaleToilets":6,"disabled":true,"diaperTable":false,"emergencyBell":true,"cctv":false,"source":"public","category":"public"},{"id":"202633600000100019","name":"수산자원연구소 사무연구동 화장실","lat":35.088498,"lng":128.910682,"roadAddr":"부산광역시 강서구 명지오션시티7로 12, 수산자원연구소 (명지동)","jibunAddr":"부산광역시 강서구 명지동 3247-1 수산자원연구소","openHours":"정시","maleToilets":4,"femaleToilets":3,"disabled":false,"diaperTable":false,"emergencyBell":false,"cctv":false,"managerTel":"0512900917","source":"public","category":"public"},{"id":"202433600000100206","name":"국회부산도서관 화장실","lat":35.103513,"lng":128.904397,"roadAddr":"부산광역시 강서구 명지국제1로 161 (명지동)","jibunAddr":"부산광역시 강서구 명지동 3633","openHours":"정시","maleToilets":30,"femaleToilets":35,"disabled":true,"diaperTable":false,"emergencyBell":true,"cctv":false,"managerTel":"0516088122","source":"public","category":"public"},{"id":"202433600000100020","name":"명지오션시티 서편","lat":35.086741,"lng":128.895935,"roadAddr":"부산광역시 강서구 명지오션시티1로 28, 명지오션시티 서편 공중화장실 (명지동)","jibunAddr":"부산광역시 강서구 명지동 3302 명지오션시티 서편 공중화장실","openHours":"상시","maleToilets":1,"femaleToilets":1,"disabled":true,"diaperTable":false,"emergencyBell":true,"cctv":false,"managerTel":"0519704612","source":"public","category":"public"},{"id":"202433600000100037","name":"명지75광장(게이트볼장)","lat":35.093034,"lng":128.923189,"roadAddr":"부산광역시 강서구 을숙도대로 150, 명지동75광장(게이트볼장) 공중화장실 (명지동)","jibunAddr":"부산광역시 강서구 명지동 2745-5 명지동75광장(게이트볼장) 공중화장실","openHours":"상시","maleToilets":2,"femaleToilets":1,"disabled":false,"diaperTable":false,"emergencyBell":true,"cctv":false,"managerTel":"0519704612","source":"public","category":"public"},{"id":"202433600000100100","name":"강서기적의도서관","lat":35.086163,"lng":128.904741,"roadAddr":"부산광역시 강서구 명지오션시티10로 80, 강서기적의도서관 (명지동)","jibunAddr":"부산광역시 강서구 명지동 3247 강서기적의도서관","openHours":"정시","maleToilets":7,"femaleToilets":4,"disabled":true,"diaperTable":true,"emergencyBell":false,"cctv":false,"managerTel":"0519702378","source":"public","category":"public"},{"id":"202433600000100185","name":"연결녹지4호2","lat":35.094143,"lng":128.921469,"roadAddr":"부산광역시 강서구 명지국제6로 206 (명지동)","jibunAddr":"부산광역시 강서구 명지동 3667","openHours":"상시","maleToilets":3,"femaleToilets":3,"disabled":true,"diaperTable":false,"emergencyBell":true,"cctv":false,"managerTel":"0519704536","source":"public","category":"public"},{"id":"202433600000100184","name":"연결녹지4호1","lat":35.089573,"lng":128.909707,"roadAddr":"부산광역시 강서구 르노삼성대로 381 (명지동)","jibunAddr":"부산광역시 강서구 명지동 3606","openHours":"상시","maleToilets":0,"femaleToilets":1,"disabled":true,"diaperTable":false,"emergencyBell":true,"cctv":false,"managerTel":"0519704536","source":"public","category":"public"},{"id":"202433600000100202","name":"부산해양경찰서\n명지파출소","lat":35.106575,"lng":128.931346,"roadAddr":"부산광역시 강서구 명지새동네길2번길 56-1, 부산해양경찰서 명지파출소 (명지동)","jibunAddr":"부산광역시 강서구 명지동 3221-4 부산해양경찰서 명지파출소","openHours":"상시","maleToilets":3,"femaleToilets":2,"disabled":false,"diaperTable":false,"emergencyBell":false,"cctv":true,"managerTel":"0516642525","source":"public","category":"public"},{"id":"202433600000100025","name":"명지동75호광장(테니스장)","lat":35.093091,"lng":128.923631,"roadAddr":"부산광역시 강서구 을숙도대로 152, 명지동75호광장(테니스장) 공중화장실 (명지동)","jibunAddr":"부산광역시 강서구 명지동 2744-5 명지동75호광장(테니스장) 공중화장실","openHours":"상시","maleToilets":2,"femaleToilets":3,"disabled":false,"diaperTable":false,"emergencyBell":true,"cctv":false,"managerTel":"0519704612","source":"public","category":"public"},{"id":"202433600000100130","name":"명지2동행정복지센터","lat":35.084563,"lng":128.900069,"roadAddr":"부산광역시 강서구 명지오션시티11로 35, 명지2동 행정복지센터 (명지동)","jibunAddr":"부산광역시 강서구 명지동 3232-5 명지2동 행정복지센터","openHours":"정시","maleToilets":9,"femaleToilets":9,"disabled":true,"diaperTable":true,"emergencyBell":false,"cctv":false,"managerTel":"0519702981","source":"public","category":"public"},{"id":"202433600000100154","name":"수산자원연구소 휴게동","lat":35.088498,"lng":128.910682,"roadAddr":"부산광역시 강서구 명지오션시티7로 12, 수산자원연구소 (명지동)","jibunAddr":"부산광역시 강서구 명지동 3247-1 수산자원연구소","openHours":"상시","maleToilets":4,"femaleToilets":7,"disabled":true,"diaperTable":true,"emergencyBell":false,"cctv":false,"managerTel":"0512900917","source":"public","category":"public"},{"id":"202433600000100054","name":"대양석유(주) 한마음주유소","lat":35.101628,"lng":128.928728,"roadAddr":"부산광역시 강서구 르노삼성대로 604 (명지동)","jibunAddr":"부산광역시 강서구 명지동 1269-1","openHours":"정시","maleToilets":3,"femaleToilets":1,"disabled":false,"diaperTable":false,"emergencyBell":false,"cctv":false,"managerTel":"0512712452","source":"public","category":"public"},{"id":"202433600000100038","name":"명지오션시티 남쪽","lat":35.079225,"lng":128.903675,"roadAddr":"부산광역시 강서구 명지오션시티1로 170, 명지오션시티 남쪽 공중화장실 (명지동)","jibunAddr":"부산광역시 강서구 명지동 3306 명지오션시티 남쪽 공중화장실","openHours":"상시","maleToilets":2,"femaleToilets":2,"disabled":true,"diaperTable":false,"emergencyBell":true,"cctv":false,"managerTel":"0519704612","source":"public","category":"public"},{"id":"202433600000100209","name":"명지공원2(관리사무실)","lat":35.086163,"lng":128.904741,"roadAddr":"부산광역시 강서구 명지오션시티10로 80, 강서기적의도서관 (명지동)","jibunAddr":"부산광역시 강서구 명지동 3247 강서기적의도서관","openHours":"상시","maleToilets":13,"femaleToilets":9,"disabled":true,"diaperTable":false,"emergencyBell":true,"cctv":false,"managerTel":"0519704536","source":"public","category":"public"},{"id":"202433600000100183","name":"울림공원모래놀이터","lat":35.103687,"lng":128.92754,"roadAddr":"부산광역시 강서구 명지국제6로318번길 29 (명지동)","jibunAddr":"부산광역시 강서구 명지동 3392","openHours":"상시","maleToilets":4,"femaleToilets":4,"disabled":true,"diaperTable":false,"emergencyBell":true,"cctv":false,"managerTel":"0519704536","source":"public","category":"public"},{"id":"202633600000100015","name":"낙동아트센터 2층(앙상블극장)","lat":35.102095,"lng":128.903988,"roadAddr":"부산광역시 강서구 명지국제1로 141 (명지동)","jibunAddr":"부산광역시 강서구 명지동 630-8","openHours":"불규칙","maleToilets":5,"femaleToilets":8,"disabled":true,"diaperTable":false,"emergencyBell":false,"cctv":false,"managerTel":"0519702705","source":"public","category":"public"},{"id":"202433600000100162","name":"명지농협주유소","lat":35.098691,"lng":128.927711,"roadAddr":"부산광역시 강서구 르노삼성대로 572 (명지동)","jibunAddr":"부산광역시 강서구 명지동 1526-4","openHours":"정시","maleToilets":3,"femaleToilets":2,"disabled":false,"diaperTable":false,"emergencyBell":false,"cctv":false,"managerTel":"0512948528","source":"public","category":"public"},{"id":"202433600000100196","name":"너울공원","lat":35.095814,"lng":128.925039,"roadAddr":"부산광역시 강서구 명지국제6로220번길 30 (명지동)","jibunAddr":"부산광역시 강서구 명지동 3439","openHours":"상시","maleToilets":6,"femaleToilets":6,"disabled":true,"diaperTable":false,"emergencyBell":true,"cctv":false,"managerTel":"0519704536","source":"public","category":"public"},{"id":"202433600000100167","name":"명지지구대","lat":35.093931,"lng":128.908626,"roadAddr":"부산광역시 강서구 명지국제2로28번길 13, 부산강서경찰서 명지파출소 (명지동)","jibunAddr":"부산광역시 강서구 명지동 3602-4 부산강서경찰서 명지파출소","openHours":"상시","maleToilets":2,"femaleToilets":1,"disabled":true,"diaperTable":false,"emergencyBell":false,"cctv":true,"managerTel":"0512900323","source":"public","category":"public"},{"id":"202433600000100019","name":"철새탐조대","lat":35.083806,"lng":128.911957,"roadAddr":"부산광역시 강서구 명지오션시티1로 282, 철새탐조대 공중화장실 (명지동)","jibunAddr":"부산광역시 강서구 명지동 3308-3 철새탐조대 공중화장실","openHours":"상시","maleToilets":4,"femaleToilets":3,"disabled":false,"diaperTable":false,"emergencyBell":true,"cctv":false,"managerTel":"0519704612","source":"public","category":"public"},{"id":"202433600000100186","name":"울림공원(물놀이장)","lat":35.099009,"lng":128.925989,"roadAddr":"부산광역시 강서구 명지국제6로318번길 77, 울림공원 관리사무소 (명지동)","jibunAddr":"부산광역시 강서구 명지동 3392 울림공원 관리사무소","openHours":"상시","maleToilets":4,"femaleToilets":4,"disabled":false,"diaperTable":false,"emergencyBell":true,"cctv":true,"managerTel":"0519704536","source":"public","category":"public"},{"id":"202433600000100050","name":"신명지에너지","lat":35.097554,"lng":128.927351,"roadAddr":"부산광역시 강서구 르노삼성대로 560 (명지동)","jibunAddr":"부산광역시 강서구 명지동 1498-2","openHours":"상시","maleToilets":2,"femaleToilets":0,"disabled":false,"diaperTable":false,"emergencyBell":false,"cctv":false,"managerTel":"0512712464","source":"public","category":"public"},{"id":"202433600000100278","name":"명지1동행정복지센터","lat":35.100129,"lng":128.907044,"roadAddr":"부산광역시 강서구 명지국제8로 131, 명지1동 행정복지센터 (명지동)","jibunAddr":"부산광역시 강서구 명지동 3689 명지1동 행정복지센터","openHours":"정시","maleToilets":11,"femaleToilets":14,"disabled":true,"diaperTable":false,"emergencyBell":false,"cctv":false,"managerTel":"0519704655","source":"public","category":"public"},{"id":"202433600000100188","name":"명지공원1(운동장)","lat":35.086163,"lng":128.904741,"roadAddr":"부산광역시 강서구 명지오션시티10로 80, 강서기적의도서관 (명지동)","jibunAddr":"부산광역시 강서구 명지동 3247 강서기적의도서관","openHours":"상시","maleToilets":6,"femaleToilets":6,"disabled":true,"diaperTable":false,"emergencyBell":true,"cctv":false,"managerTel":"0519704536","source":"public","category":"public"},{"id":"202433600000100055","name":"GS칼텍스 동성셀프주유소","lat":35.097462,"lng":128.922527,"roadAddr":"부산광역시 강서구 명지국제8로 272 (명지동)","jibunAddr":"부산광역시 강서구 명지동 3420-8","openHours":"정시","maleToilets":2,"femaleToilets":1,"disabled":false,"diaperTable":false,"emergencyBell":false,"cctv":false,"managerTel":"0512920895","source":"public","category":"public"},{"id":"202433600000100192","name":"바다공원","lat":35.08735,"lng":128.899607,"roadAddr":"부산광역시 강서구 명지오션시티2로 17 (명지동)","jibunAddr":"부산광역시 강서구 명지동 3229-21","openHours":"상시","maleToilets":6,"femaleToilets":2,"disabled":true,"diaperTable":false,"emergencyBell":true,"cctv":false,"managerTel":"0519704536","source":"public","category":"public"},{"id":"202433600000100099","name":"부산지방검찰청서부지청민원실","lat":35.097368,"lng":128.908546,"roadAddr":"부산광역시 강서구 명지국제7로 67 (명지동)","jibunAddr":"부산광역시 강서구 명지동 3600-1","openHours":"정시","maleToilets":6,"femaleToilets":6,"disabled":true,"diaperTable":true,"emergencyBell":true,"cctv":true,"managerTel":"0515204545","source":"public","category":"public"},{"id":"202433600000100205","name":"부산강서세무서 공중화장실","lat":35.096624,"lng":128.906158,"roadAddr":"부산광역시 강서구 명지국제7로 44, 퍼스트월드 브라이튼 (명지동)","jibunAddr":"부산광역시 강서구 명지동 3595-2 퍼스트월드 브라이튼","openHours":"정시","maleToilets":4,"femaleToilets":4,"disabled":true,"diaperTable":false,"emergencyBell":false,"cctv":false,"managerTel":"0517409246","source":"public","category":"public"},{"id":"202433600000100135","name":"명지노인종합복지관 화장실","lat":35.110564,"lng":128.923047,"roadAddr":"부산광역시 강서구 명지국제13로 33, 명지노인종합복지관 (명지동)","jibunAddr":"부산광역시 강서구 명지동 3321-3 명지노인종합복지관","openHours":"정시","maleToilets":9,"femaleToilets":6,"disabled":true,"diaperTable":false,"emergencyBell":true,"cctv":true,"managerTel":"0517127000","source":"public","category":"public"},{"id":"202633600000100011","name":"낙동아트센터 1층 (중앙복도)","lat":35.102095,"lng":128.903988,"roadAddr":"부산광역시 강서구 명지국제1로 141 (명지동)","jibunAddr":"부산광역시 강서구 명지동 630-8","openHours":"불규칙","maleToilets":1,"femaleToilets":5,"disabled":true,"diaperTable":true,"emergencyBell":true,"cctv":true,"managerTel":"0519702705","source":"public","category":"public"},{"id":"202433600000100138","name":"광식석유 명지주유소","lat":35.089408,"lng":128.897443,"roadAddr":"부산광역시 강서구 르노삼성대로 372 (명지동)","jibunAddr":"부산광역시 강서구 명지동 3227-1","openHours":"상시","maleToilets":3,"femaleToilets":1,"disabled":false,"diaperTable":false,"emergencyBell":false,"cctv":false,"managerTel":"0512714405","source":"public","category":"public"}]