[{"id":"202532600000100301","name":"서대신4동주민센터","lat":35.119226,"lng":129.011775,"roadAddr":"부산광역시 서구 꽃마을로 58, 서대신4동주민센터 (서대신동3가)","jibunAddr":"부산광역시 서구 서대신동3가 769-2 서대신4동주민센터","openHours":"정시","maleToilets":3,"femaleToilets":4,"disabled":true,"diaperTable":true,"emergencyBell":true,"cctv":false,"managerTel":"0512406501","source":"public","category":"public"},{"id":"202532600000100269","name":"구덕청소년 수련관","lat":35.12555,"lng":129.009693,"roadAddr":"부산광역시 서구 꽃마을로156번길 109, 구덕청소년수련관 (서대신동3가)","jibunAddr":"부산광역시 서구 서대신동3가 750 구덕청소년수련관","openHours":"정시","maleToilets":27,"femaleToilets":11,"disabled":true,"diaperTable":false,"emergencyBell":false,"cctv":false,"managerTel":"0512403523","source":"public","category":"public"},{"id":"202532600000100259","name":"대신공원 관리사무실 뒤","lat":35.121654,"lng":129.014783,"roadAddr":"부산광역시 서구 보수대로320번길 59 (서대신동3가)","jibunAddr":"부산광역시 서구 서대신동3가 산 2-1","openHours":"상시","maleToilets":6,"femaleToilets":3,"disabled":true,"diaperTable":false,"emergencyBell":true,"cctv":false,"managerTel":"16708205","source":"public","category":"public"},{"id":"202532600000100316","name":"동대신3동주민센터","lat":35.114417,"lng":129.01726,"roadAddr":"부산광역시 서구 대영로73번길 92, 동대신3동주민센터 (동대신동3가)","jibunAddr":"부산광역시 서구 동대신동3가 329-1 동대신3동주민센터","openHours":"정시","maleToilets":4,"femaleToilets":4,"disabled":true,"diaperTable":false,"emergencyBell":false,"cctv":false,"managerTel":"0512406447","source":"public","category":"public"},{"id":"202532600000100311","name":"서부교육청","lat":35.117162,"lng":129.012014,"roadAddr":"부산광역시 서구 꽃마을로 33, 부산서부교육청 (서대신동3가)","jibunAddr":"부산광역시 서구 서대신동3가 163-2 부산서부교육청","openHours":"정시","maleToilets":20,"femaleToilets":12,"disabled":false,"diaperTable":false,"emergencyBell":false,"cctv":false,"managerTel":"0512500500","source":"public","category":"public"},{"id":"202532600000100343","name":"구덕야영장","lat":35.121654,"lng":129.014783,"roadAddr":"부산광역시 서구 보수대로320번길 59","jibunAddr":"부산광역시 서구 서대신3가산2-1","openHours":"정시","maleToilets":7,"femaleToilets":5,"disabled":true,"diaperTable":true,"emergencyBell":true,"cctv":false,"managerTel":"0512403523","source":"public","category":"public"},{"id":"202532600000100338","name":"내원정사 옆","lat":35.121654,"lng":129.014783,"roadAddr":"부산광역시 서구 보수대로320번길 59","jibunAddr":"부산광역시 서구 서대신3가 산 2-1","openHours":"상시","maleToilets":2,"femaleToilets":2,"disabled":false,"diaperTable":false,"emergencyBell":true,"cctv":false,"managerTel":"0512404442","source":"public","category":"public"},{"id":"202532600000100341","name":"구덕문화공원(주차장)","lat":35.126413,"lng":129.005743,"roadAddr":"부산광역시 서구 꽃마을로163번길 73, 구덕문화공원 (서대신동3가)","jibunAddr":"부산광역시 서구 서대신동3가 산 18-15 구덕문화공원","openHours":"상시","maleToilets":4,"femaleToilets":3,"disabled":true,"diaperTable":false,"emergencyBell":true,"cctv":false,"managerTel":"0512403521","source":"public","category":"public"},{"id":"202532600000100258","name":"대신공원 민속예술관 옆","lat":35.121289,"lng":129.015947,"roadAddr":"부산광역시 서구 대신공원로 37-20 (서대신동3가)","jibunAddr":"부산광역시 서구 서대신동3가 61-24","openHours":"상시","maleToilets":8,"femaleToilets":4,"disabled":true,"diaperTable":false,"emergencyBell":true,"cctv":false,"managerTel":"16708206","source":"public","category":"public"},{"id":"202532600000100300","name":"구덕도서관","lat":35.121682,"lng":129.016897,"roadAddr":"부산광역시 서구 대신공원로 41, 부산광역시립구덕도서관 (서대신동3가)","jibunAddr":"부산광역시 서구 서대신동3가 산 2-3 부산광역시립구덕도서관","openHours":"정시","maleToilets":12,"femaleToilets":5,"disabled":true,"diaperTable":false,"emergencyBell":false,"cctv":false,"managerTel":"0512203800","source":"public","category":"public"},{"id":"202532600000100309","name":"구덕우편취급국","lat":35.117735,"lng":129.012289,"roadAddr":"부산광역시 서구 꽃마을로 42 (서대신동3가)","jibunAddr":"부산광역시 서구 서대신동3가 153-15","openHours":"정시","maleToilets":2,"femaleToilets":1,"disabled":false,"diaperTable":false,"emergencyBell":false,"cctv":false,"managerTel":"0512432006","source":"public","category":"public"},{"id":"202532600000100320","name":"서대신3동주민센터","lat":35.113467,"lng":129.011937,"roadAddr":"부산광역시 서구 대신로 27, 서대신3동주민센터 (서대신동3가)","jibunAddr":"부산광역시 서구 서대신동3가 609 서대신3동주민센터","openHours":"정시","maleToilets":6,"femaleToilets":3,"disabled":false,"diaperTable":false,"emergencyBell":false,"cctv":true,"managerTel":"0512406481","source":"public","category":"public"},{"id":"202532600000100281","name":"실버웰요양센터 화장실","lat":35.112634,"lng":129.008502,"roadAddr":"부산광역시 서구 시약로 35 (서대신동3가, 실버웰)","jibunAddr":"부산광역시 서구 서대신동3가 686-4 실버웰","openHours":"정시","maleToilets":3,"femaleToilets":3,"disabled":false,"diaperTable":false,"emergencyBell":false,"cctv":false,"managerTel":"0512428050","source":"public","category":"public"},{"id":"202532600000100245","name":"구덕운동장 주경기장 26호","lat":35.116596,"lng":129.01453,"roadAddr":"부산광역시 서구 망양로 57, 구덕운동장 (서대신동3가)","jibunAddr":"부산광역시 서구 서대신동3가 210-1 구덕운동장","openHours":"정시","maleToilets":8,"femaleToilets":1,"disabled":true,"diaperTable":false,"emergencyBell":true,"cctv":false,"managerTel":"0516022236","source":"public","category":"public"},{"id":"202532600000100340","name":"구덕문화공원(인공폭포 앞)","lat":35.126413,"lng":129.005743,"roadAddr":"부산광역시 서구 꽃마을로163번길 73, 구덕문화공원 (서대신동3가)","jibunAddr":"부산광역시 서구 서대신동3가 산 18-15 구덕문화공원","openHours":"상시","maleToilets":2,"femaleToilets":2,"disabled":true,"diaperTable":true,"emergencyBell":true,"cctv":false,"managerTel":"0512403521","source":"public","category":"public"},{"id":"202532600000100257","name":"대신공원 매점 옆","lat":35.121041,"lng":129.01569,"roadAddr":"부산광역시 서구 대신공원로 37-23 (서대신동3가)","jibunAddr":"부산광역시 서구 서대신동3가 61-29","openHours":"상시","maleToilets":9,"femaleToilets":7,"disabled":true,"diaperTable":true,"emergencyBell":true,"cctv":false,"managerTel":"16708207","source":"public","category":"public"},{"id":"202532600000100246","name":"구덕운동장 체육공원","lat":35.116596,"lng":129.01453,"roadAddr":"부산광역시 서구 망양로 57, 구덕운동장 (서대신동3가)","jibunAddr":"부산광역시 서구 서대신동3가 210-1 구덕운동장","openHours":"상시","maleToilets":3,"femaleToilets":4,"disabled":true,"diaperTable":false,"emergencyBell":true,"cctv":true,"managerTel":"0516022215","source":"public","category":"public"},{"id":"202532600000100329","name":"구덕지구대","lat":35.116957,"lng":129.017249,"roadAddr":"부산광역시 서구 보수대로 258-5, 동대치안센터 (동대신동3가)","jibunAddr":"부산광역시 서구 동대신동3가 100-2 동대치안센터","openHours":"상시","maleToilets":2,"femaleToilets":1,"disabled":false,"diaperTable":false,"emergencyBell":false,"cctv":false,"managerTel":"0515400151","source":"public","category":"public"},{"id":"202532600000100296","name":"부산국민체육센터","lat":35.117324,"lng":129.01577,"roadAddr":"부산광역시 서구 대신로 150, 부산국민체육센터 (서대신동3가)","jibunAddr":"부산광역시 서구 서대신동3가 210-3 부산국민체육센터","openHours":"정시","maleToilets":17,"femaleToilets":11,"disabled":false,"diaperTable":false,"emergencyBell":false,"cctv":false,"managerTel":"0512535959","source":"public","category":"public"},{"id":"202532600000100331","name":"꽃마을","lat":35.127286,"lng":129.006984,"roadAddr":"부산광역시 서구 꽃마을로 159(서대신동3가)","jibunAddr":"부산광역시 서구 서대신동3가 7-32","openHours":"상시","maleToilets":5,"femaleToilets":3,"disabled":false,"diaperTable":false,"emergencyBell":true,"cctv":false,"managerTel":"0512404442","source":"public","category":"public"},{"id":"202532600000100317","name":"동대신2동주민센터","lat":35.112963,"lng":129.023224,"roadAddr":"부산광역시 서구 보동길275번길 9, 동대신2동주민센터 (동대신동2가)","jibunAddr":"부산광역시 서구 동대신동2가 144-3 동대신2동주민센터","openHours":"정시","maleToilets":2,"femaleToilets":2,"disabled":false,"diaperTable":false,"emergencyBell":false,"cctv":false,"managerTel":"0512406421","source":"public","category":"public"},{"id":"202432900000101047","name":"개금1동주민센터","lat":35.152691,"lng":129.021908,"roadAddr":"부산광역시 부산진구 가야대로454번길 9","jibunAddr":"부산광역시 부산진구 개금동 503-18","openHours":"정시","maleToilets":5,"femaleToilets":5,"disabled":true,"diaperTable":false,"emergencyBell":false,"cctv":false,"source":"public","category":"public"},{"id":"202432900000101142","name":"부산진구종합사회복지관","lat":35.142611,"lng":129.020163,"roadAddr":"부산광역시 부산진구 복지로 117-12, 부산진구종합사회복지관 (개금동)","openHours":"정시","maleToilets":15,"femaleToilets":7,"disabled":true,"diaperTable":false,"emergencyBell":false,"cctv":false,"source":"public","category":"public"},{"id":"202432900000101048","name":"개금2동주민센터","lat":35.144858,"lng":129.019469,"roadAddr":"부산광역시 복지로 93","jibunAddr":"부산광역시 부산진구 개금2동 633-5","openHours":"정시","maleToilets":6,"femaleToilets":8,"disabled":true,"diaperTable":false,"emergencyBell":true,"cctv":true,"source":"public","category":"public"},{"id":"202432900000101075","name":"개금1치안센터","lat":35.150421,"lng":129.020774,"roadAddr":"부산광역시 부산진구 냉정로 191-1, 개금1치안센터 (개금동)","openHours":"정시","maleToilets":2,"femaleToilets":0,"disabled":false,"diaperTable":false,"emergencyBell":false,"cctv":false,"managerTel":"0518911848","source":"public","category":"public"},{"id":"202432900000101147","name":"개금1,3세대행복마을센터","lat":35.144225,"lng":129.017204,"roadAddr":"부산광역시 부산진구 진사로83번길21","jibunAddr":"부산광역시 부산진구 개금동 633-35","openHours":"정시","maleToilets":6,"femaleToilets":3,"disabled":false,"diaperTable":false,"emergencyBell":false,"cctv":false,"source":"public","category":"public"},{"id":"202432900000101049","name":"개금3동주민센터","lat":35.155781,"lng":129.021983,"roadAddr":"부산광역시 부산진구 개금본동로 88","jibunAddr":"부산광역시 부산진구 개금동 428-8","openHours":"정시","maleToilets":14,"femaleToilets":14,"disabled":true,"diaperTable":false,"emergencyBell":true,"cctv":false,"source":"public","category":"public"},{"id":"202432900000101097","name":"지하철 개금역(부산백병원)","lat":35.153194,"lng":129.020374,"roadAddr":"부산광역시 부산진구 가야대로 지하 442","jibunAddr":"부산광역시 부산진구 개금동 487-2","openHours":"정시","maleToilets":7,"femaleToilets":5,"disabled":true,"diaperTable":true,"emergencyBell":true,"cctv":true,"source":"public","category":"public"},{"id":"202432900000101324","name":"국민은행(개금동지점)","lat":35.152711,"lng":129.020072,"roadAddr":"부산광역시 부산진구 복지로 2, 국민은행 개금동지점 (개금동)","openHours":"정시","maleToilets":4,"femaleToilets":2,"disabled":false,"diaperTable":false,"emergencyBell":false,"cctv":false,"source":"public","category":"public"},{"id":"202432900000101027","name":"개금태화주유소","lat":35.151386,"lng":129.016546,"roadAddr":"부산광역시 부산진구 가야대로 402, 개금태화주유소 (개금동)","openHours":"정시","maleToilets":2,"femaleToilets":1,"disabled":false,"diaperTable":false,"emergencyBell":false,"cctv":false,"source":"public","category":"public"},{"id":"202432900000101155","name":"개금다락방","lat":35.150186,"lng":129.02336,"roadAddr":"부산광역시 부산진구 복지로 41번길 53","jibunAddr":"부산광역시 부산진구 개금동 554-146","openHours":"정시","maleToilets":6,"femaleToilets":5,"disabled":false,"diaperTable":false,"emergencyBell":false,"cctv":false,"source":"public","category":"public"},{"id":"202432900000101293","name":"인제대학교 부산캠퍼스","lat":35.146453,"lng":129.020571,"roadAddr":"부산광역시 부산진구 복지로 75","jibunAddr":"부산광역시 부산진구 개금동 633-165","openHours":"정시","maleToilets":9,"femaleToilets":3,"disabled":true,"diaperTable":false,"emergencyBell":false,"cctv":false,"source":"public","category":"public"},{"id":"202432900000101346","name":"개금1배수지","lat":35.148761,"lng":129.022472,"roadAddr":"부산광역시 부산진구 복지로47번길 30 (개금동)","jibunAddr":"부산광역시 부산진구 개금동 540-288","openHours":"상시","maleToilets":3,"femaleToilets":2,"disabled":false,"diaperTable":false,"emergencyBell":true,"cctv":false,"source":"public","category":"public"},{"id":"202432900000101177","name":"나래울장애인주간보호센터","lat":35.142611,"lng":129.020163,"roadAddr":"부산광역시 부산진구복지로 117-12","jibunAddr":"부산광역시 부산진구 개금2동 산57-9","openHours":"정시","maleToilets":3,"femaleToilets":2,"disabled":false,"diaperTable":false,"emergencyBell":false,"cctv":false,"managerTel":"0518930035","source":"public","category":"public"},{"id":"202432900000101292","name":"인제대학교 부산백병원","lat":35.146453,"lng":129.020571,"roadAddr":"부산광역시 부산진구 복지로 75, 인제대학교 부산백병원 (개금동)","openHours":"정시","maleToilets":14,"femaleToilets":8,"disabled":true,"diaperTable":false,"emergencyBell":false,"cctv":false,"source":"public","category":"public"},{"id":"202433400000100042","name":"제석골체육공원공중화장실","lat":35.117222,"lng":128.988885,"roadAddr":"부산광역시 사하구 제석로 242","jibunAddr":"부산광역시 사하구 당리동 산5-1","openHours":"정시","maleToilets":2,"femaleToilets":2,"disabled":false,"diaperTable":false,"emergencyBell":true,"cctv":false,"managerTel":"0512204539","source":"public","category":"public"},{"id":"202233900000100317","name":"부산동감전우편취급국","lat":35.152371,"lng":128.987764,"roadAddr":"부산광역시 사상구 학감대로237번길 39, 부송빌딩 (감전동)","openHours":"정시","maleToilets":2,"femaleToilets":1,"disabled":false,"diaperTable":false,"emergencyBell":false,"cctv":false,"managerTel":"0513165852","source":"public","category":"public"},{"id":"202233900000100340","name":"학장동행정복지센터","lat":35.142321,"lng":128.987401,"roadAddr":"부산광역시 사상구 학감대로133번길 9, 학장동행정복지센터 (학장동)","jibunAddr":"부산광역시 사상구 학장동 546 학장동행정복지센터","openHours":"정시","maleToilets":7,"femaleToilets":7,"disabled":true,"diaperTable":false,"emergencyBell":false,"cctv":false,"managerTel":"0513103220","source":"public","category":"public"},{"id":"202233900000100249","name":"양지1공원","lat":35.15503,"lng":129.003078,"jibunAddr":"부산광역시 사상구 주례동 306","openHours":"24시간","maleToilets":2,"femaleToilets":1,"disabled":false,"diaperTable":false,"emergencyBell":true,"cctv":false,"managerTel":"0513104521","source":"public","category":"public"},{"id":"202433900000100001","name":"주례 열린도서관","lat":35.146581,"lng":129.004557,"roadAddr":"부산광역시 사상구 주례로 110 (주례동)","jibunAddr":"부산광역시 사상구 주례동 536 외 6필지","openHours":"정시","maleToilets":13,"femaleToilets":13,"disabled":true,"diaperTable":true,"emergencyBell":false,"cctv":true,"managerTel":"0513108501","source":"public","category":"public"},{"id":"202233900000100332","name":"주례1동행정복지센터","lat":35.151339,"lng":129.001099,"roadAddr":"부산광역시 사상구 가야대로255번길 17, 주례1동 행정복지센터 (주례동)","openHours":"정시","maleToilets":3,"femaleToilets":5,"disabled":true,"diaperTable":false,"emergencyBell":false,"cctv":false,"managerTel":"0513103141","source":"public","category":"public"},{"id":"202233900000100320","name":"주례동우체국","lat":35.151316,"lng":128.997328,"roadAddr":"부산광역시 사상구 사상로 23, 부산주례동 우체국 (주례동)","openHours":"정시","maleToilets":1,"femaleToilets":1,"disabled":true,"diaperTable":true,"emergencyBell":false,"cctv":false,"managerTel":"0513242005","source":"public","category":"public"},{"id":"202233900000100351","name":"주례3동 행정복지센터","lat":35.14735,"lng":129.001418,"roadAddr":"부산광역시 사상구 냉정로 10, 주례3동주민센터 (주례동)","openHours":"정시","maleToilets":10,"femaleToilets":4,"disabled":false,"diaperTable":false,"emergencyBell":false,"cctv":false,"source":"public","category":"public"},{"id":"202233900000100358","name":"사상구보훈회관","lat":35.155715,"lng":128.992098,"roadAddr":"부산광역시 사상구 사상로90번길 15-17, 보훈회관 (감전동)","openHours":"정시","maleToilets":9,"femaleToilets":3,"disabled":false,"diaperTable":false,"emergencyBell":false,"cctv":false,"source":"public","category":"public"},{"id":"202233900000100251","name":"주례백양공원","lat":35.155417,"lng":128.998073,"jibunAddr":"부산광역시 사상구 주례동 961","openHours":"24시간","maleToilets":3,"femaleToilets":2,"disabled":false,"diaperTable":false,"emergencyBell":true,"cctv":false,"managerTel":"0513104521","source":"public","category":"public"},{"id":"202233900000100360","name":"다누림센터(1층)","lat":35.147381,"lng":128.995023,"roadAddr":"부산광역시 사상구 가야대로196번길 51, 사상구 다누림센터 (학장동)","openHours":"정시","maleToilets":10,"femaleToilets":10,"disabled":true,"diaperTable":false,"emergencyBell":false,"cctv":false,"source":"public","category":"public"},{"id":"202233900000100361","name":"사상구청(1층)","lat":35.152551,"lng":128.991456,"roadAddr":"부산광역시 사상구 학감대로 242, 사상구청 (감전동)","openHours":"정시","maleToilets":5,"femaleToilets":3,"disabled":true,"diaperTable":true,"emergencyBell":true,"cctv":false,"managerTel":"0513104152","source":"public","category":"public"},{"id":"202233900000100248","name":"창신공원","lat":35.155921,"lng":129.004657,"jibunAddr":"부산광역시 사상구 주례동 294","openHours":"24시간","maleToilets":1,"femaleToilets":1,"disabled":true,"diaperTable":true,"emergencyBell":true,"cctv":false,"managerTel":"0513104521","source":"public","category":"public"},{"id":"202233900000100310","name":"주례119안전센터","lat":35.153887,"lng":129.004143,"roadAddr":"부산광역시 사상구 양지로 22, 주례119안전센터 (주례동)","openHours":"상시","maleToilets":2,"femaleToilets":0,"disabled":false,"diaperTable":false,"emergencyBell":false,"cctv":false,"source":"public","category":"public"},{"id":"202533900000100004","name":"학장천친수공간","lat":35.148671,"lng":129.001241,"jibunAddr":"부산광역시 사상구 주례동 1233-7","openHours":"상시","maleToilets":1,"femaleToilets":1,"disabled":true,"diaperTable":false,"emergencyBell":true,"cctv":false,"source":"public","category":"public"},{"id":"202233900000100327","name":"부산광역시 여성문화회관","lat":35.140081,"lng":128.989814,"roadAddr":"부산광역시 사상구 학감대로 95, 부산광역시여성문화회관 (학장동)","openHours":"정시","maleToilets":12,"femaleToilets":18,"disabled":true,"diaperTable":true,"emergencyBell":false,"cctv":false,"managerTel":"0513208311","source":"public","category":"public"},{"id":"202233900000100307","name":"사상경찰서","lat":35.154346,"lng":128.991394,"roadAddr":"부산광역시 사상구 학감대로 264, 부산사상경찰서 (감전동)","openHours":"상시","maleToilets":35,"femaleToilets":21,"disabled":true,"diaperTable":true,"emergencyBell":true,"cctv":false,"managerTel":"0513290321","source":"public","category":"public"},{"id":"202233900000100344","name":"주례지하철역","lat":35.150505,"lng":129.003137,"roadAddr":"부산광역시 사상구 가야대로 지하 292, 주례역 (주례동)","openHours":"20시간","maleToilets":12,"femaleToilets":5,"disabled":true,"diaperTable":true,"emergencyBell":true,"cctv":true,"managerTel":"0516786225","source":"public","category":"public"},{"id":"202533900000100001","name":"부산은행 감전동지점","lat":35.155239,"lng":128.98342,"roadAddr":"부산광역시 사상구 새벽로 160, 부산은행감전동지점 (감전동)","jibunAddr":"부산광역시 사상구 감전동 131-30 부산은행감전동지점","openHours":"정시","maleToilets":3,"femaleToilets":2,"disabled":true,"diaperTable":false,"emergencyBell":false,"cctv":true,"source":"public","category":"public"},{"id":"202433900000100002","name":"학장제일교회(1~4층)","lat":35.144396,"lng":128.989514,"roadAddr":"부산광역시 사상구 학장로 211 (학장동)","jibunAddr":"부산광역시 사상구 학장동 277-18","openHours":"정시","maleToilets":8,"femaleToilets":8,"disabled":true,"diaperTable":false,"emergencyBell":false,"cctv":false,"source":"public","category":"public"},{"id":"202233900000100405","name":"고신교회(2층)","lat":35.150985,"lng":128.996882,"roadAddr":"부산광역시 사상구 가야대로213번길 12-19(주례동)","jibunAddr":"부산광역시 사상구 주례동 692-11","openHours":"정시","maleToilets":2,"femaleToilets":2,"disabled":false,"diaperTable":false,"emergencyBell":false,"cctv":true,"source":"public","category":"public"},{"id":"202533900000100003","name":"(주)심다","lat":35.152018,"lng":128.989703,"roadAddr":"부산광역시 사상구 학감대로 233 (감전동)","jibunAddr":"부산광역시 사상구 감전동 156-4","openHours":"정시","maleToilets":4,"femaleToilets":2,"disabled":true,"diaperTable":false,"emergencyBell":true,"cctv":true,"source":"public","category":"public"},{"id":"202233900000100366","name":"광신석유(주) 가야대로주유소","lat":35.151828,"lng":129.015327,"roadAddr":"부산광역시 사상구 가야대로 395(주례동)","jibunAddr":"부산광역시 사상구 주례동 52-16","openHours":"상시","maleToilets":3,"femaleToilets":1,"disabled":false,"diaperTable":false,"emergencyBell":false,"cctv":false,"source":"public","category":"public"},{"id":"202233900000100367","name":"용마주유소","lat":35.151279,"lng":129.008551,"roadAddr":"부산광역시 사상구 가야대로 329(주례동)","openHours":"상시","maleToilets":2,"femaleToilets":1,"disabled":false,"diaperTable":false,"emergencyBell":false,"cctv":false,"source":"public","category":"public"},{"id":"202233900000100368","name":"젤코바","lat":35.151535,"lng":128.979702,"roadAddr":"부산광역시 사상구 가야대로 63(감전동)","openHours":"상시","maleToilets":3,"femaleToilets":1,"disabled":false,"diaperTable":false,"emergencyBell":false,"cctv":false,"managerTel":"0513285101","source":"public","category":"public"},{"id":"202633900000100021","name":"영광빌딩","lat":35.154192,"lng":128.986964,"roadAddr":"부산광역시 사상구 새벽시장로 121 (감전동)","jibunAddr":"부산광역시 사상구 감전동 133-5","openHours":"상시","maleToilets":6,"femaleToilets":4,"disabled":false,"diaperTable":false,"emergencyBell":false,"cctv":false,"source":"public","category":"public"},{"id":"202633900000100010","name":"경동주유소","lat":35.15297,"lng":129.009741,"roadAddr":"부산광역시 사상구 백양대로 386 (주례동)","jibunAddr":"부산광역시 사상구 주례동 230-1","openHours":"상시","maleToilets":2,"femaleToilets":1,"disabled":false,"diaperTable":false,"emergencyBell":false,"cctv":false,"source":"public","category":"public"},{"id":"202233900000100250","name":"양지2공원","lat":35.153982,"lng":129.004638,"jibunAddr":"부산광역시 사상구 주례동 314","openHours":"24시간","maleToilets":3,"femaleToilets":2,"disabled":true,"diaperTable":false,"emergencyBell":true,"cctv":false,"managerTel":"0513104521","source":"public","category":"public"},{"id":"202233900000100290","name":"사상구청(2층)","lat":35.152551,"lng":128.991456,"roadAddr":"부산광역시 사상구 학감대로 242, 사상구청 (감전동)","openHours":"정시","maleToilets":5,"femaleToilets":3,"disabled":true,"diaperTable":false,"emergencyBell":true,"cctv":false,"managerTel":"0513104152","source":"public","category":"public"},{"id":"202233900000100312","name":"학장119안전센터","lat":35.139679,"lng":128.990454,"roadAddr":"부산광역시 사상구 학감대로 89, 학장119안전센터 (학장동)","openHours":"상시","maleToilets":2,"femaleToilets":1,"disabled":false,"diaperTable":false,"emergencyBell":false,"cctv":false,"source":"public","category":"public"},{"id":"202233900000100304","name":"주례지구대","lat":35.145734,"lng":129.000941,"roadAddr":"부산광역시 사상구 주례로 141 (주례동)","openHours":"상시","maleToilets":2,"femaleToilets":1,"disabled":true,"diaperTable":false,"emergencyBell":true,"cctv":false,"managerTel":"0513268671","source":"public","category":"public"},{"id":"202233900000100253","name":"구덕공원","lat":35.139391,"lng":128.990653,"jibunAddr":"부산광역시 사상구 학장동 168-6","openHours":"24시간","maleToilets":2,"femaleToilets":1,"disabled":false,"diaperTable":false,"emergencyBell":false,"cctv":false,"managerTel":"0513104521","source":"public","category":"public"},{"id":"202233900000100336","name":"사상구선거관리위원회","lat":35.13966,"lng":128.990249,"roadAddr":"부산광역시 사상구 학감대로 91, 사상구선거관리위원회 (학장동)","openHours":"09:00~18:00","maleToilets":2,"femaleToilets":1,"disabled":true,"diaperTable":false,"emergencyBell":false,"cctv":false,"source":"public","category":"public"},{"id":"202233900000100335","name":"북부산세무서","lat":35.154659,"lng":128.990275,"roadAddr":"부산광역시 사상구 학감대로 263, 북부산세무서 (감전동)","openHours":"정시","maleToilets":28,"femaleToilets":42,"disabled":true,"diaperTable":true,"emergencyBell":true,"cctv":false,"managerTel":"0513106247","source":"public","category":"public"},{"id":"202233900000100316","name":"주례2동우편취급국","lat":35.150703,"lng":129.012496,"roadAddr":"부산광역시 사상구 가야대로366번길 8, 주례2동우편취급국 (주례동)","openHours":"정시","maleToilets":2,"femaleToilets":1,"disabled":false,"diaperTable":false,"emergencyBell":false,"cctv":false,"source":"public","category":"public"},{"id":"202233900000100343","name":"냉정지하철역","lat":35.151268,"lng":129.012524,"roadAddr":"부산광역시 사상구 가야대로 지하 362-1, 냉정역 (주례동)","openHours":"20시간","maleToilets":7,"femaleToilets":6,"disabled":true,"diaperTable":true,"emergencyBell":true,"cctv":true,"managerTel":"0516786224","source":"public","category":"public"},{"id":"202233900000100352","name":"주례2동행정복지센터","lat":35.148273,"lng":129.012413,"roadAddr":"부산광역시 사상구 가야대로366번길 64-8 (주례동)","openHours":"정시","maleToilets":4,"femaleToilets":1,"disabled":false,"diaperTable":false,"emergencyBell":false,"cctv":false,"source":"public","category":"public"},{"id":"202233900000100264","name":"학장천 강변갤러리","lat":35.142479,"lng":128.985952,"jibunAddr":"부산광역시 사상구 학장동 473-2","openHours":"24시간","maleToilets":4,"femaleToilets":4,"disabled":false,"diaperTable":false,"emergencyBell":false,"cctv":false,"managerTel":"0513104442","source":"public","category":"public"},{"id":"202233900000100315","name":"학장공단우편취급국","lat":35.144639,"lng":128.98462,"roadAddr":"부산광역시 사상구 대동로 194, 학장공단우편취급국 (학장동)","openHours":"정시","maleToilets":2,"femaleToilets":1,"disabled":false,"diaperTable":false,"emergencyBell":false,"cctv":false,"source":"public","category":"public"},{"id":"202633900000100020","name":"사상평생학습관","lat":35.155622,"lng":128.986692,"roadAddr":"부산광역시 사상구 새벽로168번길 61, 사상평생학습관 (감전동)","jibunAddr":"부산광역시 사상구 감전동 120-56 사상평생학습관","openHours":"정시","maleToilets":5,"femaleToilets":2,"disabled":false,"diaperTable":false,"emergencyBell":false,"cctv":false,"managerTel":"0513103242","source":"public","category":"public"},{"id":"202233900000100323","name":"학장동우체국","lat":35.14025,"lng":128.989374,"roadAddr":"부산광역시 사상구 학감대로 101, 부산학장동우체국 (학장동)","openHours":"정시","maleToilets":2,"femaleToilets":1,"disabled":true,"diaperTable":false,"emergencyBell":false,"cctv":true,"managerTel":"0513160426","source":"public","category":"public"},{"id":"202233900000100350","name":"교통안전공단 주례검사소","lat":35.145672,"lng":128.994699,"roadAddr":"부산광역시 사상구 학장로 256, 교통안전공단 (주례동)","openHours":"09:00~18:00","maleToilets":6,"femaleToilets":3,"disabled":true,"diaperTable":false,"emergencyBell":false,"cctv":false,"managerTel":"0513241431","source":"public","category":"public"},{"id":"202233900000100308","name":"사상구종합사회복지관","lat":35.15543,"lng":128.994783,"roadAddr":"부산광역시 사상구 백양대로 527, 사상구종합사회복지관 (주례동)","openHours":"정시","maleToilets":15,"femaleToilets":9,"disabled":true,"diaperTable":false,"emergencyBell":false,"cctv":false,"source":"public","category":"public"},{"id":"202233900000100345","name":"감전지하철역","lat":35.155535,"lng":128.991267,"roadAddr":"부산광역시 사상구 사상로 지하 93-1, 감전역 (감전동)","openHours":"20시간","maleToilets":11,"femaleToilets":5,"disabled":true,"diaperTable":true,"emergencyBell":true,"cctv":true,"managerTel":"0516786226","source":"public","category":"public"},{"id":"202233900000100252","name":"구학공원","lat":35.135863,"lng":128.991843,"jibunAddr":"부산광역시 사상구 학장동 168-9","openHours":"24시간","maleToilets":2,"femaleToilets":2,"disabled":false,"diaperTable":false,"emergencyBell":true,"cctv":false,"managerTel":"0513104521","source":"public","category":"public"},{"id":"202633900000100008","name":"덕양에너지 굿모닝주유소","lat":35.139162,"lng":128.99263,"roadAddr":"부산광역시 사상구 학감대로 70 (학장동)","jibunAddr":"부산광역시 사상구 학장동 174","openHours":"상시","maleToilets":2,"femaleToilets":1,"disabled":false,"diaperTable":false,"emergencyBell":false,"cctv":false,"source":"public","category":"public"},{"id":"202233900000100365","name":"스마트주유소","lat":35.151779,"lng":129.013961,"roadAddr":"부산광역시 사상구 가야대로 377(주례동)","openHours":"정시","maleToilets":2,"femaleToilets":1,"disabled":false,"diaperTable":false,"emergencyBell":false,"cctv":false,"source":"public","category":"public"},{"id":"202233900000100394","name":"한국가스산업㈜","lat":35.150223,"lng":128.990053,"roadAddr":"부산광역시 사상구 가야대로 157(감전동)","openHours":"상시","maleToilets":4,"femaleToilets":2,"disabled":false,"diaperTable":false,"emergencyBell":false,"cctv":false,"source":"public","category":"public"},{"id":"202533900000100002","name":"주안교회","lat":35.149143,"lng":129.000167,"roadAddr":"부산광역시 사상구 학장로324번길 8, 주안교회 (주례동)","jibunAddr":"부산광역시 사상구 주례동 1162-32 주안교회","openHours":"정시","maleToilets":2,"femaleToilets":2,"disabled":true,"diaperTable":false,"emergencyBell":false,"cctv":false,"source":"public","category":"public"},{"id":"202233900000100407","name":"학장축산물도매시장","lat":35.140895,"lng":128.987653,"roadAddr":"부산광역시 사상구 학감대로 111(학장동)","jibunAddr":"부산광역시 사상구 학장동 565-1","openHours":"정시","maleToilets":5,"femaleToilets":3,"disabled":false,"diaperTable":false,"emergencyBell":false,"cctv":false,"source":"public","category":"public"},{"id":"202233900000100375","name":"서부산IC 셀프주유소","lat":35.146172,"lng":128.988927,"roadAddr":"부산광역시 사상구 학감대로 170(학장동)","jibunAddr":"부산광역시 사상구 학장동 276-2","openHours":"상시","maleToilets":2,"femaleToilets":1,"disabled":false,"diaperTable":false,"emergencyBell":false,"cctv":false,"source":"public","category":"public"},{"id":"202233900000100392","name":"구덕산주유소","lat":35.140457,"lng":128.990139,"roadAddr":"부산광역시 사상구 학감대로 98(학장동)","jibunAddr":"부산광역시 사상구 학장동 194-5","openHours":"상시","maleToilets":2,"femaleToilets":1,"disabled":false,"diaperTable":false,"emergencyBell":false,"cctv":false,"managerTel":"0513239890","source":"public","category":"public"},{"id":"202333900000100001","name":"학장성심병원","lat":35.141274,"lng":128.98329,"roadAddr":"부산광역시 사상구 대동로 153, 학장성심요양병원 (학장동)","jibunAddr":"부산광역시 사상구 학장동 611-6 학장성심요양병원","openHours":"정시","maleToilets":1,"femaleToilets":1,"disabled":false,"diaperTable":false,"emergencyBell":false,"cctv":true,"source":"public","category":"public"},{"id":"202233900000100285","name":"몬스타주식회사","lat":35.149772,"lng":128.999353,"roadAddr":"부산광역시 사상구 학장로 329 (주례동)","openHours":"정시","maleToilets":2,"femaleToilets":0,"disabled":true,"diaperTable":false,"emergencyBell":false,"cctv":true,"source":"public","category":"public"},{"id":"202233900000100369","name":"㈜제이와이비젼 명성주유소","lat":35.150604,"lng":128.989921,"roadAddr":"부산광역시 사상구 학감대로 220(감전동)","openHours":"상시","maleToilets":2,"femaleToilets":1,"disabled":false,"diaperTable":false,"emergencyBell":false,"cctv":false,"source":"public","category":"public"},{"id":"202233900000100378","name":"에스씨(주) 새문주유소","lat":35.136425,"lng":128.996171,"roadAddr":"부산광역시 사상구 학감대로 30(학장동)","openHours":"정시","maleToilets":2,"femaleToilets":1,"disabled":true,"diaperTable":false,"emergencyBell":false,"cctv":false,"managerTel":"0513243502","source":"public","category":"public"},{"id":"202233900000100396","name":"부영병원","lat":35.141214,"lng":128.984025,"roadAddr":"부산광역시 사상구 학감대로123번길 76(학장동)","openHours":"정시","maleToilets":23,"femaleToilets":18,"disabled":true,"diaperTable":true,"emergencyBell":false,"cctv":true,"source":"public","category":"public"},{"id":"202233900000100281","name":"세원주유소","lat":35.146924,"lng":128.989049,"roadAddr":"부산광역시 사상구 학감대로 178 (학장동)","openHours":"상시","maleToilets":3,"femaleToilets":1,"disabled":false,"diaperTable":false,"emergencyBell":false,"cctv":false,"source":"public","category":"public"},{"id":"202233900000100397","name":"영재의료재단 큰솔병원","lat":35.140717,"lng":128.982442,"roadAddr":"부산광역시 사상구 대동로 141(학장동)","openHours":"정시","maleToilets":4,"femaleToilets":3,"disabled":true,"diaperTable":true,"emergencyBell":false,"cctv":true,"managerTel":"0513259700","source":"public","category":"public"},{"id":"202333900000100002","name":"큰솔2병원 별관","lat":35.143888,"lng":128.987006,"roadAddr":"부산광역시 사상구 학감대로147번길 15-10 (학장동)","jibunAddr":"부산광역시 사상구 학장동 384","openHours":"정시","maleToilets":2,"femaleToilets":2,"disabled":true,"diaperTable":false,"emergencyBell":false,"cctv":false,"source":"public","category":"public"},{"id":"202633900000100016","name":"구덕산충전소","lat":35.140834,"lng":128.989654,"roadAddr":"부산광역시 사상구 학감대로 102 (학장동)","jibunAddr":"부산광역시 사상구 학장동 194-18","openHours":"상시","maleToilets":2,"femaleToilets":1,"disabled":false,"diaperTable":false,"emergencyBell":false,"cctv":false,"source":"public","category":"public"},{"id":"202633900000100017","name":"엠에스가스 학장충전소","lat":35.142702,"lng":128.985241,"roadAddr":"부산광역시 사상구 학장로 165 (학장동)","jibunAddr":"부산광역시 사상구 학장동 264-5","openHours":"상시","maleToilets":2,"femaleToilets":1,"disabled":false,"diaperTable":false,"emergencyBell":false,"cctv":false,"source":"public","category":"public"},{"id":"202633900000100015","name":"엠에스가스","lat":35.145394,"lng":128.990356,"roadAddr":"부산광역시 사상구 가야대로176번길 92 (학장동)","jibunAddr":"부산광역시 사상구 학장동 276-22","openHours":"상시","maleToilets":2,"femaleToilets":1,"disabled":false,"diaperTable":false,"emergencyBell":false,"cctv":false,"source":"public","category":"public"},{"id":"202633900000100007","name":"대선석유 학장점","lat":35.138761,"lng":128.991705,"roadAddr":"부산광역시 사상구 학감대로 73 (학장동)","jibunAddr":"부산광역시 사상구 학장동 179-2","openHours":"상시","maleToilets":2,"femaleToilets":1,"disabled":false,"diaperTable":false,"emergencyBell":false,"cctv":false,"source":"public","category":"public"},{"id":"202633900000100003","name":"한영 주유소 주례지점","lat":35.152753,"lng":129.013538,"roadAddr":"부산광역시 사상구 백양대로 349 (주례동)","jibunAddr":"부산광역시 사상구 주례동 7-1","openHours":"상시","maleToilets":2,"femaleToilets":1,"disabled":false,"diaperTable":false,"emergencyBell":false,"cctv":false,"source":"public","category":"public"},{"id":"202633900000100009","name":"좋은기름나라 새사상셀프주유소","lat":35.154969,"lng":128.983422,"roadAddr":"부산광역시 사상구 새벽로 154, 사상셀프주유소 (감전동)","jibunAddr":"부산광역시 사상구 감전동 131-13 사상셀프주유소","openHours":"상시","maleToilets":2,"femaleToilets":1,"disabled":false,"diaperTable":false,"emergencyBell":false,"cctv":false,"source":"public","category":"public"},{"id":"202233900000100379","name":"극동유화(주) 주례충전소","lat":35.150225,"lng":128.99451,"roadAddr":"부산광역시 사상구 가야대로 203(주례동)","openHours":"상시","maleToilets":3,"femaleToilets":1,"disabled":false,"diaperTable":false,"emergencyBell":false,"cctv":false,"source":"public","category":"public"},{"id":"202233900000100380","name":"더블유케이에너지","lat":35.153228,"lng":128.999442,"roadAddr":"부산광역시 사상구 백양대로 480(주례동)","openHours":"상시","maleToilets":3,"femaleToilets":1,"disabled":false,"diaperTable":false,"emergencyBell":false,"cctv":false,"source":"public","category":"public"},{"id":"202233900000100376","name":"대흥주유소","lat":35.141652,"lng":128.980121,"roadAddr":"부산광역시 사상구 새벽로 2(학장동)","openHours":"상시","maleToilets":2,"femaleToilets":2,"disabled":false,"diaperTable":false,"emergencyBell":false,"cctv":false,"source":"public","category":"public"},{"id":"202233900000100381","name":"㈜지엠지 우경주유소","lat":35.152694,"lng":128.999456,"roadAddr":"부산광역시 사상구 백양대로 477(주례동)","openHours":"상시","maleToilets":2,"femaleToilets":1,"disabled":false,"diaperTable":false,"emergencyBell":false,"cctv":false,"source":"public","category":"public"},{"id":"202233900000100282","name":"구룡주유소","lat":35.149129,"lng":128.988813,"roadAddr":"부산광역시 사상구 가야대로 150, 구룡주유소 (학장동)","openHours":"상시","maleToilets":1,"femaleToilets":1,"disabled":false,"diaperTable":false,"emergencyBell":false,"cctv":false,"managerTel":"0513164360","source":"public","category":"public"},{"id":"202233900000100284","name":"큰솔2병원","lat":35.143653,"lng":128.987214,"roadAddr":"부산광역시 사상구 학장로 189 (학장동)","openHours":"정시","maleToilets":5,"femaleToilets":5,"disabled":true,"diaperTable":false,"emergencyBell":false,"cctv":true,"source":"public","category":"public"},{"id":"202233900000100406","name":"태림샐틱스(학장동 574-24)(2층)","lat":35.139957,"lng":128.980854,"roadAddr":"부산광역시 사상구 대동로 123(학장동)","jibunAddr":"부산광역시 사상구 학장동 574-24","openHours":"정시","maleToilets":2,"femaleToilets":2,"disabled":false,"diaperTable":false,"emergencyBell":false,"cctv":false,"source":"public","category":"public"},{"id":"202233900000100306","name":"학장파출소","lat":35.142023,"lng":128.987788,"roadAddr":"부산광역시 사상구 학감대로123번길 4 (학장동)","openHours":"상시","maleToilets":7,"femaleToilets":2,"disabled":true,"diaperTable":true,"emergencyBell":true,"cctv":false,"managerTel":"0513271315","source":"public","category":"public"},{"id":"202233900000100293","name":"부산디지털대학교","lat":35.146362,"lng":129.009615,"roadAddr":"부산광역시 사상구 주례로 57, 부산디지털대학교 (주례동)","openHours":"정시","maleToilets":4,"femaleToilets":3,"disabled":true,"diaperTable":false,"emergencyBell":false,"cctv":false,"source":"public","category":"public"},{"id":"202233900000100393","name":"우신충전소","lat":35.151317,"lng":128.980986,"roadAddr":"부산광역시 사상구 가야대로 75(감전동)","openHours":"상시","maleToilets":4,"femaleToilets":1,"disabled":true,"diaperTable":false,"emergencyBell":false,"cctv":false,"managerTel":"0513143555","source":"public","category":"public"},{"id":"202233900000100401","name":"좋은삼선병원","lat":35.150122,"lng":129.007692,"roadAddr":"부산광역시 사상구 가야대로 326(주례동)","openHours":"상시","maleToilets":4,"femaleToilets":2,"disabled":true,"diaperTable":false,"emergencyBell":true,"cctv":true,"source":"public","category":"public"},{"id":"202233900000100292","name":"동서대학교(대학본관)","lat":35.146079,"lng":129.007039,"roadAddr":"부산광역시 사상구 주례로 47, 동서대학교 (주례동)","openHours":"정시","maleToilets":6,"femaleToilets":3,"disabled":false,"diaperTable":false,"emergencyBell":false,"cctv":false,"source":"public","category":"public"},{"id":"202233900000100295","name":"경남정보대학교(50주년기념관)","lat":35.146451,"lng":129.009071,"roadAddr":"부산광역시 사상구 주례로 45, 경남정보대학교 (주례동)","openHours":"정시","maleToilets":3,"femaleToilets":4,"disabled":true,"diaperTable":false,"emergencyBell":false,"cctv":false,"source":"public","category":"public"}]