[{"id":"202532600000100253","name":"수산물유통시설관리사업소 냉동","lat":35.058838,"lng":129.010176,"roadAddr":"부산광역시 서구 원양로 35, 국제수산물도매시장 (암남동)","jibunAddr":"부산광역시 서구 암남동 761 국제수산물도매시장","openHours":"상시","maleToilets":10,"femaleToilets":1,"disabled":false,"diaperTable":false,"emergencyBell":false,"cctv":false,"managerTel":"0512208833","source":"public","category":"public"},{"id":"202532600000100349","name":"암남공원3호광장(주차장)","lat":35.062874,"lng":129.020665,"jibunAddr":"부산광역시 서구 암남동 620-27","openHours":"상시","maleToilets":5,"femaleToilets":6,"disabled":true,"diaperTable":false,"emergencyBell":true,"cctv":false,"managerTel":"0512404534","source":"public","category":"public"},{"id":"202532600000100255","name":"수산물유통시설관리사업소주차장","lat":35.058838,"lng":129.010176,"roadAddr":"부산광역시 서구 원양로 35, 국제수산물도매시장 (암남동)","jibunAddr":"부산광역시 서구 암남동 761 국제수산물도매시장","openHours":"상시","maleToilets":7,"femaleToilets":7,"disabled":true,"diaperTable":false,"emergencyBell":false,"cctv":false,"managerTel":"0512208833","source":"public","category":"public"},{"id":"202532600000100254","name":"수산물유통시설관리사업소도매동","lat":35.058838,"lng":129.010176,"roadAddr":"부산광역시 서구 원양로 35, 국제수산물도매시장 (암남동)","jibunAddr":"부산광역시 서구 암남동 761 국제수산물도매시장","openHours":"상시","maleToilets":87,"femaleToilets":35,"disabled":true,"diaperTable":false,"emergencyBell":false,"cctv":true,"managerTel":"0512208833","source":"public","category":"public"},{"id":"202532600000100252","name":"수산물유통시설관리사업소활어장","lat":35.058838,"lng":129.010176,"roadAddr":"부산광역시 서구 원양로 35, 국제수산물도매시장 (암남동)","jibunAddr":"부산광역시 서구 암남동 761 국제수산물도매시장","openHours":"상시","maleToilets":12,"femaleToilets":9,"disabled":true,"diaperTable":false,"emergencyBell":false,"cctv":false,"managerTel":"0512208833","source":"public","category":"public"},{"id":"202532600000100347","name":"암남공원2호광장(다목적광장)","lat":35.060865,"lng":129.016199,"jibunAddr":"부산광역시 서구 암남동 산 193(케이블카 후문)","openHours":"상시","maleToilets":5,"femaleToilets":4,"disabled":false,"diaperTable":true,"emergencyBell":true,"cctv":false,"managerTel":"0512404534","source":"public","category":"public"},{"id":"202532600000100351","name":"암남공원 (풍차)","lat":35.060865,"lng":129.016199,"jibunAddr":"부산광역시 서구 암남동 산 193","openHours":"상시","maleToilets":3,"femaleToilets":2,"disabled":false,"diaperTable":false,"emergencyBell":true,"cctv":false,"managerTel":"0512404534","source":"public","category":"public"},{"id":"202532600000100251","name":"수산물유통시설관리사업소 가동","lat":35.058838,"lng":129.010176,"roadAddr":"부산광역시 서구 원양로 35, 국제수산물도매시장 (암남동)","jibunAddr":"부산광역시 서구 암남동 761 국제수산물도매시장","openHours":"상시","maleToilets":35,"femaleToilets":20,"disabled":true,"diaperTable":false,"emergencyBell":false,"cctv":false,"managerTel":"0512208833","source":"public","category":"public"},{"id":"202532600000100256","name":"수산물유통시설관리사업소회관동","lat":35.058838,"lng":129.010176,"roadAddr":"부산광역시 서구 원양로 35, 국제수산물도매시장 (암남동)","jibunAddr":"부산광역시 서구 암남동 761 국제수산물도매시장","openHours":"상시","maleToilets":72,"femaleToilets":24,"disabled":true,"diaperTable":false,"emergencyBell":false,"cctv":false,"managerTel":"0512208833","source":"public","category":"public"},{"id":"202633400000100007","name":"다대2동행정복지센터 열린화장실","lat":35.063553,"lng":128.982009,"roadAddr":"부산광역시 사하구 다대로429번길 30, 다대2동행정복지센터 (다대동)","jibunAddr":"부산광역시 사하구 다대동 120-35 다대2동행정복지센터","openHours":"상시","maleToilets":2,"femaleToilets":1,"disabled":false,"diaperTable":false,"emergencyBell":false,"cctv":false,"managerTel":"0512205361","source":"public","category":"public"},{"id":"202433400000100056","name":"두송반도","lat":35.055348,"lng":128.993654,"jibunAddr":"부산광역시 사하구 다대동 1-4","openHours":"정시","maleToilets":2,"femaleToilets":1,"disabled":false,"diaperTable":false,"emergencyBell":false,"cctv":false,"managerTel":"0512204539","source":"public","category":"public"},{"id":"202433400000100202","name":"부산도시철도 낫개역","lat":35.065225,"lng":128.979657,"roadAddr":"부산광역시 사하구 다대로 422(다대동)","jibunAddr":"부산광역시 사하구 다대동 49","openHours":"정시","maleToilets":10,"femaleToilets":11,"disabled":true,"diaperTable":true,"emergencyBell":true,"cctv":true,"managerTel":"0516407266","source":"public","category":"public"},{"id":"202433400000100050","name":"감천항 서방파제 공중화장실","lat":35.048047,"lng":129.000446,"jibunAddr":"부산광역시 사하구 구평동 496","openHours":"정시","maleToilets":4,"femaleToilets":3,"disabled":false,"diaperTable":false,"emergencyBell":false,"cctv":false,"managerTel":"0512204924","source":"public","category":"public"},{"id":"202433400000100130","name":"다대성당 화장실","lat":35.063007,"lng":128.983629,"roadAddr":"부산광역시 사하구 다송로 53 (다대동)","jibunAddr":"부산광역시 사하구 다대동 4-1","openHours":"정시","maleToilets":10,"femaleToilets":6,"disabled":false,"diaperTable":false,"emergencyBell":false,"cctv":false,"managerTel":"0512638681","source":"public","category":"public"},{"id":"202433400000100170","name":"삼환상가 화장실","lat":35.061758,"lng":128.981627,"roadAddr":"부산광역시 사하구 다대로429번길 20 (다대동)","jibunAddr":"부산광역시 사하구 다대동 120-10","openHours":"정시","maleToilets":4,"femaleToilets":1,"disabled":false,"diaperTable":false,"emergencyBell":false,"cctv":false,"managerTel":"0512630202","source":"public","category":"public"},{"id":"202433400000100171","name":"양덕상가 화장실","lat":35.063741,"lng":128.980736,"roadAddr":"부산광역시 사하구 다대로429번길 15 (다대동)","jibunAddr":"부산광역시 사하구 다대동 35","openHours":"정시","maleToilets":6,"femaleToilets":3,"disabled":false,"diaperTable":false,"emergencyBell":false,"cctv":false,"managerTel":"0512635305","source":"public","category":"public"},{"id":"202433400000100141","name":"동원주유소㈜ 화장실","lat":35.05419,"lng":128.995276,"roadAddr":"부산광역시 사하구 감천항로 445 (구평동)","jibunAddr":"부산광역시 사하구 구평동 480-7","openHours":"정시","maleToilets":2,"femaleToilets":1,"disabled":false,"diaperTable":false,"emergencyBell":false,"cctv":false,"managerTel":"0512614448","source":"public","category":"public"},{"id":"202433400000100070","name":"다대2동 행정복지센터","lat":35.063553,"lng":128.982009,"roadAddr":"부산광역시 사하구 다대로429번길 30","jibunAddr":"부산광역시 사하구 다대동 120-35","openHours":"정시","maleToilets":6,"femaleToilets":3,"disabled":true,"diaperTable":false,"emergencyBell":false,"cctv":true,"managerTel":"0512205361","source":"public","category":"public"},{"id":"202433400000100027","name":"다대레포츠광장옆 공중화장실","lat":35.060103,"lng":128.984904,"roadAddr":"부산광역시 사하구 다송로 89, 다대레포츠광장옆 공중화장실 (다대동)","jibunAddr":"부산광역시 사하구 다대동 1592","openHours":"상시","maleToilets":3,"femaleToilets":2,"disabled":false,"diaperTable":false,"emergencyBell":true,"cctv":false,"managerTel":"0512204924","source":"public","category":"public"},{"id":"202433400000100023","name":"통일아시아드공원공중화장실","lat":35.059362,"lng":128.980825,"roadAddr":"부산광역시 다송로84번길 68","jibunAddr":"부산광역시 사하구 다대동 1585","openHours":"정시","maleToilets":4,"femaleToilets":4,"disabled":true,"diaperTable":true,"emergencyBell":true,"cctv":false,"managerTel":"0512204524","source":"public","category":"public"}]