[{"id":"202433600000100203","name":"송정공원2(운동장)","lat":35.098586,"lng":128.822899,"roadAddr":"부산광역시 강서구 녹산산단17로 17 (송정동)","jibunAddr":"부산광역시 강서구 송정동 1476","openHours":"상시","maleToilets":2,"femaleToilets":3,"disabled":false,"diaperTable":false,"emergencyBell":true,"cctv":false,"managerTel":"0519704536","source":"public","category":"public"},{"id":"202433600000100190","name":"보람공원","lat":35.088538,"lng":128.845806,"roadAddr":"부산광역시 강서구 녹산산단262로 6 (송정동)","jibunAddr":"부산광역시 강서구 송정동 1718","openHours":"상시","maleToilets":4,"femaleToilets":4,"disabled":true,"diaperTable":false,"emergencyBell":true,"cctv":false,"managerTel":"0519704536","source":"public","category":"public"},{"id":"202433600000100201","name":"부산신항국제터미널(PNIT)","lat":35.081811,"lng":128.833802,"roadAddr":"부산광역시 강서구 신항남로 330, PSA부산신항국제터미널(주) (성북동)","jibunAddr":"부산광역시 강서구 성북동 1488 PSA부산신항국제터미널(주)","openHours":"정시(09:00~18:00)","maleToilets":157,"femaleToilets":21,"disabled":false,"diaperTable":false,"emergencyBell":false,"cctv":true,"managerTel":"0512908068","source":"public","category":"public"},{"id":"202433600000100061","name":"녹산화물터미널주유소","lat":35.098377,"lng":128.837668,"roadAddr":"부산광역시 강서구 녹산산업북로 119 (송정동)","jibunAddr":"부산광역시 강서구 송정동 1512-2","openHours":"상시","maleToilets":3,"femaleToilets":1,"disabled":true,"diaperTable":false,"emergencyBell":false,"cctv":false,"managerTel":"0519413015","source":"public","category":"public"},{"id":"202433600000100115","name":"송정셀프","lat":35.101958,"lng":128.836817,"roadAddr":"부산광역시 강서구 낙동남로 127 (송정동)","jibunAddr":"부산광역시 강서구 송정동 1196-2","openHours":"상시","maleToilets":2,"femaleToilets":1,"disabled":false,"diaperTable":false,"emergencyBell":false,"cctv":true,"managerTel":"0519725104","source":"public","category":"public"},{"id":"202433600000100191","name":"송정공원1(공원)","lat":35.100488,"lng":128.82439,"roadAddr":"부산광역시 강서구 녹산산단17로 41 (송정동)","jibunAddr":"부산광역시 강서구 송정동 1455","openHours":"상시","maleToilets":4,"femaleToilets":2,"disabled":false,"diaperTable":false,"emergencyBell":true,"cctv":false,"managerTel":"0519704536","source":"public","category":"public"},{"id":"202433600000100004","name":"항월마을","lat":35.074422,"lng":128.838836,"roadAddr":"부산광역시 강서구 가덕해안로2번길 252, 항월마을 공중화장실 (눌차동)","jibunAddr":"부산광역시 강서구 눌차동 720 항월마을 공중화장실","openHours":"상시","maleToilets":2,"femaleToilets":1,"disabled":false,"diaperTable":false,"emergencyBell":true,"cctv":false,"managerTel":"0519704612","source":"public","category":"public"},{"id":"202433600000100207","name":"녹산공영주차장","lat":35.083757,"lng":128.839907,"roadAddr":"부산광역시 강서구 녹산산단262로60번길 58, 강서구 산업단지관리사업소 (송정동)","jibunAddr":"부산광역시 강서구 송정동 1759 강서구 산업단지관리사업소","openHours":"상시","maleToilets":6,"femaleToilets":4,"disabled":true,"diaperTable":true,"emergencyBell":true,"cctv":false,"managerTel":"0519704612","source":"public","category":"public"},{"id":"202433600000100164","name":"부산경제진흥원 녹산청사","lat":35.086574,"lng":128.840263,"roadAddr":"부산광역시 강서구 녹산산단232로 38-26, 부산진해경제자유구역청 (송정동)","jibunAddr":"부산광역시 강서구 송정동 1709-2 부산진해경제자유구역청","openHours":"05:00~24:00","maleToilets":44,"femaleToilets":22,"disabled":true,"diaperTable":false,"emergencyBell":false,"cctv":true,"managerTel":"0519711730","source":"public","category":"public"},{"id":"202433600000100064","name":"만선주유소","lat":35.105493,"lng":128.843974,"roadAddr":"부산광역시 강서구 가락대로210번길 102 (송정동)","jibunAddr":"부산광역시 강서구 송정동 901-3","openHours":"07:00~20:00+일요일미운영","maleToilets":3,"femaleToilets":1,"disabled":false,"diaperTable":false,"emergencyBell":false,"cctv":false,"managerTel":"0518319171","source":"public","category":"public"},{"id":"202356700000100121","name":"청안공원(해인로즈빌앞)","lat":35.106536,"lng":128.803813,"roadAddr":"경상남도창원시진해구안청로105","jibunAddr":"경상남도창원시진해구청안동480","openHours":"상시","maleToilets":1,"femaleToilets":2,"disabled":true,"diaperTable":false,"emergencyBell":true,"cctv":false,"managerTel":"0555484501","source":"public","category":"public"},{"id":"202356700000100097","name":"풀잎나루공원","lat":35.092006,"lng":128.821485,"roadAddr":"경상남도 창원시 진해구 신항2로 80 (용원동)","jibunAddr":"경상남도 창원시 진해구 용원동 1347-3","openHours":"상시","maleToilets":3,"femaleToilets":4,"disabled":true,"diaperTable":true,"emergencyBell":true,"cctv":false,"managerTel":"0555484501","source":"public","category":"public"},{"id":"202356700000100118","name":"용재공원","lat":35.100711,"lng":128.817622,"roadAddr":"경상남도창원시진해구용원로77번길19","jibunAddr":"경상남도창원시진해구용원동1226","openHours":"상시","maleToilets":3,"femaleToilets":3,"disabled":true,"diaperTable":false,"emergencyBell":true,"cctv":false,"managerTel":"0555484501","source":"public","category":"public"},{"id":"202356700000100835","name":"웅동2동 행정복지센터","lat":35.101152,"lng":128.81475,"roadAddr":"경상남도 창원시 진해구 용재로 46, 웅동2동행정복지센터 (용원동)","jibunAddr":"경상남도 창원시 진해구 용원동 1218-2 웅동2동행정복지센터","openHours":"09:00-18:00","maleToilets":17,"femaleToilets":9,"disabled":true,"diaperTable":false,"emergencyBell":false,"cctv":false,"source":"public","category":"public"},{"id":"202356700000100829","name":"웅동문화의집","lat":35.100743,"lng":128.814617,"roadAddr":"경상남도 창원시 진해구 용원남로 89, 문화의집 (용원동)","jibunAddr":"경상남도 창원시 진해구 용원동 1218-3 문화의집","openHours":"09:00-18:00","maleToilets":10,"femaleToilets":4,"disabled":false,"diaperTable":false,"emergencyBell":false,"cctv":false,"source":"public","category":"public"},{"id":"202656700000100017","name":"용원파크골프장","lat":35.093631,"lng":128.823487,"jibunAddr":"경상남도 창원시 진해구 용원동 1347-7","openHours":"상시","maleToilets":2,"femaleToilets":2,"disabled":true,"diaperTable":false,"emergencyBell":true,"cctv":true,"managerTel":"0555484501","source":"public","category":"public"},{"id":"202356700000100096","name":"모람공원","lat":35.087354,"lng":128.822542,"roadAddr":"경상남도창원시진해구신항3로11","jibunAddr":"경상남도창원시진해구용원동1353-5","openHours":"상시","maleToilets":2,"femaleToilets":4,"disabled":true,"diaperTable":true,"emergencyBell":true,"cctv":false,"managerTel":"0555484501","source":"public","category":"public"},{"id":"202356700000100001","name":"신항 물방울어린이공원","lat":35.086557,"lng":128.810358,"roadAddr":"경상남도 창원시 진해구 신항북로 226, 공중화장실 (용원동)","jibunAddr":"경상남도 창원시 진해구 용원동 1338-4 공중화장실","openHours":"상시","maleToilets":0,"femaleToilets":1,"disabled":true,"diaperTable":true,"emergencyBell":true,"cctv":false,"managerTel":"0555484501","source":"public","category":"public"},{"id":"202356700000100833","name":"용원119안전센터 1층 화장실","lat":35.099902,"lng":128.814112,"roadAddr":"경상남도 창원시 진해구 용원로 43, 용원119안전센터 (용원동)","jibunAddr":"경상남도 창원시 진해구 용원동 1219-5 용원119안전센터","openHours":"상시","maleToilets":5,"femaleToilets":2,"disabled":false,"diaperTable":false,"emergencyBell":false,"cctv":false,"managerTel":"0555489223","source":"public","category":"public"},{"id":"202456700000100011","name":"경상남도 창원시 동부건강생활지원센터","lat":35.100259,"lng":128.81436,"roadAddr":"경상남도창원시진해구용원로41번길8,1층(진해동부건강생활지원센터)","openHours":"08:00~18:00, 휴일 미개방","maleToilets":4,"femaleToilets":4,"disabled":true,"diaperTable":false,"emergencyBell":true,"cctv":false,"managerTel":"0552256221","source":"public","category":"public"},{"id":"202356700000100971","name":"진해웅동2동 우체국","lat":35.101206,"lng":128.81451,"roadAddr":"경상남도 창원시 진해구 용재로 42, 웅동2동우체국 (용원동)","jibunAddr":"경상남도 창원시 진해구 용원동 1218-1 웅동2동우체국","openHours":"09:00-18:00","maleToilets":0,"femaleToilets":0,"disabled":true,"diaperTable":false,"emergencyBell":true,"cctv":false,"managerTel":"0555517471","source":"public","category":"public"},{"id":"202356700000100863","name":"진부주유소화장실","lat":35.111008,"lng":128.805717,"roadAddr":"경상남도창원시진해구진해대로2221(용원동)","openHours":"영업시간 내","maleToilets":3,"femaleToilets":3,"disabled":false,"diaperTable":false,"emergencyBell":false,"cctv":false,"source":"public","category":"public"},{"id":"202356700000100015","name":"가주검문소옆","lat":35.10384,"lng":128.837511,"roadAddr":"경상남도 창원시 진해구 가주로15번길 58, 가주휴게소 (가주동)","jibunAddr":"경상남도 창원시 진해구 가주동 180-7 가주휴게소","openHours":"상시","maleToilets":3,"femaleToilets":1,"disabled":false,"diaperTable":true,"emergencyBell":true,"cctv":false,"managerTel":"0555484523","source":"public","category":"public"},{"id":"202356700000100832","name":"17호 근린공원","lat":35.087473,"lng":128.82288,"roadAddr":"경상남도창원시진해구용원동1353-5","openHours":"-","maleToilets":5,"femaleToilets":5,"disabled":true,"diaperTable":false,"emergencyBell":true,"cctv":false,"source":"public","category":"public"},{"id":"202656700000100007","name":"웅동2동민원센터","lat":35.087698,"lng":128.813367,"roadAddr":"경상남도 창원시 진해구 신항4로 53-45 (용원동)","jibunAddr":"경상남도 창원시 진해구 용원동 1339-1","openHours":"09:00-18:00","maleToilets":4,"femaleToilets":1,"disabled":true,"diaperTable":false,"emergencyBell":false,"cctv":false,"source":"public","category":"public"},{"id":"202356700000100864","name":"남송주유소화장실","lat":35.102509,"lng":128.825616,"roadAddr":"경상남도창원시진해구진해대로2455(용원동,LG정유남송주유소)","openHours":"영업시간 내","maleToilets":3,"femaleToilets":1,"disabled":false,"diaperTable":false,"emergencyBell":false,"cctv":true,"source":"public","category":"public"},{"id":"202356700000100831","name":"16호 근린공원","lat":35.091668,"lng":128.821038,"roadAddr":"경상남도창원시진해구용원동1347-3","openHours":"-","maleToilets":5,"femaleToilets":5,"disabled":true,"diaperTable":false,"emergencyBell":true,"cctv":false,"source":"public","category":"public"},{"id":"202356700000100830","name":"26호 근린공원","lat":35.089322,"lng":128.80609,"roadAddr":"경상남도창원시진해구용원동1336-7","openHours":"-","maleToilets":5,"femaleToilets":5,"disabled":true,"diaperTable":false,"emergencyBell":true,"cctv":false,"source":"public","category":"public"},{"id":"202356700000100098","name":"초록오름1공원","lat":35.08927,"lng":128.807038,"roadAddr":"경상남도 창원시 진해구 신항5로 67, 공중화장실 (용원동)","jibunAddr":"경상남도 창원시 진해구 용원동 1336-7 공중화장실","openHours":"상시","maleToilets":2,"femaleToilets":4,"disabled":true,"diaperTable":true,"emergencyBell":true,"cctv":false,"managerTel":"0555484501","source":"public","category":"public"},{"id":"202356700000100122","name":"용원 문화공원","lat":35.103441,"lng":128.806724,"roadAddr":"경상남도창원시진해구안청북로32","jibunAddr":"경상남도창원시진해구용원동1207-1","openHours":"상시","maleToilets":3,"femaleToilets":2,"disabled":true,"diaperTable":true,"emergencyBell":true,"cctv":false,"managerTel":"0555484501","source":"public","category":"public"},{"id":"202356700000100834","name":"녹원주유소화장실","lat":35.098795,"lng":128.819191,"roadAddr":"경상남도창원시진해구용원로91(용원동,SK주유소)","openHours":"영업시간 내","maleToilets":3,"femaleToilets":1,"disabled":false,"diaperTable":false,"emergencyBell":false,"cctv":false,"source":"public","category":"public"},{"id":"202356700000100836","name":"동부도서관 화장실","lat":35.100008,"lng":128.817158,"roadAddr":"경상남도 창원시 진해구 용재로 66, 동부도서관 (용원동)","jibunAddr":"경상남도 창원시 진해구 용원동 1226 동부도서관","openHours":"08:00-22:00","maleToilets":20,"femaleToilets":12,"disabled":true,"diaperTable":false,"emergencyBell":false,"cctv":true,"managerTel":"0552257544","source":"public","category":"public"}]