[{"id":"202356700000100002","name":"백일아침고요산길","lat":35.12778,"lng":128.775387,"roadAddr":"경상남도 창원시 진해구 소사천로40번길 3 (소사동)","jibunAddr":"경상남도 창원시 진해구 소사동 151-32","openHours":"상시","maleToilets":2,"femaleToilets":1,"disabled":false,"diaperTable":false,"emergencyBell":false,"cctv":false,"managerTel":"0555484661","source":"public","category":"public"},{"id":"202356700000101061","name":"웅동119안전센터","lat":35.115798,"lng":128.783064,"roadAddr":"경상남도 창원시 진해구 남의로 11 (남양동)","jibunAddr":"경상남도 창원시 진해구 남양동 367-4","openHours":"상시","maleToilets":1,"femaleToilets":1,"disabled":false,"diaperTable":false,"emergencyBell":false,"cctv":false,"managerTel":"0555489223","source":"public","category":"public"},{"id":"202356700000100023","name":"대장동 용추계곡","lat":35.136605,"lng":128.785634,"roadAddr":"경상남도 창원시 진해구 마천로103번길 47 (대장동)","jibunAddr":"경상남도 창원시 진해구 대장동 12-64","openHours":"상시","maleToilets":2,"femaleToilets":1,"disabled":false,"diaperTable":false,"emergencyBell":false,"cctv":false,"managerTel":"0555484523","source":"public","category":"public"},{"id":"202356700000100838","name":"웅동1동 주민센터 1층 화장실","lat":35.125757,"lng":128.782826,"roadAddr":"경상남도창원시진해구웅동로57번가길6(마천동,웅동1동주민센터)","openHours":"근무시간 내","maleToilets":5,"femaleToilets":2,"disabled":true,"diaperTable":false,"emergencyBell":false,"cctv":false,"source":"public","category":"public"},{"id":"202356700000100842","name":"협성주유소 화장실","lat":35.120863,"lng":128.779231,"roadAddr":"경상남도창원시진해구월남로150(남양동,협성주유소)","openHours":"영업시간 내","maleToilets":2,"femaleToilets":2,"disabled":false,"diaperTable":false,"emergencyBell":false,"cctv":false,"source":"public","category":"public"},{"id":"202356700000100020","name":"대장동 정자나무옆","lat":35.147014,"lng":128.778603,"roadAddr":"경상남도 창원시 진해구 대장로 263, 공중화장실 (대장동)","jibunAddr":"경상남도 창원시 진해구 대장동 178-7 공중화장실","openHours":"상시","maleToilets":3,"femaleToilets":3,"disabled":false,"diaperTable":false,"emergencyBell":true,"cctv":true,"managerTel":"0555484523","source":"public","category":"public"},{"id":"202356700000100860","name":"용원충전소 화장실","lat":35.116895,"lng":128.798697,"roadAddr":"경상남도창원시진해구진해대로2128(두동,용원충전소)","openHours":"-","maleToilets":2,"femaleToilets":1,"disabled":false,"diaperTable":false,"emergencyBell":false,"cctv":false,"source":"public","category":"public"},{"id":"202356700000100813","name":"진해 용추계곡 공중화장실","lat":35.136537,"lng":128.785093,"roadAddr":"경상남도 창원시 진해구 마천로103번길 43 (대장동)","jibunAddr":"경상남도 창원시 진해구 대장동 12-69","openHours":"상시","maleToilets":2,"femaleToilets":1,"disabled":false,"diaperTable":false,"emergencyBell":false,"cctv":false,"source":"public","category":"public"},{"id":"202356700000100022","name":"대장동 성흥1교","lat":35.146295,"lng":128.778459,"roadAddr":"경상남도 창원시 진해구 대장로 258 (대장동)","jibunAddr":"경상남도 창원시 진해구 대장동 165","openHours":"상시","maleToilets":3,"femaleToilets":3,"disabled":false,"diaperTable":false,"emergencyBell":true,"cctv":true,"managerTel":"0555484523","source":"public","category":"public"},{"id":"202356700000100861","name":"보배산주유소 화장실","lat":35.114799,"lng":128.802597,"roadAddr":"경상남도창원시진해구진해대로2170(두동,보배산주유소)","openHours":"영업시간 내","maleToilets":2,"femaleToilets":1,"disabled":false,"diaperTable":false,"emergencyBell":false,"cctv":false,"source":"public","category":"public"},{"id":"202456700000100035","name":"진해동부맑은물재생센터 1단계","lat":35.117982,"lng":128.781192,"roadAddr":"경상남도 창원시 진해구 남영로527번길 10, 1단계 1층 (남양동)","jibunAddr":"경상남도 창원시 진해구 남양동 403","openHours":"09:00~18:00","maleToilets":4,"femaleToilets":4,"disabled":true,"diaperTable":false,"emergencyBell":false,"cctv":false,"managerTel":"0552254615","source":"public","category":"public"},{"id":"202356700000100862","name":"동구에너지 화장실","lat":35.114238,"lng":128.802992,"roadAddr":"경상남도창원시진해구진해대로2180(두동,GSLPG)","openHours":"-","maleToilets":2,"femaleToilets":1,"disabled":false,"diaperTable":false,"emergencyBell":false,"cctv":false,"source":"public","category":"public"},{"id":"202356700000100807","name":"영길운동장 화장실","lat":35.114621,"lng":128.781853,"roadAddr":"경상남도창원시진해구남영로500(남양동,영길운동장)","openHours":"-","maleToilets":4,"femaleToilets":4,"disabled":true,"diaperTable":false,"emergencyBell":false,"cctv":false,"source":"public","category":"public"},{"id":"202356700000100021","name":"대장동 성흥2교","lat":35.144633,"lng":128.7775,"roadAddr":"경상남도 창원시 진해구 대장로 237 (대장동)","jibunAddr":"경상남도 창원시 진해구 대장동 246","openHours":"상시","maleToilets":3,"femaleToilets":3,"disabled":true,"diaperTable":false,"emergencyBell":true,"cctv":true,"managerTel":"0555484523","source":"public","category":"public"},{"id":"202356700000100094","name":"소사생태길(파쇄장 근처)","lat":35.119034,"lng":128.772905,"jibunAddr":"경상남도창원시진해구남양동산4-73","openHours":"상시","maleToilets":2,"femaleToilets":1,"disabled":false,"diaperTable":false,"emergencyBell":false,"cctv":false,"managerTel":"0555484661","source":"public","category":"public"},{"id":"202356700000100019","name":"소사동 구천교 옆","lat":35.127621,"lng":128.775317,"roadAddr":"경상남도 창원시 진해구 소사천로40번길 1, 공중화장실 (소사동)","jibunAddr":"경상남도 창원시 진해구 소사동 151-42 공중화장실","openHours":"상시","maleToilets":3,"femaleToilets":1,"disabled":false,"diaperTable":false,"emergencyBell":false,"cctv":false,"managerTel":"0555484523","source":"public","category":"public"},{"id":"202356700000100017","name":"웅동시장","lat":35.125757,"lng":128.782826,"roadAddr":"경상남도 창원시 진해구 웅동로57번가길 6, 공중화장실 (마천동)","jibunAddr":"경상남도 창원시 진해구 마천동 139-2 공중화장실","openHours":"상시","maleToilets":3,"femaleToilets":1,"disabled":false,"diaperTable":false,"emergencyBell":true,"cctv":false,"managerTel":"0555484523","source":"public","category":"public"},{"id":"202356700000100018","name":"웅동수원지","lat":35.12778,"lng":128.775387,"roadAddr":"경상남도 창원시 진해구 소사천로40번길 3, 공중화장실 (소사동)","jibunAddr":"경상남도 창원시 진해구 소사동 151-32 공중화장실","openHours":"상시","maleToilets":2,"femaleToilets":1,"disabled":false,"diaperTable":false,"emergencyBell":false,"cctv":false,"managerTel":"0555484523","source":"public","category":"public"},{"id":"202356700000100025","name":"내곡게이트볼장내","lat":35.12622,"lng":128.791702,"roadAddr":"경상남도 창원시 진해구 웅동로121번길 56 (마천동)","jibunAddr":"경상남도 창원시 진해구 마천동 22-2","openHours":"상시","maleToilets":3,"femaleToilets":2,"disabled":false,"diaperTable":false,"emergencyBell":false,"cctv":false,"managerTel":"0555484523","source":"public","category":"public"},{"id":"202356700000100972","name":"진해웅동 우체국","lat":35.125223,"lng":128.783657,"roadAddr":"경상남도진해구웅동로63,웅동우체국(마천동)","openHours":"09:00-18:00","maleToilets":1,"femaleToilets":1,"disabled":true,"diaperTable":false,"emergencyBell":false,"cctv":false,"source":"public","category":"public"},{"id":"202656702060100091","name":"소사생태길(파쇄장옆)","lat":35.124042,"lng":128.78014,"roadAddr":"경상남도 창원시 진해구 웅동로29번길 1, 웅동농협농수산물간이집하장 (남양동)","jibunAddr":"경상남도 창원시 진해구 남양동 4-73 소사생태길 파쇄장 근처","openHours":"상시","maleToilets":2,"femaleToilets":1,"disabled":false,"diaperTable":false,"emergencyBell":false,"cctv":false,"source":"public","category":"public"},{"id":"202656702060100093","name":"웅동수원지 화장실","lat":35.12778,"lng":128.775387,"roadAddr":"경상남도 창원시 진해구 소사천로40번길 3 (소사동)","jibunAddr":"경상남도 창원시 진해구 소사동 151-32","openHours":"상시","maleToilets":2,"femaleToilets":2,"disabled":true,"diaperTable":false,"emergencyBell":false,"cctv":false,"source":"public","category":"public"},{"id":"202656702060100090","name":"백일아침고요산길(소사임도)","lat":35.139194,"lng":128.775059,"roadAddr":"경상남도 창원시 진해구 대장로163번길 21-7 (소사동)","jibunAddr":"경상남도 창원시 진해구 소사동 산 24","openHours":"상시","maleToilets":2,"femaleToilets":1,"disabled":false,"diaperTable":false,"emergencyBell":false,"cctv":false,"source":"public","category":"public"},{"id":"202356700000100859","name":"신항만주유소 화장실","lat":35.117207,"lng":128.798065,"roadAddr":"경상남도창원시진해구진해대로2120(두동,신항만주유소)","openHours":"영업시간 내","maleToilets":2,"femaleToilets":2,"disabled":false,"diaperTable":false,"emergencyBell":false,"cctv":false,"source":"public","category":"public"},{"id":"202456702060100003","name":"대장천생태하천","lat":35.130744,"lng":128.781751,"roadAddr":"경상남도 창원시 진해구 대장로 44-13 (소사동)","jibunAddr":"경상남도 창원시 진해구 소사동 3-6","openHours":"상시","maleToilets":2,"femaleToilets":2,"disabled":false,"diaperTable":false,"emergencyBell":true,"cctv":false,"managerTel":"0555484523","source":"public","category":"public"},{"id":"202356700000100837","name":"웅동오일뱅크 화장실","lat":35.123785,"lng":128.78546,"roadAddr":"경상남도창원시진해구웅동로86(마천동,웅동주유소)","openHours":"-","maleToilets":1,"femaleToilets":2,"disabled":false,"diaperTable":false,"emergencyBell":false,"cctv":false,"source":"public","category":"public"},{"id":"202356700000100839","name":"웅동1동 주민센터 2층 화장실","lat":35.125757,"lng":128.782826,"roadAddr":"경상남도창원시진해구웅동로57번가길6(마천동,웅동1동주민센터)","openHours":"-","maleToilets":2,"femaleToilets":2,"disabled":false,"diaperTable":false,"emergencyBell":false,"cctv":false,"source":"public","category":"public"},{"id":"202456700000100039","name":"진해동부맑은물재생센터 2단계","lat":35.117982,"lng":128.781192,"roadAddr":"경상남도 창원시 진해구 남영로527번길 10, 2단계 1층 (남양동)","jibunAddr":"경상남도 창원시 진해구 남양동 403","openHours":"09:00~18:00","maleToilets":3,"femaleToilets":3,"disabled":false,"diaperTable":false,"emergencyBell":false,"cctv":false,"managerTel":"0552254615","source":"public","category":"public"},{"id":"202356700000100024","name":"대장동 대장동입구","lat":35.14779,"lng":128.779336,"roadAddr":"경상남도 창원시 진해구 대장로 273-1, 공중화장실 (대장동)","jibunAddr":"경상남도 창원시 진해구 대장동 181 공중화장실","openHours":"상시","maleToilets":3,"femaleToilets":3,"disabled":false,"diaperTable":false,"emergencyBell":true,"cctv":true,"managerTel":"0555484523","source":"public","category":"public"}]