[{"id":"202432800000100045","name":"부산동삼동우체국","lat":35.076852,"lng":129.070912,"roadAddr":"부산광역시 영도구 동삼로 37-1","jibunAddr":"부산광역시 영도구 동삼동 331-7","openHours":"(평일)09:00~18:00","maleToilets":2,"femaleToilets":1,"disabled":false,"diaperTable":false,"emergencyBell":false,"cctv":false,"managerTel":"0514039078","source":"public","category":"public"},{"id":"202432800000100040","name":"부산해양경찰서 영도파출소","lat":35.069913,"lng":129.081727,"roadAddr":"부산광역시 영도구 하리해안길 17-18","jibunAddr":"부산광역시 영도구 동삼동 1174","openHours":"09:00~18:00","maleToilets":2,"femaleToilets":1,"disabled":true,"diaperTable":false,"emergencyBell":false,"cctv":false,"managerTel":"0516642519","source":"public","category":"public"},{"id":"202432800000100210","name":"항만소방서 화장실","lat":35.081788,"lng":129.076864,"roadAddr":"부산광역시 영도구 해양로 297","jibunAddr":"부산광역시 영도구 동삼동 1150","openHours":"09:00~18:00","maleToilets":4,"femaleToilets":2,"disabled":true,"diaperTable":false,"emergencyBell":true,"cctv":false,"managerTel":"0517604923","source":"public","category":"public"},{"id":"202432800000100147","name":"국립해양박물관","lat":35.078563,"lng":129.080245,"roadAddr":"부산광역시 영도구 해양로301번길 45","jibunAddr":"부산광역시 영도구 동삼동 1156","openHours":"09:00~18:00","maleToilets":25,"femaleToilets":38,"disabled":true,"diaperTable":true,"emergencyBell":false,"cctv":false,"managerTel":"0513091911","source":"public","category":"public"},{"id":"202432800000100015","name":"개인택시영도LPG충전소","lat":35.082176,"lng":129.076429,"roadAddr":"부산광역시 영도구 해양로 296","jibunAddr":"부산광역시 영도구 동삼동 254-19","openHours":"상시","maleToilets":2,"femaleToilets":1,"disabled":false,"diaperTable":false,"emergencyBell":false,"cctv":true,"managerTel":"0514008987","source":"public","category":"public"},{"id":"202432800000100050","name":"해수천1호","lat":35.072274,"lng":129.07663,"roadAddr":"부산광역시 영도구 해양로 412","jibunAddr":"부산광역시 영도구 동삼동 1126-11","openHours":"상시","maleToilets":2,"femaleToilets":2,"disabled":false,"diaperTable":false,"emergencyBell":true,"cctv":false,"managerTel":"0514194445","source":"public","category":"public"},{"id":"202632800000100002","name":"태종로","lat":35.087716,"lng":129.070702,"jibunAddr":"부산광역시 영도구 청학동 73-105","openHours":"상시","maleToilets":2,"femaleToilets":1,"disabled":true,"diaperTable":false,"emergencyBell":true,"cctv":false,"managerTel":"0514194441","source":"public","category":"public"},{"id":"202432800000100021","name":"영도구청(본관)","lat":35.091217,"lng":129.06791,"roadAddr":"부산광역시 영도구 태종로 423","jibunAddr":"부산광역시 영도구 청학동 48-3","openHours":"09:00~18:00","maleToilets":6,"femaleToilets":4,"disabled":true,"diaperTable":true,"emergencyBell":false,"cctv":false,"managerTel":"0514194162","source":"public","category":"public"},{"id":"202432800000100144","name":"영도놀이마루","lat":35.07584,"lng":129.069093,"roadAddr":"부산광역시 영도구 와치로 259 (동삼동)","jibunAddr":"부산광역시 영도구 동삼동 331-41","openHours":"09:00~18:00","maleToilets":31,"femaleToilets":31,"disabled":true,"diaperTable":false,"emergencyBell":false,"cctv":false,"managerTel":"0514033463","source":"public","category":"public"},{"id":"202432800000100146","name":"한국해양수산연수원","lat":35.077515,"lng":129.078565,"roadAddr":"부산광역시 영도구 해양로 367(동삼동)","jibunAddr":"부산광역시 영도구 동삼동 1164","openHours":"(평일)09:00~18:00","maleToilets":4,"femaleToilets":2,"disabled":false,"diaperTable":false,"emergencyBell":false,"cctv":true,"managerTel":"0516205529","source":"public","category":"public"},{"id":"202432800000100221","name":"한국해양수산개발원(KMI)","lat":35.079333,"lng":129.077418,"roadAddr":"부산광역시 영도구 해양로301번길 26 (동삼동)","jibunAddr":"부산광역시 영도구 동삼동 1161","openHours":"09:00~18:00","maleToilets":4,"femaleToilets":5,"disabled":true,"diaperTable":false,"emergencyBell":true,"cctv":false,"managerTel":"0517974800","source":"public","category":"public"},{"id":"202432800000100214","name":"영도 환경공원 옥외 화장실","lat":35.085052,"lng":129.077926,"roadAddr":"부산광역시 영도구 해양로 259","jibunAddr":"부산광역시 영도구 동삼동 175-2","openHours":"07:00~18:00","maleToilets":7,"femaleToilets":5,"disabled":true,"diaperTable":true,"emergencyBell":false,"cctv":true,"managerTel":"0517173026","source":"public","category":"public"},{"id":"202632800000100006","name":"부산복합문화공간 새모 업무지원동 지상 3층","lat":35.080496,"lng":129.076646,"roadAddr":"부산광역시 영도구 해양로301번길 14, 부산복합문화공간 새모 (동삼동)","jibunAddr":"부산광역시 영도구 동삼동 1158 부산복합문화공간 새모","openHours":"09:00~18:00","maleToilets":2,"femaleToilets":3,"disabled":true,"diaperTable":false,"emergencyBell":false,"cctv":false,"managerTel":"05155193560","source":"public","category":"public"},{"id":"202632800000100007","name":"부산복합문화공간 새모 문화복지 B동 지하 1층","lat":35.080496,"lng":129.076646,"roadAddr":"부산광역시 영도구 해양로301번길 14, 부산복합문화공간 새모 (동삼동)","jibunAddr":"부산광역시 영도구 동삼동 1158 부산복합문화공간 새모","openHours":"09:00~18:00","maleToilets":2,"femaleToilets":3,"disabled":true,"diaperTable":false,"emergencyBell":false,"cctv":false,"managerTel":"05155193560","source":"public","category":"public"},{"id":"202632800000100012","name":"부산복합문화공간 새모 문화복지 A동 지하 1층","lat":35.080496,"lng":129.076646,"roadAddr":"부산광역시 영도구 해양로301번길 14, 부산복합문화공간 새모 (동삼동)","jibunAddr":"부산광역시 영도구 동삼동 1158 부산복합문화공간 새모","openHours":"09:00~18:00","maleToilets":2,"femaleToilets":1,"disabled":false,"diaperTable":false,"emergencyBell":false,"cctv":false,"managerTel":"05155193560","source":"public","category":"public"},{"id":"202632800000100003","name":"부산복합문화공간 새모 업무지원동 지하 1층","lat":35.080496,"lng":129.076646,"roadAddr":"부산광역시 영도구 해양로301번길 14, 부산복합문화공간 새모 (동삼동)","jibunAddr":"부산광역시 영도구 동삼동 1158 부산복합문화공간 새모","openHours":"09:00~18:00","maleToilets":3,"femaleToilets":3,"disabled":true,"diaperTable":false,"emergencyBell":false,"cctv":false,"managerTel":"05155193560","source":"public","category":"public"},{"id":"202632800000100005","name":"부산복합문화공간 새모 업무지원동 지상 2층","lat":35.080496,"lng":129.076646,"roadAddr":"부산광역시 영도구 해양로301번길 14, 부산복합문화공간 새모 (동삼동)","jibunAddr":"부산광역시 영도구 동삼동 1158 부산복합문화공간 새모","openHours":"09:00~18:00","maleToilets":2,"femaleToilets":3,"disabled":true,"diaperTable":false,"emergencyBell":false,"cctv":false,"managerTel":"05155193560","source":"public","category":"public"},{"id":"202632800000100011","name":"부산복합문화공간 새모 문화복지 A동 지하 2층","lat":35.080496,"lng":129.076646,"roadAddr":"부산광역시 영도구 해양로301번길 14, 부산복합문화공간 새모 (동삼동)","jibunAddr":"부산광역시 영도구 동삼동 1158 부산복합문화공간 새모","openHours":"09:00~18:00","maleToilets":0,"femaleToilets":0,"disabled":true,"diaperTable":false,"emergencyBell":false,"cctv":false,"managerTel":"05155193560","source":"public","category":"public"},{"id":"202632800000100013","name":"마린축구장","lat":35.0813,"lng":129.076043,"roadAddr":"부산광역시 영도구 해양로 307, 영도공간 307 (동삼동)","jibunAddr":"부산광역시 영도구 동삼동 1157 영도공간 307","openHours":"08:00~21:00","maleToilets":5,"femaleToilets":3,"disabled":true,"diaperTable":false,"emergencyBell":false,"cctv":false,"managerTel":"0514194151","source":"public","category":"public"},{"id":"202632800000100010","name":"부산복합문화공간 새모 문화복지 B동 지상 3층","lat":35.080496,"lng":129.076646,"roadAddr":"부산광역시 영도구 해양로301번길 14, 부산복합문화공간 새모 (동삼동)","jibunAddr":"부산광역시 영도구 동삼동 1158 부산복합문화공간 새모","openHours":"09:00~18:00","maleToilets":2,"femaleToilets":3,"disabled":true,"diaperTable":false,"emergencyBell":false,"cctv":false,"managerTel":"05155193560","source":"public","category":"public"},{"id":"202632800000100008","name":"부산복합문화공간 새모 문화복지 B동 지상 1층","lat":35.080496,"lng":129.076646,"roadAddr":"부산광역시 영도구 해양로301번길 14, 부산복합문화공간 새모 (동삼동)","jibunAddr":"부산광역시 영도구 동삼동 1158 부산복합문화공간 새모","openHours":"09:00~18:00","maleToilets":2,"femaleToilets":3,"disabled":true,"diaperTable":false,"emergencyBell":false,"cctv":false,"managerTel":"05155193560","source":"public","category":"public"},{"id":"202632800000100009","name":"부산복합문화공간 새모 문화복지 B동 지상 2층","lat":35.080496,"lng":129.076646,"roadAddr":"부산광역시 영도구 해양로301번길 14, 부산복합문화공간 새모 (동삼동)","jibunAddr":"부산광역시 영도구 동삼동 1158 부산복합문화공간 새모","openHours":"09:00~18:00","maleToilets":2,"femaleToilets":3,"disabled":true,"diaperTable":false,"emergencyBell":false,"cctv":false,"managerTel":"05155193560","source":"public","category":"public"},{"id":"202632800000100004","name":"부산복합문화공간 새모 업무지원동 지상 1층","lat":35.080496,"lng":129.076646,"roadAddr":"부산광역시 영도구 해양로301번길 14, 부산복합문화공간 새모 (동삼동)","jibunAddr":"부산광역시 영도구 동삼동 1158 부산복합문화공간 새모","openHours":"09:00~18:00","maleToilets":2,"femaleToilets":3,"disabled":true,"diaperTable":false,"emergencyBell":false,"cctv":false,"managerTel":"05155193560","source":"public","category":"public"},{"id":"202432800000100009","name":"세기상사㈜ 대성주유소","lat":35.09357,"lng":129.067483,"roadAddr":"부산광역시 영도구 해양로 128 (청학동)","jibunAddr":"부산광역시 영도구 청학동 1-74","openHours":"상시","maleToilets":4,"femaleToilets":2,"disabled":false,"diaperTable":false,"emergencyBell":false,"cctv":false,"managerTel":"0514125189","source":"public","category":"public"},{"id":"202432800000100150","name":"국립해양박물관 화장실(외부)","lat":35.078563,"lng":129.080245,"roadAddr":"부산광역시 영도구 해양로301번길 45","jibunAddr":"부산광역시 영도구 동삼동 1156","openHours":"상시","maleToilets":6,"femaleToilets":8,"disabled":true,"diaperTable":true,"emergencyBell":false,"cctv":false,"managerTel":"0513091900","source":"public","category":"public"},{"id":"202432800000100051","name":"해수천2호","lat":35.07467,"lng":129.075176,"roadAddr":"부산광역시 영도구 해양로 386","jibunAddr":"부산광역시 영도구 동삼동 1137-2","openHours":"상시","maleToilets":2,"femaleToilets":2,"disabled":false,"diaperTable":false,"emergencyBell":true,"cctv":false,"managerTel":"0514194445","source":"public","category":"public"},{"id":"202432800000100013","name":"SK행복충전 부산에너지충전소","lat":35.091531,"lng":129.069563,"roadAddr":"부산광역시 영도구 해양로 160","jibunAddr":"부산광역시 영도구 청학동 1-46","openHours":"상시","maleToilets":2,"femaleToilets":1,"disabled":false,"diaperTable":false,"emergencyBell":false,"cctv":false,"managerTel":"0514035752","source":"public","category":"public"},{"id":"202432800000100213","name":"항만구조대 화장실","lat":35.085954,"lng":129.071952,"roadAddr":"부산광역시 영도구 상리로 76","jibunAddr":"부산광역시 영도구 동삼동 1123-19","openHours":"09:00~18:00","maleToilets":2,"femaleToilets":1,"disabled":true,"diaperTable":false,"emergencyBell":false,"cctv":false,"managerTel":"0517604923","source":"public","category":"public"},{"id":"202432800000100026","name":"동삼2동행정복지센터","lat":35.068394,"lng":129.083016,"roadAddr":"부산광역시 영도구 동삼오션로 27(동삼동)","jibunAddr":"부산광역시 영도구 동삼동 1179-5","openHours":"(평일)09:00~18:00","maleToilets":12,"femaleToilets":12,"disabled":true,"diaperTable":false,"emergencyBell":true,"cctv":false,"managerTel":"0514195741","source":"public","category":"public"},{"id":"202432800000100131","name":"태종아리랑","lat":35.072398,"lng":129.074796,"roadAddr":"부산광역시 영도구 와치로 328(동삼동)","jibunAddr":"부산광역시 영도구 동삼동 424-11","openHours":"10:30~21:00","maleToilets":6,"femaleToilets":4,"disabled":false,"diaperTable":true,"emergencyBell":false,"cctv":false,"managerTel":"0514049292","source":"public","category":"public"},{"id":"202432800000100128","name":"부산은행 영도출장소","lat":35.091217,"lng":129.06791,"roadAddr":"부산광역시 영도구 태종로 423(청학동)","jibunAddr":"부산광역시 영도구 청학동 48-3","openHours":"(평일)09:00~16:00","maleToilets":2,"femaleToilets":1,"disabled":false,"diaperTable":false,"emergencyBell":false,"cctv":false,"source":"public","category":"public"},{"id":"202432800000100072","name":"동삼혁신도시 아라마루","lat":35.077165,"lng":129.081957,"roadAddr":"부산광역시 영도구 해양로301번길 55","jibunAddr":"부산광역시 영도구 동삼동 1165","openHours":"상시","maleToilets":4,"femaleToilets":4,"disabled":true,"diaperTable":true,"emergencyBell":true,"cctv":false,"managerTel":"0514194445","source":"public","category":"public"},{"id":"202432800000100012","name":"동현주유소","lat":35.087168,"lng":129.072507,"roadAddr":"부산광역시 영도구 해양로 212","jibunAddr":"부산광역시 영도구 동삼동 201-16","openHours":"06:00~21:00(일요일미개방)","maleToilets":2,"femaleToilets":1,"disabled":false,"diaperTable":false,"emergencyBell":false,"cctv":false,"managerTel":"0514160904","source":"public","category":"public"},{"id":"202432800000100145","name":"부산항국제크루즈터미널","lat":35.080757,"lng":129.079177,"roadAddr":"부산광역시 영도구 해양로301번길 17 국제크루즈터미널","jibunAddr":"부산광역시 영도구 동삼동 1155","openHours":"(평일)09:00~17:00","maleToilets":4,"femaleToilets":5,"disabled":true,"diaperTable":true,"emergencyBell":false,"cctv":false,"managerTel":"0514056154","source":"public","category":"public"},{"id":"202432800000100022","name":"영도구청 보건소","lat":35.091217,"lng":129.06791,"roadAddr":"부산광역시 영도구 태종로 423","jibunAddr":"부산광역시 영도구 청학동 48-3","openHours":"09:00~18:00","maleToilets":16,"femaleToilets":10,"disabled":true,"diaperTable":false,"emergencyBell":false,"cctv":false,"managerTel":"0514194901","source":"public","category":"public"},{"id":"202432800000100029","name":"동삼1동행정복지센터","lat":35.074911,"lng":129.068408,"roadAddr":"부산광역시 영도구 중리로 44-1 (동삼동)","jibunAddr":"부산광역시 영도구 동삼동 510-23","openHours":"(평일)09:00~18:00","maleToilets":6,"femaleToilets":3,"disabled":true,"diaperTable":true,"emergencyBell":true,"cctv":false,"managerTel":"0514195721","source":"public","category":"public"},{"id":"202432800000100074","name":"동삼하리항","lat":35.069811,"lng":129.0815,"roadAddr":"부산광역시 영도구 하리해안길 17-10","jibunAddr":"부산광역시 영도구 동삼동 1174-6","openHours":"상시","maleToilets":3,"femaleToilets":2,"disabled":true,"diaperTable":false,"emergencyBell":true,"cctv":false,"managerTel":"0514194445","source":"public","category":"public"},{"id":"202432800000100038","name":"동삼지구대","lat":35.078335,"lng":129.073263,"roadAddr":"부산광역시 영도구 태종로 618","jibunAddr":"부산광역시 영도구 동삼동 308-3","openHours":"상시","maleToilets":5,"femaleToilets":2,"disabled":false,"diaperTable":false,"emergencyBell":false,"cctv":false,"managerTel":"0514039129","source":"public","category":"public"},{"id":"202432800000100139","name":"상리종합사회복지관","lat":35.086166,"lng":129.070776,"roadAddr":"부산광역시 영도구 상리로 63-16 (동삼동)","jibunAddr":"부산광역시 영도구 동삼동 1123","openHours":"09:00~18:00","maleToilets":7,"femaleToilets":5,"disabled":true,"diaperTable":false,"emergencyBell":false,"cctv":false,"managerTel":"0514045061","source":"public","category":"public"},{"id":"202432800000100081","name":"동삼동패총전시관","lat":35.071229,"lng":129.079788,"roadAddr":"부산광역시 영도구 태종로 729","jibunAddr":"부산광역시 영도구 동삼동 748-5","openHours":"09:00~18:00","maleToilets":3,"femaleToilets":2,"disabled":true,"diaperTable":false,"emergencyBell":false,"cctv":false,"managerTel":"0514031193","source":"public","category":"public"},{"id":"202432800000100116","name":"동삼동새마을금고(본점)","lat":35.079261,"lng":129.07012,"roadAddr":"부산광역시 영도구 동삼로 65-1(동삼동)","jibunAddr":"부산광역시 영도구 동삼동 231-106","openHours":"(평일)09:00~16:00","maleToilets":3,"femaleToilets":2,"disabled":false,"diaperTable":false,"emergencyBell":false,"cctv":false,"managerTel":"0514043001","source":"public","category":"public"},{"id":"202432800000100039","name":"부산해양경찰서","lat":35.082285,"lng":129.077328,"roadAddr":"부산광역시 영도구 해양로 293","jibunAddr":"부산광역시 영도구 동삼동 1149","openHours":"09:00~18:00","maleToilets":30,"femaleToilets":13,"disabled":true,"diaperTable":false,"emergencyBell":true,"cctv":false,"managerTel":"0516642519","source":"public","category":"public"},{"id":"202432800000100011","name":"해양특구주유소","lat":35.084217,"lng":129.077016,"roadAddr":"부산광역시 영도구 해양로 270","jibunAddr":"부산광역시 영도구 동삼동 175-23","openHours":"상시","maleToilets":2,"femaleToilets":1,"disabled":false,"diaperTable":false,"emergencyBell":false,"cctv":false,"managerTel":"0514045189","source":"public","category":"public"},{"id":"202432800000100135","name":"피아크","lat":35.086391,"lng":129.076726,"roadAddr":"부산광역시 영도구 해양로195번길 180 (동삼동)","jibunAddr":"부산광역시 영도구 동삼동 201-6","openHours":"09:00~23:00","maleToilets":33,"femaleToilets":24,"disabled":true,"diaperTable":true,"emergencyBell":true,"cctv":true,"managerTel":"0514049200","source":"public","category":"public"},{"id":"202432800000100165","name":"해양대 대학본부","lat":35.074407,"lng":129.087131,"roadAddr":"부산광역시 영도구 태종로 727 국립한국해양대학교","jibunAddr":"부산광역시  영도구 동삼동 1","openHours":"(평일)06:00~22:00+(주말)09:00~18:00","maleToilets":41,"femaleToilets":29,"disabled":true,"diaperTable":true,"emergencyBell":true,"cctv":true,"managerTel":"0514105053","source":"public","category":"public"},{"id":"202432800000100027","name":"동삼3동행정복지센터","lat":35.084666,"lng":129.068655,"roadAddr":"부산광역시 영도구 상리로 39 (동삼동)","jibunAddr":"부산광역시 영도구 동삼동 1123-9","openHours":"(평일)09:00~18:00","maleToilets":5,"femaleToilets":2,"disabled":true,"diaperTable":false,"emergencyBell":false,"cctv":false,"managerTel":"0514195761","source":"public","category":"public"},{"id":"202432800000100118","name":"태종대신협","lat":35.080741,"lng":129.070707,"roadAddr":"부산광역시 영도구 동삼로 84(동삼동)","jibunAddr":"부산광역시 영도구 동삼동 231-80","openHours":"(평일)09:00~16:00","maleToilets":2,"femaleToilets":1,"disabled":false,"diaperTable":false,"emergencyBell":false,"cctv":false,"managerTel":"0514042178","source":"public","category":"public"},{"id":"202432800000100044","name":"부산동삼3동우체국","lat":35.084711,"lng":129.068387,"roadAddr":"부산광역시 영도구 상리로 37","jibunAddr":"부산광역시 영도구 동삼동 1123-8","openHours":"(평일)09:00~18:00","maleToilets":2,"femaleToilets":1,"disabled":true,"diaperTable":false,"emergencyBell":false,"cctv":true,"managerTel":"0514036868","source":"public","category":"public"},{"id":"202333100000100188","name":"백운포체육공원(인조잔디구장옆)","lat":35.103676,"lng":129.110418,"roadAddr":"부산광역시 남구 백운포로 104, 백운포체육공원 공중화장실 (용호동)","jibunAddr":"부산광역시 남구 용호동 895-18 백운포체육공원 공중화장실","openHours":"상시","maleToilets":4,"femaleToilets":3,"disabled":true,"diaperTable":true,"emergencyBell":true,"cctv":true,"managerTel":"0516074442","source":"public","category":"public"},{"id":"202333100000100193","name":"신선대 입구 임도","lat":35.105977,"lng":129.104733,"roadAddr":"부산광역시 남구 신선대산복로174번길 280, 신선대 입구 임도 공중화장실 (용호동)","jibunAddr":"부산광역시 남구 용호동 산 241-7 신선대 입구 임도 공중화장실","openHours":"상시","maleToilets":2,"femaleToilets":2,"disabled":false,"diaperTable":false,"emergencyBell":true,"cctv":true,"managerTel":"0516074442","source":"public","category":"public"},{"id":"202333100000100253","name":"남구 국민체육센터","lat":35.103882,"lng":129.1082,"roadAddr":"부산광역시 남구 백운포로 110 (용호동, 남구국민체육센터)","openHours":"상시","maleToilets":17,"femaleToilets":18,"disabled":true,"diaperTable":false,"emergencyBell":false,"cctv":true,"managerTel":"0516073614","source":"public","category":"public"},{"id":"202333100000100166","name":"굿오일주유소","lat":35.108891,"lng":129.082048,"roadAddr":"부산광역시 남구 북항로 108 (감만동)","openHours":"19시간","maleToilets":2,"femaleToilets":1,"disabled":false,"diaperTable":false,"emergencyBell":false,"cctv":false,"managerTel":"0516375157","source":"public","category":"public"},{"id":"202333100000100176","name":"인터지스 주유소","lat":35.11079,"lng":129.083698,"roadAddr":"부산광역시 남구 신선로 173 (감만동)","openHours":"상시","maleToilets":4,"femaleToilets":2,"disabled":false,"diaperTable":false,"emergencyBell":false,"cctv":false,"managerTel":"0516110583","source":"public","category":"public"},{"id":"202333100000100197","name":"유선정 체육공원","lat":35.10939,"lng":129.106947,"roadAddr":"부산광역시 남구 신선대산복로 135 (용호동)","jibunAddr":"부산광역시 남구 용호동 산 85-4","openHours":"상시","maleToilets":2,"femaleToilets":2,"disabled":false,"diaperTable":false,"emergencyBell":true,"cctv":false,"managerTel":"0516074442","source":"public","category":"public"},{"id":"202333100000100244","name":"내트럭부산용당사업소주유소","lat":35.112071,"lng":129.094564,"roadAddr":"부산광역시 남구 신선로 261 (용당동, 부산 용당 화물차 휴게소)","openHours":"상시","maleToilets":3,"femaleToilets":2,"disabled":false,"diaperTable":false,"emergencyBell":false,"cctv":false,"managerTel":"0519318001","source":"public","category":"public"},{"id":"202333100000100290","name":"용당터미널주유소","lat":35.110298,"lng":129.092085,"roadAddr":"부산광역시 남구 신선로 252 (용당동)","jibunAddr":"부산광역시 남구 용당동 206-27","openHours":"상시","maleToilets":3,"femaleToilets":2,"disabled":false,"diaperTable":false,"emergencyBell":false,"cctv":false,"managerTel":"0516215154","source":"public","category":"public"},{"id":"202333100000100183","name":"신선대 중턱","lat":35.10377,"lng":129.101291,"roadAddr":"부산광역시 남구 신선대산복로174번길 78, 신선대유원지 중턱 공중화장실 (용당동)","jibunAddr":"부산광역시 남구 용당동 산 170 신선대유원지 중턱 공중화장실","openHours":"상시","maleToilets":2,"femaleToilets":2,"disabled":false,"diaperTable":false,"emergencyBell":true,"cctv":false,"managerTel":"0516074442","source":"public","category":"public"},{"id":"202333100000100330","name":"대한통운컨테이너터미널","lat":35.110248,"lng":129.095897,"roadAddr":"부산광역시 남구 신선로 294 (용당동)","jibunAddr":"부산광역시 남구 용당동 123","openHours":"09:00∼8:00","maleToilets":8,"femaleToilets":4,"disabled":false,"diaperTable":false,"emergencyBell":false,"cctv":true,"managerTel":"0516200200","source":"public","category":"public"},{"id":"202333100000100254","name":"남구실내빙상장","lat":35.104158,"lng":129.110078,"roadAddr":"부산광역시 남구 백운포로 106 (용호동)","openHours":"상시","maleToilets":15,"femaleToilets":8,"disabled":true,"diaperTable":false,"emergencyBell":false,"cctv":true,"managerTel":"0516074935","source":"public","category":"public"},{"id":"202333100000100186","name":"백운포체육공원(테니스장앞)","lat":35.104239,"lng":129.111276,"roadAddr":"부산광역시 남구 백운포로 34, 백운포테니스장 입구 공중화장실 (용호동)","jibunAddr":"부산광역시 남구 용호동 895-3 백운포테니스장 입구 공중화장실","openHours":"상시","maleToilets":4,"femaleToilets":4,"disabled":true,"diaperTable":true,"emergencyBell":true,"cctv":true,"managerTel":"0516074442","source":"public","category":"public"},{"id":"202633100000100003","name":"내트럭(주)부산사업소주유소","lat":35.110343,"lng":129.081836,"roadAddr":"부산광역시 남구 신선로 168, SK부산항화물차휴게소 (감만동)","jibunAddr":"부산광역시 남구 감만동 498-17 SK부산항화물차휴게소","openHours":"상시","maleToilets":8,"femaleToilets":6,"disabled":false,"diaperTable":false,"emergencyBell":false,"cctv":false,"managerTel":"0516383971","source":"public","category":"public"}]