[{"id":"202432500000100004","name":"웰빙체육관","lat":35.114807,"lng":129.031649,"roadAddr":"부산광역시 중구 영주로 89","jibunAddr":"부산광역시 중구 영주동 71-6","openHours":"09:00~18:00","maleToilets":6,"femaleToilets":5,"disabled":true,"diaperTable":false,"emergencyBell":false,"cctv":false,"managerTel":"0516004124","source":"public","category":"public"},{"id":"202432500000100070","name":"고맙습니다.글마루작은도서관","lat":35.112721,"lng":129.031628,"roadAddr":"부산광역시 중구 동영로 87-1","jibunAddr":"부산광역시 중구 영주동 95-13","openHours":"10:00~20:00","maleToilets":2,"femaleToilets":2,"disabled":false,"diaperTable":true,"emergencyBell":false,"cctv":false,"managerTel":"0516004042","source":"public","category":"public"},{"id":"202532500000100003","name":"새영주시장 고객지원센터","lat":35.112677,"lng":129.036482,"roadAddr":"부산광역시 중구 초량중로6번길 7-1, 새영주시장 고객지원센터 (영주동)","jibunAddr":"부산광역시 중구 영주동 20-23 새영주시장 고객지원센터","openHours":"09:00-18:00","maleToilets":2,"femaleToilets":1,"disabled":false,"diaperTable":false,"emergencyBell":false,"cctv":false,"managerTel":"0516004517","source":"public","category":"public"},{"id":"202432500000100079","name":"중앙공원 충혼탑","lat":35.114386,"lng":129.028043,"roadAddr":"부산광역시 중구 중앙공원로 87","jibunAddr":"부산광역시 중구 영주동 산 4 충혼탑 일원","openHours":"09:00~17:00","maleToilets":6,"femaleToilets":5,"disabled":true,"diaperTable":false,"emergencyBell":true,"cctv":false,"managerTel":"0518607835","source":"public","category":"public"},{"id":"202332700000100006","name":"금수사초소","lat":35.120742,"lng":129.030277,"roadAddr":"부산광역시 동구 망양로 533-33(초량동) 금수사초소","jibunAddr":"부산광역시 동구 초량동 산 53-1 금수사초소","openHours":"상시","maleToilets":2,"femaleToilets":2,"disabled":false,"diaperTable":false,"emergencyBell":true,"cctv":false,"managerTel":"0514404514","source":"public","category":"public"},{"id":"202332700000100002","name":"부산진성공원 북문","lat":35.135743,"lng":129.06045,"roadAddr":"부산광역시 동구 자성로 99, 부산진성공원 북문,조선통신사역사관 (범일동)","jibunAddr":"부산광역시 동구 범일동 590-5 부산진성공원 북문,조선통신사역사관","openHours":"상시","maleToilets":4,"femaleToilets":2,"disabled":true,"diaperTable":false,"emergencyBell":true,"cctv":false,"managerTel":"0514404534","source":"public","category":"public"},{"id":"202332700000100136","name":"시민회관 관리동 3층 남자","lat":35.138846,"lng":129.065224,"roadAddr":"부산광역시 동구 자성로133번길 16, 시민회관 (범일동)","jibunAddr":"부산광역시 동구 범일동 830-31 시민회관","openHours":"공연시","maleToilets":8,"femaleToilets":0,"disabled":false,"diaperTable":false,"emergencyBell":false,"cctv":false,"managerTel":"0516305290","source":"public","category":"public"},{"id":"202332700000100051","name":"안창119안전센터","lat":35.146028,"lng":129.041757,"roadAddr":"부산광역시 동구 안창로 62, 안창119안전센터 (범일동)","jibunAddr":"부산광역시 동구 범일동 산 43 안창119안전센터","openHours":"09:00~18:00 출동시 미개방","maleToilets":4,"femaleToilets":2,"disabled":false,"diaperTable":false,"emergencyBell":false,"cctv":false,"managerTel":"0517606271","source":"public","category":"public"},{"id":"202332700000100141","name":"시민회관 대극장 개인분장3","lat":35.138846,"lng":129.065224,"roadAddr":"부산광역시 동구 자성로133번길 16, 시민회관 (범일동)","jibunAddr":"부산광역시 동구 범일동 830-31 시민회관","openHours":"공연시","maleToilets":0,"femaleToilets":1,"disabled":false,"diaperTable":false,"emergencyBell":false,"cctv":false,"managerTel":"0516305290","source":"public","category":"public"},{"id":"202332700000100135","name":"시민회관 관리동 2층 여자","lat":35.138846,"lng":129.065224,"roadAddr":"부산광역시 동구 자성로133번길 16, 시민회관 (범일동)","jibunAddr":"부산광역시 동구 범일동 830-31 시민회관","openHours":"공연시","maleToilets":0,"femaleToilets":3,"disabled":false,"diaperTable":false,"emergencyBell":false,"cctv":false,"managerTel":"0516305290","source":"public","category":"public"},{"id":"202332700000100147","name":"풀랫폼 B동 장애인용","lat":35.115147,"lng":129.040835,"roadAddr":"부산광역시 동구 중앙대로 210, 유라시아 플랫폼 (초량동)","jibunAddr":"부산광역시 동구 초량동 1202","openHours":"09:00~22:00","maleToilets":0,"femaleToilets":0,"disabled":true,"diaperTable":false,"emergencyBell":false,"cctv":true,"managerTel":"0515197439","source":"public","category":"public"},{"id":"202332700000100012","name":"좌천체육공원","lat":35.129298,"lng":129.045298,"roadAddr":"부산광역시 동구 구청로 1(수정동) 좌천체육공원","jibunAddr":"부산광역시 동구 좌천동 749-1 좌천체육공원","openHours":"상시","maleToilets":2,"femaleToilets":1,"disabled":false,"diaperTable":false,"emergencyBell":true,"cctv":false,"managerTel":"0514404452","source":"public","category":"public"},{"id":"202332700000100093","name":"동구SK주유소","lat":35.127021,"lng":129.047503,"roadAddr":"부산광역시 동구 중앙대로 352, 동구SK주유소 (초량동)","jibunAddr":"부산광역시 동구 초량동 1149-1","openHours":"상시","maleToilets":2,"femaleToilets":1,"disabled":false,"diaperTable":false,"emergencyBell":false,"cctv":false,"managerTel":"0514623504","source":"public","category":"public"},{"id":"202332700000100001","name":"부산진성공원 서문","lat":35.135743,"lng":129.06045,"roadAddr":"부산광역시 동구 자성로 99, 부산진성공원 서문,조선통신사역사관 (범일동)","jibunAddr":"부산광역시 동구 범일동 590-5 부산진성공원 서문,조선통신사역사관","openHours":"상시","maleToilets":7,"femaleToilets":3,"disabled":true,"diaperTable":true,"emergencyBell":true,"cctv":false,"managerTel":"0514404534","source":"public","category":"public"},{"id":"202332700000100041","name":"도시철도 범일역","lat":35.140723,"lng":129.059343,"roadAddr":"부산광역시 동구 범일로 지하 108, 도시철도 범일역 (범일동)","jibunAddr":"부산광역시 동구 범일동 949 도시철도 범일역","openHours":"05:00~24:00","maleToilets":6,"femaleToilets":7,"disabled":true,"diaperTable":true,"emergencyBell":true,"cctv":true,"managerTel":"0516786117","source":"public","category":"public"},{"id":"202332700000100102","name":"동구청 1층 까페","lat":35.129298,"lng":129.045298,"roadAddr":"부산광역시 동구 구청로 1, 동구청 (수정동)","jibunAddr":"부산광역시 동구 수정동 806-74 동구청","openHours":"08:00~19:00","maleToilets":5,"femaleToilets":4,"disabled":true,"diaperTable":false,"emergencyBell":false,"cctv":false,"managerTel":"0514404162","source":"public","category":"public"},{"id":"202332700000100005","name":"수정4동초소","lat":35.129298,"lng":129.045298,"roadAddr":"부산광역시 동구 구청로 1(수정동) 수정4동초소","jibunAddr":"부산광역시 동구 수정동 산 35-23  수정4동초소","openHours":"상시","maleToilets":3,"femaleToilets":3,"disabled":false,"diaperTable":false,"emergencyBell":true,"cctv":false,"managerTel":"0514404514","source":"public","category":"public"},{"id":"202432700000100002","name":"부산진소방서 초량119안전센터","lat":35.119797,"lng":129.043208,"roadAddr":"부산광역시 동구 중앙대로260번길 7, 초량119안전센터 (초량동)","jibunAddr":"부산광역시 동구 초량동 1168-15 초량119안전센터","openHours":"09:00~18:00(출동 시 미개방)","maleToilets":1,"femaleToilets":1,"disabled":false,"diaperTable":false,"emergencyBell":false,"cctv":false,"managerTel":"0517606151","source":"public","category":"public"},{"id":"202332700000100031","name":"동구종합사회복지관 1층","lat":35.14563,"lng":129.04243,"roadAddr":"부산광역시 동구 안창로 57, 동구종합사회복지관 1층 (범일동)","jibunAddr":"부산광역시 동구 범일동 1542-1 동구종합사회복지관","openHours":"09:00~18:00 주말및공휴일 미개방","maleToilets":3,"femaleToilets":2,"disabled":true,"diaperTable":false,"emergencyBell":false,"cctv":false,"managerTel":"0516333367","source":"public","category":"public"},{"id":"202332700000100129","name":"시민회관 소극장 남자","lat":35.138846,"lng":129.065224,"roadAddr":"부산광역시 동구 자성로133번길 16, 시민회관 (범일동)","jibunAddr":"부산광역시 동구 범일동 830-31 시민회관","openHours":"공연시","maleToilets":7,"femaleToilets":0,"disabled":true,"diaperTable":false,"emergencyBell":false,"cctv":false,"managerTel":"0516305290","source":"public","category":"public"},{"id":"202332700000100009","name":"수정산가족체육공원","lat":35.132515,"lng":129.038411,"roadAddr":"부산광역시 동구 수정공원로 63-1, 수정산 가족체육공원 (수정동)","jibunAddr":"부산광역시 동구 수정동 713-2 수정산 가족체육공원","openHours":"상시","maleToilets":3,"femaleToilets":3,"disabled":true,"diaperTable":true,"emergencyBell":true,"cctv":false,"managerTel":"0514404371","source":"public","category":"public"},{"id":"202332700000100018","name":"부산진세무서 1층 민원실","lat":35.130431,"lng":129.046732,"roadAddr":"부산광역시 동구 진성로 23, 부산진세무서 민원실 1층 (수정동)","jibunAddr":"부산광역시 동구 수정동 247-7 부산진세무서","openHours":"09:00~18:00 주말및공휴일 미개방","maleToilets":6,"femaleToilets":5,"disabled":true,"diaperTable":true,"emergencyBell":false,"cctv":true,"managerTel":"0514619242","source":"public","category":"public"},{"id":"202332700000100025","name":"초량2동 행정복지센터 1층","lat":35.116542,"lng":129.038485,"roadAddr":"부산광역시 동구 중앙대로209번길 30, 초량2동 행정복지센터 (초량동)","jibunAddr":"부산광역시 동구 초량동 444-1 초량2동 행정복지센터","openHours":"09:00~18:00 주말및공휴일 미개방","maleToilets":2,"femaleToilets":1,"disabled":true,"diaperTable":false,"emergencyBell":false,"cctv":false,"managerTel":"0514406128","source":"public","category":"public"},{"id":"202332700000100058","name":"초량3동우체국 2층","lat":35.118057,"lng":129.042187,"roadAddr":"부산광역시 동구 중앙대로236번길 3-4, 초량3동우체국 2층 (초량동)","jibunAddr":"부산광역시 동구 초량동 1194-10","openHours":"09:00~18:00 주말및공휴일 미개방","maleToilets":4,"femaleToilets":2,"disabled":false,"diaperTable":false,"emergencyBell":false,"cctv":false,"managerTel":"0514623007","source":"public","category":"public"},{"id":"202332700000100030","name":"동구보훈회관 1층","lat":35.128331,"lng":129.045006,"roadAddr":"부산광역시 동구 구청로 14, 동구보훈회관 2층 (수정동)","jibunAddr":"부산광역시 동구 수정동 819-54 동구보훈회관","openHours":"09:00~18:00 주말및공휴일 미개방","maleToilets":2,"femaleToilets":0,"disabled":true,"diaperTable":false,"emergencyBell":false,"cctv":false,"managerTel":"0514404312","source":"public","category":"public"},{"id":"202332700000100013","name":"동구보건소 민원실 1층","lat":35.129298,"lng":129.045298,"roadAddr":"부산광역시 동구 구청로 1, 동구보건소 민원실 1층 (수정동)","jibunAddr":"부산광역시 동구 수정동 806-74 동구보건소","openHours":"09:00~18:00 주말및공휴일 미개방","maleToilets":3,"femaleToilets":2,"disabled":false,"diaperTable":false,"emergencyBell":false,"cctv":false,"managerTel":"0514406500","source":"public","category":"public"},{"id":"202332700000100010","name":"수정1배수지공원","lat":35.125725,"lng":129.039728,"roadAddr":"부산광역시 동구 망양로672번길 19, 수정1배수지공원, 동구노인종합복지관 위 (수정동)","jibunAddr":"부산광역시 동구 수정동 1011-862 수정1배수지공원, 동구노인종합복지관 위","openHours":"상시","maleToilets":1,"femaleToilets":1,"disabled":false,"diaperTable":false,"emergencyBell":false,"cctv":false,"managerTel":"0514404371","source":"public","category":"public"},{"id":"202332700000100128","name":"시민회관 대극장 3층 우측남자","lat":35.138846,"lng":129.065224,"roadAddr":"부산광역시 동구 자성로133번길 16, 시민회관 (범일동)","jibunAddr":"부산광역시 동구 범일동 830-31 시민회관","openHours":"공연시","maleToilets":25,"femaleToilets":0,"disabled":false,"diaperTable":false,"emergencyBell":false,"cctv":false,"managerTel":"0516305290","source":"public","category":"public"},{"id":"202332700000100059","name":"초량우체국1층","lat":35.118123,"lng":129.037786,"roadAddr":"부산광역시 동구 초량상로 71, 초량우체국 1층 (초량동)","jibunAddr":"부산광역시 동구 초량동 296-40 초량 우체국","openHours":"09:00~18:00 주말및공휴일 미개방","maleToilets":1,"femaleToilets":0,"disabled":true,"diaperTable":false,"emergencyBell":false,"cctv":false,"managerTel":"0514672005","source":"public","category":"public"},{"id":"202332700000100034","name":"시립중앙도서관 수정분관(1층)","lat":35.124448,"lng":129.040446,"roadAddr":"부산광역시 동구 홍곡로 53 시립중앙도서관 수정분관","jibunAddr":"부산광역시 동구 수정동 1032-21 시립중앙도서관 수정분관","openHours":"09:00~22:00  첫째둘째 월요일및공휴일 미개방","maleToilets":3,"femaleToilets":2,"disabled":true,"diaperTable":false,"emergencyBell":false,"cctv":false,"managerTel":"0514400300","source":"public","category":"public"},{"id":"202332700000100133","name":"시민회관 관리동 지하1층여자","lat":35.138846,"lng":129.065224,"roadAddr":"부산광역시 동구 자성로133번길 16, 시민회관 (범일동)","jibunAddr":"부산광역시 동구 범일동 830-31 시민회관","openHours":"공연시","maleToilets":0,"femaleToilets":3,"disabled":false,"diaperTable":false,"emergencyBell":false,"cctv":false,"managerTel":"0516305290","source":"public","category":"public"},{"id":"202332700000100014","name":"동구청 L층 민원실","lat":35.129298,"lng":129.045298,"roadAddr":"부산광역시 동구 구청로 1, 동구청 1층 (수정동)","jibunAddr":"부산광역시 동구 수정동 806-74 동구청","openHours":"09:00~18:00 주말및공휴일 미개방","maleToilets":4,"femaleToilets":5,"disabled":true,"diaperTable":false,"emergencyBell":false,"cctv":false,"managerTel":"0514404162","source":"public","category":"public"},{"id":"202332700000100057","name":"좌천동우체국 1층","lat":35.135589,"lng":129.055272,"roadAddr":"부산광역시 동구 중앙대로 471, 부산좌천동우체국 1층 (좌천동)","jibunAddr":"부산광역시 동구 좌천동 411-1 부산좌천동우체국","openHours":"주말및공휴일 미개방","maleToilets":2,"femaleToilets":0,"disabled":true,"diaperTable":false,"emergencyBell":false,"cctv":false,"managerTel":"0516322005","source":"public","category":"public"},{"id":"202332700000100126","name":"시민회관 대극장 2층 놀이방","lat":35.138846,"lng":129.065224,"roadAddr":"부산광역시 동구 자성로133번길 16, 시민회관 (범일동)","jibunAddr":"부산광역시 동구 범일동 830-31 시민회관","openHours":"공연중 놀이방 이용시","maleToilets":0,"femaleToilets":1,"disabled":false,"diaperTable":false,"emergencyBell":false,"cctv":false,"managerTel":"0516305290","source":"public","category":"public"},{"id":"202332700000100020","name":"수정2동 행정복지센터 1층","lat":35.129952,"lng":129.042627,"roadAddr":"부산광역시 동구 수정중로11번길 23, 수정2동 행정복지센터 (수정동)","jibunAddr":"부산광역시 동구 수정동 795-35 수정2동 행정복지센터","openHours":"09:00~18:00 주말및공휴일 미개방","maleToilets":2,"femaleToilets":1,"disabled":true,"diaperTable":false,"emergencyBell":false,"cctv":false,"managerTel":"0514406214","source":"public","category":"public"},{"id":"202332700000100123","name":"시민회관 대극장 1층 우측여자","lat":35.138846,"lng":129.065224,"roadAddr":"부산광역시 동구 자성로133번길 16, 시민회관 (범일동)","jibunAddr":"부산광역시 동구 범일동 830-31 시민회관","openHours":"공연시","maleToilets":0,"femaleToilets":8,"disabled":true,"diaperTable":false,"emergencyBell":false,"cctv":false,"managerTel":"0516305290","source":"public","category":"public"},{"id":"202332700000100055","name":"동부산우체국 1층","lat":35.138223,"lng":129.062262,"roadAddr":"부산광역시 동구 조방로 15, 동부산우체국 1층 (범일동)","jibunAddr":"부산광역시 동구 범일동 830-63 동부산우체국","openHours":"09:00~18:00 주말및공휴일 미개방","maleToilets":3,"femaleToilets":2,"disabled":true,"diaperTable":false,"emergencyBell":false,"cctv":false,"managerTel":"0516301412","source":"public","category":"public"},{"id":"202332700000100015","name":"범일1동 행정복지센터 1층","lat":35.141263,"lng":129.049149,"roadAddr":"부산광역시 동구 범상로 12, 범일1동 행정복지센터(1층) (범일동)","jibunAddr":"부산광역시 동구 범일동 1438-83 범일1동 행정복지센터","openHours":"09:00~18:00 주말및공휴일 미개방","maleToilets":5,"femaleToilets":3,"disabled":true,"diaperTable":false,"emergencyBell":false,"cctv":false,"managerTel":"0514406341","source":"public","category":"public"},{"id":"202332700000100148","name":"공영주차장 범일초등","lat":35.139572,"lng":129.049652,"roadAddr":"부산광역시 동구 증산서로 55, 공영주차장(범일초등) (범일동)","jibunAddr":"부산광역시 동구 범일동 1411-3 범일초등학교","openHours":"상시","maleToilets":0,"femaleToilets":1,"disabled":false,"diaperTable":false,"emergencyBell":false,"cctv":false,"managerTel":"16708130","source":"public","category":"public"},{"id":"202332700000100097","name":"한국가스LPG충전소","lat":35.140148,"lng":129.062834,"roadAddr":"부산광역시 동구 자성로133번길 39, 한국가스LPG충전소 (범일동)","jibunAddr":"부산광역시 동구 범일동 830-120 한국가스LPG충전소","openHours":"상시","maleToilets":12,"femaleToilets":2,"disabled":true,"diaperTable":false,"emergencyBell":false,"cctv":false,"managerTel":"0516353131","source":"public","category":"public"},{"id":"202332700000100022","name":"수정5동 행정복지센터 1층","lat":35.133894,"lng":129.042396,"roadAddr":"부산광역시 동구 망양로795번길 2, 수정5동 복합커뮤니티센터 (수정동)","jibunAddr":"부산광역시 동구 수정동 522-3 수정5동 복합커뮤니티센터","openHours":"09:00~18:00 주말및공휴일 미개방","maleToilets":3,"femaleToilets":2,"disabled":true,"diaperTable":false,"emergencyBell":true,"cctv":false,"managerTel":"0514406242","source":"public","category":"public"},{"id":"202332700000100053","name":"초량지구대 1층","lat":35.117821,"lng":129.037481,"roadAddr":"부산광역시 동구 초량상로65번길 2, 초량지구대 (초량동)","jibunAddr":"부산광역시 동구 초량동 970-20 초량지구대","openHours":"상시","maleToilets":1,"femaleToilets":0,"disabled":true,"diaperTable":false,"emergencyBell":false,"cctv":false,"managerTel":"0514656223","source":"public","category":"public"},{"id":"202432700000100004","name":"노동복지회관 1층","lat":35.138422,"lng":129.065567,"roadAddr":"부산광역시 동구 자성로141번길 13, 노동복지회관 (범일동)","jibunAddr":"부산광역시 동구 범일동 830-240 노동복지회관","openHours":"상시","maleToilets":19,"femaleToilets":9,"disabled":true,"diaperTable":false,"emergencyBell":false,"cctv":true,"managerTel":"0516377460","source":"public","category":"public"},{"id":"202332700000100101","name":"부산지방국토관리층 1층 옥외","lat":35.117934,"lng":129.038239,"roadAddr":"부산광역시 동구 초량중로 67, 부산지방국토관리청 (초량동)","jibunAddr":"부산광역시 동구 초량동 296-3 부산지방국토관리청","openHours":"09:00~18:00 주말및공휴일 미개방","maleToilets":2,"femaleToilets":3,"disabled":false,"diaperTable":false,"emergencyBell":false,"cctv":false,"managerTel":"0516601023","source":"public","category":"public"},{"id":"202332700000100144","name":"플랫폼 A동","lat":35.115147,"lng":129.040835,"roadAddr":"부산광역시 동구 중앙대로 210, 유라시아 플랫폼 (초량동)","jibunAddr":"부산광역시 동구 초량동 1202","openHours":"09:00~22:00","maleToilets":5,"femaleToilets":8,"disabled":false,"diaperTable":false,"emergencyBell":false,"cctv":true,"managerTel":"0515197439","source":"public","category":"public"},{"id":"202332700000100125","name":"시민회관 대극장 2층 우측남자","lat":35.138846,"lng":129.065224,"roadAddr":"부산광역시 동구 자성로133번길 16, 시민회관 (범일동)","jibunAddr":"부산광역시 동구 범일동 830-31 시민회관","openHours":"공연시","maleToilets":25,"femaleToilets":0,"disabled":false,"diaperTable":false,"emergencyBell":false,"cctv":false,"managerTel":"0516305290","source":"public","category":"public"},{"id":"202332700000100029","name":"동구노인종합복지관 1층","lat":35.125811,"lng":129.040418,"roadAddr":"부산광역시 동구 홍곡중로5번길 24 (수정동) 동구노인종합복지관 1층","jibunAddr":"부산광역시 동구 수정동 1101-886 동구노인종합복지관","openHours":"09:00~18:00 주말및공휴일 미개방","maleToilets":4,"femaleToilets":2,"disabled":true,"diaperTable":false,"emergencyBell":false,"cctv":false,"managerTel":"0514677887","source":"public","category":"public"},{"id":"202332700000100037","name":"동구국민체육문예센터 1층","lat":35.128944,"lng":129.044754,"roadAddr":"부산광역시 동구 구청로 8, 동구국민체육문예센터 1층 (수정동)","jibunAddr":"부산광역시 동구 수정동 822 동구국민체육문예센터","openHours":"09:00~18:00 월요일및공휴일 미개방","maleToilets":3,"femaleToilets":4,"disabled":true,"diaperTable":false,"emergencyBell":false,"cctv":false,"managerTel":"0516046017","source":"public","category":"public"},{"id":"202332700000100004","name":"증산공원(하)","lat":35.138405,"lng":129.051862,"roadAddr":"부산광역시 동구 증산북로 18-7, 증산공원(하) 족구장 옆 (범일동)","jibunAddr":"부산광역시 동구 범일동 산 81-28 증산공원(하) 족구장 옆","openHours":"상시","maleToilets":8,"femaleToilets":4,"disabled":true,"diaperTable":false,"emergencyBell":true,"cctv":false,"managerTel":"0514404534","source":"public","category":"public"},{"id":"202332700000100052","name":"자성대파출소 1층","lat":35.137405,"lng":129.061244,"roadAddr":"부산광역시 동구 자성공원로 15, 자성지구대 (범일동)","jibunAddr":"부산광역시 동구 범일동 581 자성지구대","openHours":"상시","maleToilets":4,"femaleToilets":1,"disabled":false,"diaperTable":false,"emergencyBell":false,"cctv":false,"managerTel":"0516461447","source":"public","category":"public"},{"id":"202332700000100036","name":"행복동구생활지원센터 1층","lat":35.14449,"lng":129.039668,"roadAddr":"부산광역시 동구 안창로 90, 루미네수녀 기념관 옆 (범일동)","jibunAddr":"부산광역시 동구 범일동 1545-4 루미네수녀 기념관 옆","openHours":"09:00~18:00 주말및공휴일 미개방","maleToilets":0,"femaleToilets":0,"disabled":true,"diaperTable":false,"emergencyBell":false,"cctv":false,"managerTel":"0514406391","source":"public","category":"public"},{"id":"202332700000100047","name":"부산역 지하도상가","lat":35.114439,"lng":129.03928,"roadAddr":"부산광역시 동구 중앙대로 지하200, 부산역지하도상가 (초량동)","jibunAddr":"부산광역시 동구 초량동 1206-1 부산역지하도상가","openHours":"05:00-24:00","maleToilets":7,"femaleToilets":5,"disabled":false,"diaperTable":true,"emergencyBell":false,"cctv":false,"managerTel":"0517138271","source":"public","category":"public"},{"id":"202332700000100149","name":"공영주차장 수성초등","lat":35.134551,"lng":129.04272,"roadAddr":"부산광역시 동구 망양로 807, 공영주차장 수성초등 (수정동)","jibunAddr":"부산광역시 동구 수정동 488-3 수성초등학교","openHours":"상시","maleToilets":0,"femaleToilets":3,"disabled":false,"diaperTable":false,"emergencyBell":false,"cctv":false,"managerTel":"16708130","source":"public","category":"public"},{"id":"202332700000100042","name":"도시철도 부산역","lat":35.114439,"lng":129.03928,"roadAddr":"부산광역시 동구 중앙대로 지하 200, 도시철도 부산역 (초량동)","jibunAddr":"부산광역시 동구 초량동 1206-1 도시철도 부산역","openHours":"05:00-24:00","maleToilets":8,"femaleToilets":8,"disabled":true,"diaperTable":true,"emergencyBell":true,"cctv":true,"managerTel":"0516786113","source":"public","category":"public"},{"id":"202332700000100045","name":"도시철도 초량역","lat":35.121168,"lng":129.042991,"roadAddr":"부산광역시 동구 중앙대로 지하 264, 도시철도 초량역 (초량동)","jibunAddr":"부산광역시 동구 초량동 1170 도시철도 초량역","openHours":"05:00-24:00","maleToilets":7,"femaleToilets":5,"disabled":true,"diaperTable":true,"emergencyBell":true,"cctv":true,"managerTel":"0516786114","source":"public","category":"public"},{"id":"202332700000100044","name":"도시철도 좌천역","lat":35.134302,"lng":129.05431,"roadAddr":"부산광역시 동구 중앙대로 지하 446, 도시철도 좌천역 (좌천동)","jibunAddr":"부산광역시 동구 좌천동 236 도시철도 좌천역","openHours":"05:00-24:00","maleToilets":9,"femaleToilets":6,"disabled":true,"diaperTable":true,"emergencyBell":true,"cctv":true,"managerTel":"0516786116","source":"public","category":"public"},{"id":"202332700000100137","name":"시민회관 관리동 4층 여자","lat":35.138846,"lng":129.065224,"roadAddr":"부산광역시 동구 자성로133번길 16, 시민회관 (범일동)","jibunAddr":"부산광역시 동구 범일동 830-31 시민회관","openHours":"공연시","maleToilets":0,"femaleToilets":3,"disabled":false,"diaperTable":false,"emergencyBell":false,"cctv":false,"managerTel":"0516305290","source":"public","category":"public"},{"id":"202332700000100120","name":"수정초등학교","lat":35.131271,"lng":129.046718,"roadAddr":"부산광역시 동구 진성로 29, 수정초등학교 (수정동)","jibunAddr":"부산광역시 동구 수정동 464-2 수정초등학교","openHours":"미개방","maleToilets":45,"femaleToilets":34,"disabled":true,"diaperTable":false,"emergencyBell":false,"cctv":false,"managerTel":"0517191807","source":"public","category":"public"},{"id":"202332700000100007","name":"구봉산 도등","lat":35.129298,"lng":129.045298,"roadAddr":"부산광역 시 동구 구청로 1(수정동) 구봉산 도등","jibunAddr":"부산광역시 동구 초량동 산 29 구봉산 도등","openHours":"상시","maleToilets":1,"femaleToilets":2,"disabled":true,"diaperTable":false,"emergencyBell":true,"cctv":false,"managerTel":"0514404514","source":"public","category":"public"},{"id":"202332700000100017","name":"범일5동 행정복지센터 1층","lat":35.130507,"lng":129.053802,"roadAddr":"부산광역시 동구 성남로47번길 13, 범일5동 행정복지센터 (좌천동)","jibunAddr":"부산광역시 동구 좌천동 68-54 범일5동 행정복지센터","openHours":"주말및공휴일 미개방","maleToilets":3,"femaleToilets":2,"disabled":true,"diaperTable":false,"emergencyBell":false,"cctv":false,"managerTel":"0514406361","source":"public","category":"public"},{"id":"202332700000100134","name":"시민회관 관리동 1층 남자","lat":35.138846,"lng":129.065224,"roadAddr":"부산광역시 동구 자성로133번길 16, 시민회관 (범일동)","jibunAddr":"부산광역시 동구 범일동 830-31 시민회관","openHours":"공연시","maleToilets":4,"femaleToilets":0,"disabled":false,"diaperTable":false,"emergencyBell":false,"cctv":false,"managerTel":"0516305290","source":"public","category":"public"},{"id":"202332700000100056","name":"수정동우체국 1층","lat":35.127316,"lng":129.045645,"roadAddr":"부산광역시 동구 수정로 9, 부산 수정동우체국 1층 (수정동)","jibunAddr":"부산광역시 동구 수정동 112-1 부산 수정동 우체국","openHours":"09:00~18:00 주말및공휴일 미개방","maleToilets":1,"femaleToilets":1,"disabled":true,"diaperTable":false,"emergencyBell":false,"cctv":false,"managerTel":"0514682005","source":"public","category":"public"},{"id":"202332700000100132","name":"시민회관 카페테리아 여자","lat":35.138846,"lng":129.065224,"roadAddr":"부산광역시 동구 자성로133번길 16, 시민회관 (범일동)","jibunAddr":"부산광역시 동구 범일동 830-31 시민회관","openHours":"카페테리아 영업시간","maleToilets":0,"femaleToilets":2,"disabled":false,"diaperTable":false,"emergencyBell":false,"cctv":false,"managerTel":"0516305290","source":"public","category":"public"},{"id":"202332700000100043","name":"도시철도 부산진역(동구청)","lat":35.127761,"lng":129.047877,"roadAddr":"부산광역시 동구 중앙대로 지하 350, 부산진역 (초량동)","jibunAddr":"부산광역시 동구 초량동 1170 도시철도 부산진역","openHours":"05:00~24:00","maleToilets":7,"femaleToilets":6,"disabled":true,"diaperTable":true,"emergencyBell":true,"cctv":true,"managerTel":"0516786115","source":"public","category":"public"},{"id":"202332700000100143","name":"시민회관 소극장 단체분장실","lat":35.138846,"lng":129.065224,"roadAddr":"부산광역시 동구 자성로133번길 16, 시민회관 (범일동)","jibunAddr":"부산광역시 동구 범일동 830-31 시민회관","openHours":"공연시","maleToilets":3,"femaleToilets":2,"disabled":false,"diaperTable":false,"emergencyBell":false,"cctv":false,"managerTel":"0516305290","source":"public","category":"public"},{"id":"202332700000100028","name":"동구도서관 1층","lat":35.138066,"lng":129.052431,"roadAddr":"부산광역시 동구 성북로36번길 54, 동구도서관 1층 (범일동)","jibunAddr":"부산광역시 동구 범일동 산 81-28 동구도서관","openHours":"07:00~22:00(토요일 17시까지,월요일및공휴일 미개방)","maleToilets":3,"femaleToilets":1,"disabled":true,"diaperTable":true,"emergencyBell":false,"cctv":false,"managerTel":"0514406415","source":"public","category":"public"},{"id":"202332700000100003","name":"증산공원(상)","lat":35.138405,"lng":129.051862,"roadAddr":"부산광역시 동구 증산북로 18-7, 증산공원(상) 게이트볼장 옆 (범일동)","jibunAddr":"부산광역시 동구 범일동 산 81-28 증산공원(상) 게이트볼장 옆","openHours":"상시","maleToilets":4,"femaleToilets":3,"disabled":true,"diaperTable":false,"emergencyBell":true,"cctv":false,"managerTel":"0514404534","source":"public","category":"public"},{"id":"202332700000100049","name":"수성지구대 1층","lat":35.134864,"lng":129.043526,"roadAddr":"부산광역시 동구 망양로 811, 수성지구대 (수정동)","jibunAddr":"부산광역시 동구 수정동 487-84 수성지구대","openHours":"상시","maleToilets":2,"femaleToilets":0,"disabled":true,"diaperTable":false,"emergencyBell":false,"cctv":false,"managerTel":"0514656228","source":"public","category":"public"},{"id":"202332700000100027","name":"초량6동 행정복지센터 1층","lat":35.120029,"lng":129.034523,"roadAddr":"부산광역시 동구 초량로 75, 초량6동 행정복지센터 (초량동)","jibunAddr":"부산광역시 동구 초량동 824-122 초량6동 행정복지센터","openHours":"09:00~18:00 주말및공휴일 미개방","maleToilets":2,"femaleToilets":1,"disabled":true,"diaperTable":false,"emergencyBell":false,"cctv":false,"managerTel":"0514406161","source":"public","category":"public"},{"id":"202332700000100103","name":"동구청 분수대","lat":35.129298,"lng":129.045298,"roadAddr":"부산광역시 동구 구청로 1, 동구청 (수정동)","jibunAddr":"부산광역시 동구 수정동 806-74 동구청","openHours":"상시","maleToilets":5,"femaleToilets":5,"disabled":false,"diaperTable":false,"emergencyBell":false,"cctv":false,"managerTel":"0514404162","source":"public","category":"public"},{"id":"202332700000100139","name":"시민회관 대극장 개인분장실1","lat":35.138846,"lng":129.065224,"roadAddr":"부산광역시 동구 자성로133번길 16, 시민회관 (범일동)","jibunAddr":"부산광역시 동구 범일동 830-31 시민회관","openHours":"공연시","maleToilets":0,"femaleToilets":1,"disabled":false,"diaperTable":false,"emergencyBell":false,"cctv":false,"managerTel":"0516305290","source":"public","category":"public"},{"id":"202332700000100039","name":"한국토지주택공사 2층","lat":35.11694,"lng":129.041151,"roadAddr":"부산광역시 동구 중앙대로 224, 한국토지주택공사 부산울산지역본부 2층 (초량동)","jibunAddr":"부산광역시 동구 초량동 1199-1 한국토지주택공사 부산울산지역본부","openHours":"09:00~18:00 주말및공휴일 미개방","maleToilets":4,"femaleToilets":2,"disabled":false,"diaperTable":false,"emergencyBell":false,"cctv":false,"managerTel":"0514605904","source":"public","category":"public"},{"id":"202332700000100016","name":"범일2동 행정복지센터 1층","lat":35.13511,"lng":129.059818,"roadAddr":"부산광역시 동구 범일로 58, 범일2동 행정복지센터 (범일동)","jibunAddr":"부산광역시 동구 범일동 330-145 범일2동 행정복지센터","openHours":"09:00~18:00 주말및공휴일 미개방","maleToilets":5,"femaleToilets":2,"disabled":true,"diaperTable":false,"emergencyBell":false,"cctv":false,"managerTel":"0514406322","source":"public","category":"public"},{"id":"202332700000100122","name":"시민회관 대극장 1층 좌측여자","lat":35.138846,"lng":129.065224,"roadAddr":"부산광역시 동구 자성로133번길 16, 시민회관 (범일동)","jibunAddr":"부산광역시 동구 범일동 830-31 시민회관","openHours":"공연시","maleToilets":0,"femaleToilets":11,"disabled":true,"diaperTable":false,"emergencyBell":false,"cctv":false,"managerTel":"0516305290","source":"public","category":"public"},{"id":"202332700000100011","name":"자성로 지하도","lat":35.133903,"lng":129.056501,"roadAddr":"부산광역시 동구 성남이로60번길 6(범일동) 자성로 지하도","jibunAddr":"부산광역시 동구 범일동 252-1885 자성로 지하도","openHours":"상시","maleToilets":2,"femaleToilets":2,"disabled":false,"diaperTable":false,"emergencyBell":true,"cctv":false,"managerTel":"0514404785","source":"public","category":"public"},{"id":"202332700000100019","name":"수정1동 행정복지센터 1층","lat":35.125419,"lng":129.042256,"roadAddr":"부산광역시 동구 홍곡로 71, 수정1동 행정복지센터 (수정동)","jibunAddr":"부산광역시 동구 수정동 1011-126 수정1동 행정복지센터","openHours":"09:00~18:00 주말및공휴일 미개방","maleToilets":2,"femaleToilets":1,"disabled":false,"diaperTable":false,"emergencyBell":false,"cctv":false,"managerTel":"0514406181","source":"public","category":"public"},{"id":"202332700000100023","name":"좌천동 행정복지센터 1층","lat":35.13139,"lng":129.049153,"roadAddr":"부산광역시 동구 좌천남로 19, 좌천동 행정복지센터 1층 (좌천동)","jibunAddr":"부산광역시 동구 좌천동 684-5 좌천동 행정복지센터","openHours":"09:00~18:00 주말및공휴일 미개방","maleToilets":2,"femaleToilets":2,"disabled":true,"diaperTable":false,"emergencyBell":false,"cctv":false,"managerTel":"0514406261","source":"public","category":"public"},{"id":"202332700000100040","name":"부산항국제여객터미널 2층","lat":35.117513,"lng":129.049383,"roadAddr":"부산광역시 동구 충장대로 206, 부산항 국제여객터미널 1,2층 (초량동)","jibunAddr":"부산광역시 동구 초량동 45-39 부산항 국제여객터미널","openHours":"05:00~21:00","maleToilets":18,"femaleToilets":20,"disabled":true,"diaperTable":true,"emergencyBell":true,"cctv":false,"managerTel":"0514001213","source":"public","category":"public"},{"id":"202332700000100021","name":"수정4동 행정복지센터 1층","lat":35.127111,"lng":129.040684,"roadAddr":"부산광역시 동구 망양로685번길 2, 수정4동 행정복지센터 (수정동)","jibunAddr":"부산광역시 동구 수정동 1172-2 수정4동  행정복지센터","openHours":"09:00~18:00 주말및공휴일 미개방","maleToilets":4,"femaleToilets":2,"disabled":false,"diaperTable":false,"emergencyBell":false,"cctv":false,"managerTel":"0514406225","source":"public","category":"public"},{"id":"202332700000100127","name":"시민회관 대극장 3층 좌측여자","lat":35.138846,"lng":129.065224,"roadAddr":"부산광역시 동구 자성로133번길 16, 시민회관 (범일동)","jibunAddr":"부산광역시 동구 범일동 830-31 시민회관","openHours":"공연시","maleToilets":0,"femaleToilets":9,"disabled":false,"diaperTable":false,"emergencyBell":false,"cctv":false,"managerTel":"0516305290","source":"public","category":"public"},{"id":"202332700000100094","name":"soil구도일 부산진주유소","lat":35.131262,"lng":129.051807,"roadAddr":"부산광역시 동구 중앙대로 414, 부산진주유소 (좌천동)","jibunAddr":"부산광역시 동구 좌천동 67-6 부산진주유소","openHours":"상시","maleToilets":3,"femaleToilets":1,"disabled":false,"diaperTable":false,"emergencyBell":false,"cctv":false,"managerTel":"0516355151","source":"public","category":"public"},{"id":"202332700000100046","name":"한국철도공사 부산역 1-3층","lat":35.117605,"lng":129.04506,"roadAddr":"부산광역시 동구 중앙대로 206, 한국철도공사 부산지역본부 1층 (초량동)","jibunAddr":"부산광역시 동구 초량동 1187-1 한국철도공사 부산지역본부","openHours":"1-3층(04:00-23시)+2층(04:00-익일01시)","maleToilets":93,"femaleToilets":92,"disabled":true,"diaperTable":true,"emergencyBell":true,"cctv":true,"managerTel":"0514402288","source":"public","category":"public"},{"id":"202332700000100095","name":"천일주유소","lat":35.112362,"lng":129.03876,"roadAddr":"부산광역시 동구 중앙대로 168, 천일주유소 (초량동)","jibunAddr":"부산광역시 동구 초량동 1211-9 천일주유소","openHours":"00:00~23:50","maleToilets":2,"femaleToilets":1,"disabled":true,"diaperTable":false,"emergencyBell":false,"cctv":false,"managerTel":"0514661001","source":"public","category":"public"},{"id":"202332700000100008","name":"수정5동체육공원","lat":35.134923,"lng":129.039137,"roadAddr":"부산광역시 동구 수정공원로105번길 41, 수정5동체육공원(테니스장 위) (수정동)","jibunAddr":"부산광역시 동구 수정동 589-5 수정5동체육공원(테니스장 위)","openHours":"상시","maleToilets":2,"femaleToilets":1,"disabled":false,"diaperTable":false,"emergencyBell":true,"cctv":false,"managerTel":"0514404335","source":"public","category":"public"},{"id":"202332700000100145","name":"풀랫폼 A동 장애인용","lat":35.115147,"lng":129.040835,"roadAddr":"부산광역시 동구 중앙대로 210, 유라시아 플랫폼 (초량동)","jibunAddr":"부산광역시 동구 초량동 1202","openHours":"09:00~22:00","maleToilets":0,"femaleToilets":0,"disabled":true,"diaperTable":false,"emergencyBell":false,"cctv":true,"managerTel":"0515197400","source":"public","category":"public"},{"id":"202332700000100104","name":"동구청 지하2층 주차장","lat":35.129298,"lng":129.045298,"roadAddr":"부산광역시 동구 구청로 1, 동구청 (수정동)","jibunAddr":"부산광역시 동구 수정동 806-74 동구청","openHours":"상시","maleToilets":2,"femaleToilets":2,"disabled":false,"diaperTable":false,"emergencyBell":false,"cctv":false,"managerTel":"0514404162","source":"public","category":"public"},{"id":"202332700000100048","name":"동부경찰서 1층 민원실","lat":35.129741,"lng":129.048979,"roadAddr":"부산광역시 동구 중앙대로 387, 동부경찰서 1층 (수정동)","jibunAddr":"부산광역시 동구 수정동 1-4 동부경찰서","openHours":"상시","maleToilets":4,"femaleToilets":1,"disabled":true,"diaperTable":false,"emergencyBell":false,"cctv":false,"managerTel":"0514090321","source":"public","category":"public"},{"id":"202332700000100026","name":"초량3동 행정복지센터 1층","lat":35.121319,"lng":129.039792,"roadAddr":"부산광역시 동구 초량상로 112, 초량3동주민센터 1층 (초량동)","jibunAddr":"부산광역시 동구 초량동 110-1 초량3동주민센터","openHours":"09:00~18:00 주말및공휴일 미개방","maleToilets":1,"femaleToilets":2,"disabled":true,"diaperTable":false,"emergencyBell":false,"cctv":false,"managerTel":"0514406141","source":"public","category":"public"},{"id":"202432700000100001","name":"SK문화가스충전소","lat":35.126482,"lng":129.047204,"roadAddr":"부산광역시 동구 중앙대로 348, SK문화가스충전소 (초량동)","jibunAddr":"부산광역시 동구 초량동 1149-3","openHours":"상시","maleToilets":3,"femaleToilets":1,"disabled":false,"diaperTable":false,"emergencyBell":false,"cctv":true,"managerTel":"0514635111","source":"public","category":"public"},{"id":"202332700000100054","name":"부두119안전센터(소방1정대) 2층","lat":35.125623,"lng":129.052236,"roadAddr":"부산광역시 동구 충장대로 286, 부두119안전센터(소방정대2층 대기실 옆) (좌천동)","jibunAddr":"부산광역시 동구 좌천동 1166-4 부두119안전센터","openHours":"09:00-18:00 주말및공휴일 미개방","maleToilets":0,"femaleToilets":3,"disabled":false,"diaperTable":false,"emergencyBell":false,"cctv":false,"managerTel":"0517604923","source":"public","category":"public"},{"id":"202332700000100024","name":"초량1동 행정복지센터 1층","lat":35.113936,"lng":129.036962,"roadAddr":"부산광역시 동구 중앙대로179번길 33, 초량1동 행정복지센터 (초량동)","jibunAddr":"부산광역시 동구 초량동 592-13 초량1동 행정복지센터","openHours":"09:00~18:00 주말및공휴일 미개방","maleToilets":2,"femaleToilets":1,"disabled":false,"diaperTable":false,"emergencyBell":false,"cctv":false,"managerTel":"0514406102","source":"public","category":"public"},{"id":"202432700000100003","name":"부산시민회관 외부","lat":35.138846,"lng":129.065224,"roadAddr":"부산광역시 동구 자성로133번길 16, 시민회관 외부 (범일동)","jibunAddr":"부산광역시 동구 범일동 830-31 시민회관","openHours":"상시","maleToilets":2,"femaleToilets":1,"disabled":false,"diaperTable":false,"emergencyBell":false,"cctv":true,"managerTel":"0516305242","source":"public","category":"public"},{"id":"202332700000100124","name":"시민회관 대극장 2층 좌측여자","lat":35.138846,"lng":129.065224,"roadAddr":"부산광역시 동구 자성로133번길 16, 시민회관 (범일동)","jibunAddr":"부산광역시 동구 범일동 830-31 시민회관","openHours":"공연시","maleToilets":0,"femaleToilets":14,"disabled":false,"diaperTable":false,"emergencyBell":false,"cctv":false,"managerTel":"0516305290","source":"public","category":"public"},{"id":"202332700000100038","name":"한국부동산원 1층","lat":35.124337,"lng":129.045124,"roadAddr":"부산광역시 동구 중앙대로 314, 한국부동산원 부산동부지사 1층 (초량동)","jibunAddr":"부산광역시 동구 초량동 1157-5 한국부동산원 부산동부지사","openHours":"09:00~18:00 주말및공휴일 미개방","maleToilets":1,"femaleToilets":1,"disabled":false,"diaperTable":false,"emergencyBell":false,"cctv":false,"managerTel":"0514620401","source":"public","category":"public"},{"id":"202332700000100032","name":"부산트래블라운지1층","lat":35.113843,"lng":129.038195,"roadAddr":"부산광역시 동구 대영로243번길 38, 부산트래블라운지 1층 (초량동)","jibunAddr":"부산광역시 동구 초량동 569-2","openHours":"상시","maleToilets":2,"femaleToilets":1,"disabled":true,"diaperTable":false,"emergencyBell":false,"cctv":false,"managerTel":"0514633111","source":"public","category":"public"},{"id":"202332700000100050","name":"수정119안전센터 화장실","lat":35.129526,"lng":129.049111,"roadAddr":"부산광역시 동구 중앙대로 383-1, 수정119안전센터 (수정동)","jibunAddr":"부산광역시 동구 수정동 1-4 수정119안전센터","openHours":"09:00~18:00+ 출동 시 미개방","maleToilets":0,"femaleToilets":2,"disabled":false,"diaperTable":false,"emergencyBell":false,"cctv":false,"managerTel":"0517606231","source":"public","category":"public"},{"id":"202332700000100130","name":"시민회관 소극장 여자","lat":35.138846,"lng":129.065224,"roadAddr":"부산광역시 동구 자성로133번길 16, 시민회관 (범일동)","jibunAddr":"부산광역시 동구 범일동 830-31 시민회관","openHours":"공연시","maleToilets":0,"femaleToilets":6,"disabled":true,"diaperTable":true,"emergencyBell":false,"cctv":false,"managerTel":"0516305290","source":"public","category":"public"},{"id":"202332700000100146","name":"플랫폼 B동","lat":35.115147,"lng":129.040835,"roadAddr":"부산광역시 동구 중앙대로 210, 유라시아 플랫폼 (초량동)","jibunAddr":"부산광역시 동구 초량동 1202","openHours":"09:00~22:00","maleToilets":5,"femaleToilets":5,"disabled":false,"diaperTable":false,"emergencyBell":false,"cctv":true,"managerTel":"05151977400","source":"public","category":"public"},{"id":"202332700000100131","name":"시민회관 카페테리아 남자","lat":35.138846,"lng":129.065224,"roadAddr":"부산광역시 동구 자성로133번길 16, 시민회관 (범일동)","jibunAddr":"부산광역시 동구 범일동 830-31 시민회관","openHours":"카페테리아 영업시간","maleToilets":3,"femaleToilets":0,"disabled":false,"diaperTable":false,"emergencyBell":false,"cctv":false,"managerTel":"0516305290","source":"public","category":"public"},{"id":"202332700000100099","name":"동구문화원","lat":35.127113,"lng":129.046043,"roadAddr":"부산광역시 동구 중앙대로349번길 20, 동구문화원 (수정동)","jibunAddr":"부산광역시 동구 수정동 64-1","openHours":"10:00~18:00 주말및공휴일 미개방","maleToilets":1,"femaleToilets":3,"disabled":true,"diaperTable":false,"emergencyBell":false,"cctv":false,"managerTel":"0514404928","source":"public","category":"public"},{"id":"202432900000101020","name":"항도주유소","lat":35.143237,"lng":129.056289,"roadAddr":"부산광역시 부산진구 신암로 14, 항도주유소 (범천동)","openHours":"18시간","maleToilets":4,"femaleToilets":2,"disabled":false,"diaperTable":false,"emergencyBell":false,"cctv":false,"source":"public","category":"public"},{"id":"202432900000101058","name":"부산진구보건소","lat":35.146117,"lng":129.059721,"roadAddr":"부산광역시 부산진구 황령대로8번길 36","jibunAddr":"부산광역시 부산진구 범천동 849-10","openHours":"09:00-18:00","maleToilets":18,"femaleToilets":11,"disabled":true,"diaperTable":true,"emergencyBell":true,"cctv":false,"source":"public","category":"public"},{"id":"202432900000101345","name":"엄광산 가야약수터 위 임도","lat":35.138342,"lng":129.02474,"jibunAddr":"부산광역시 부산진구 가야동 산 81-1","openHours":"상시","maleToilets":2,"femaleToilets":2,"disabled":false,"diaperTable":false,"emergencyBell":true,"cctv":true,"source":"public","category":"public"},{"id":"202432900000101342","name":"부산평화시장","lat":35.141697,"lng":129.060675,"roadAddr":"부산광역시 부산진구 자유평화로 7  (범천동)","openHours":"12시간","maleToilets":11,"femaleToilets":10,"disabled":false,"diaperTable":false,"emergencyBell":false,"cctv":false,"source":"public","category":"public"},{"id":"202432900000101164","name":"부산진구노인복지관신암분관","lat":35.151777,"lng":129.048366,"roadAddr":"부산광역시 부산진구 신암로135번길 32","jibunAddr":"부산광역시 부산진구 범천동 1127-9","openHours":"09:00-18:00","maleToilets":1,"femaleToilets":1,"disabled":true,"diaperTable":false,"emergencyBell":true,"cctv":false,"managerTel":"0517146090","source":"public","category":"public"},{"id":"202432900000101119","name":"중부지하도상가 서면몰 2호","lat":35.155237,"lng":129.05914,"roadAddr":"부산광역시 부산진구 중앙대로 지하717","jibunAddr":"부산광역시 부산진구 부전동 573-1","openHours":"05:00-23:00","maleToilets":7,"femaleToilets":7,"disabled":true,"diaperTable":true,"emergencyBell":true,"cctv":false,"source":"public","category":"public"},{"id":"202432900000101308","name":"X모텔","lat":35.152324,"lng":129.060067,"roadAddr":"부산광역시 부산진구 신천대로50번길 34, X모텔 (부전동)","openHours":"24시간","maleToilets":3,"femaleToilets":2,"disabled":false,"diaperTable":false,"emergencyBell":false,"cctv":false,"source":"public","category":"public"},{"id":"202432900000101326","name":"이샘병원","lat":35.147608,"lng":129.061156,"roadAddr":"부산광역시 부산진구 황령대로 12, 이샘병원 (범천동)","openHours":"상시","maleToilets":37,"femaleToilets":37,"disabled":false,"diaperTable":false,"emergencyBell":false,"cctv":false,"source":"public","category":"public"},{"id":"202432900000101053","name":"범천1동주민센터","lat":35.147014,"lng":129.061008,"roadAddr":"부산광역시 부산진구 범일로192번길 21","jibunAddr":"부산광역시 부산진구 범천동 854-15","openHours":"09:00-18:00","maleToilets":3,"femaleToilets":3,"disabled":true,"diaperTable":false,"emergencyBell":false,"cctv":true,"source":"public","category":"public"},{"id":"202432900000101141","name":"부산광역시립부전도서관","lat":35.155853,"lng":129.062199,"roadAddr":"부산광역시 부산진구 동천로 79 (부전동)","openHours":"9시간","maleToilets":7,"femaleToilets":5,"disabled":true,"diaperTable":false,"emergencyBell":false,"cctv":false,"managerTel":"0518025901","source":"public","category":"public"},{"id":"202432900000101166","name":"부산진시니어클럽","lat":35.149747,"lng":129.029021,"roadAddr":"부산광역시 부산진구 가야공원로40번길 14","jibunAddr":"부산광역시 부산진구 가야동 601-7","openHours":"09:00-18:00","maleToilets":3,"femaleToilets":2,"disabled":true,"diaperTable":false,"emergencyBell":false,"cctv":false,"source":"public","category":"public"},{"id":"202432900000101208","name":"부산진우체국","lat":35.154913,"lng":129.03536,"roadAddr":"부산광역시 부산진구 가야대로 579, 1층","openHours":"09:00-18:00","maleToilets":6,"femaleToilets":5,"disabled":true,"diaperTable":false,"emergencyBell":true,"cctv":true,"source":"public","category":"public"},{"id":"202432900000101312","name":"교보생명빌딩","lat":35.15153,"lng":129.059555,"roadAddr":"부산광역시 부산진구 중앙대로 658, 교보생명빌딩 (부전동)","openHours":"6시간","maleToilets":4,"femaleToilets":3,"disabled":true,"diaperTable":false,"emergencyBell":false,"cctv":false,"source":"public","category":"public"},{"id":"202432900000101010","name":"케이제이주유소","lat":35.152384,"lng":129.065792,"roadAddr":"부산광역시 부산진구 전포대로 178, 케이제이주유소 (전포동)","openHours":"18시간","maleToilets":3,"femaleToilets":1,"disabled":false,"diaperTable":false,"emergencyBell":false,"cctv":false,"source":"public","category":"public"},{"id":"202432900000101327","name":"지오플레이스","lat":35.149436,"lng":129.063976,"roadAddr":"부산광역시 부산진구 동천로 4, 지오플레이스 (전포동)","openHours":"12시간","maleToilets":5,"femaleToilets":3,"disabled":false,"diaperTable":false,"emergencyBell":false,"cctv":false,"source":"public","category":"public"},{"id":"202432900000101054","name":"범천2동주민센터","lat":35.146556,"lng":129.056206,"roadAddr":"부산광역시 부산진구 신암로 48  (범천동)","openHours":"09:00-18:00","maleToilets":8,"femaleToilets":4,"disabled":true,"diaperTable":false,"emergencyBell":false,"cctv":false,"source":"public","category":"public"},{"id":"202432900000101120","name":"중부지하도상가 서면몰 3호","lat":35.155237,"lng":129.05914,"roadAddr":"부산광역시 부산진구 중앙대로 지하717","jibunAddr":"부산광역시 부산진구 부전동 573-1","openHours":"05:00-23:00","maleToilets":6,"femaleToilets":6,"disabled":false,"diaperTable":true,"emergencyBell":true,"cctv":false,"source":"public","category":"public"},{"id":"202432900000101082","name":"부전2치안센터","lat":35.153184,"lng":129.056031,"roadAddr":"부산광역시 부산진구 부전로 33, 부전2치안센터 (부전동)","openHours":"상시","maleToilets":0,"femaleToilets":0,"disabled":false,"diaperTable":false,"emergencyBell":false,"cctv":false,"source":"public","category":"public"},{"id":"202432900000101043","name":"엄광산 동구경계","lat":35.138404,"lng":129.030684,"roadAddr":"부산광역시 부산진구 가야동 산78-2","jibunAddr":"부산광역시 부산진구 가야동 산78-2","openHours":"상시","maleToilets":2,"femaleToilets":2,"disabled":false,"diaperTable":false,"emergencyBell":true,"cctv":true,"source":"public","category":"public"},{"id":"202432900000101150","name":"가야감고개공원주민커뮤니티센터","lat":35.148458,"lng":129.033481,"roadAddr":"부산광역시 부산진구 가야대로548번길 109","jibunAddr":"부산광역시 부산진구 가야동 553","openHours":"상시","maleToilets":5,"femaleToilets":6,"disabled":true,"diaperTable":false,"emergencyBell":true,"cctv":false,"source":"public","category":"public"},{"id":"202432900000101151","name":"안창마을 커뮤니티센터","lat":35.146401,"lng":129.040919,"roadAddr":"부산광역시 부산진구 안창로72번길18-10","jibunAddr":"부산광역시 부산진구 범천동1539-13","openHours":"09:00-18:00","maleToilets":2,"femaleToilets":34,"disabled":true,"diaperTable":false,"emergencyBell":true,"cctv":false,"source":"public","category":"public"},{"id":"202432900000101011","name":"동방석유SK전포주유소","lat":35.150003,"lng":129.063087,"roadAddr":"부산광역시 부산진구 동천로 10 (전포동)","jibunAddr":"부산광역시 부산진구 전포동 892-16","openHours":"18시간","maleToilets":2,"femaleToilets":2,"disabled":false,"diaperTable":false,"emergencyBell":false,"cctv":false,"source":"public","category":"public"},{"id":"202432900000101028","name":"대명주유소","lat":35.153933,"lng":129.029219,"roadAddr":"부산광역시 부산진구 가야대로 523, 대명주유소 (가야동)","openHours":"18시간","maleToilets":2,"femaleToilets":1,"disabled":false,"diaperTable":false,"emergencyBell":false,"cctv":false,"source":"public","category":"public"},{"id":"202432900000101331","name":"효성엑센시티","lat":35.154271,"lng":129.057303,"roadAddr":"부산광역시 부산진구 서면로 39, 효성엑센시티 (부전동)","openHours":"12시간","maleToilets":6,"femaleToilets":3,"disabled":false,"diaperTable":false,"emergencyBell":false,"cctv":false,"source":"public","category":"public"},{"id":"202432900000101093","name":"지하철 전포역","lat":35.152835,"lng":129.065363,"roadAddr":"부산광역시 부산진구 전포대로 지하 181","jibunAddr":"부산광역시 부산진구 전포동 870-1","openHours":"05:00-24:00","maleToilets":17,"femaleToilets":16,"disabled":true,"diaperTable":true,"emergencyBell":true,"cctv":true,"source":"public","category":"public"},{"id":"202432900000101226","name":"범천1파출소","lat":35.144682,"lng":129.061877,"roadAddr":"부산광역시부산진구 중앙번영로 24-1","openHours":"상시","maleToilets":2,"femaleToilets":1,"disabled":true,"diaperTable":false,"emergencyBell":true,"cctv":false,"managerTel":"0516461446","source":"public","category":"public"},{"id":"202432900000101096","name":"지하철 동의대역","lat":35.15404,"lng":129.032553,"roadAddr":"부산광역시 부산진구 가야대로 지하 554","jibunAddr":"부산광역시 부산진구 가야동 221-2","openHours":"05:00-24:00","maleToilets":8,"femaleToilets":7,"disabled":true,"diaperTable":true,"emergencyBell":true,"cctv":true,"source":"public","category":"public"},{"id":"202432900000101323","name":"국제저축은행","lat":35.14726,"lng":129.060009,"roadAddr":"부산광역시 부산진구 중앙대로 612, 국제저축은행 (범천동)","openHours":"6시간","maleToilets":3,"femaleToilets":2,"disabled":false,"diaperTable":false,"emergencyBell":false,"cctv":false,"source":"public","category":"public"},{"id":"202432900000101066","name":"부전2동주민센터","lat":35.152605,"lng":129.056794,"roadAddr":"부산광역시 부산진구 부전로20번길 13","jibunAddr":"부산광역시 부산진구 부전동 523-6","openHours":"09:00-18:00","maleToilets":4,"femaleToilets":3,"disabled":true,"diaperTable":false,"emergencyBell":false,"cctv":false,"source":"public","category":"public"},{"id":"202432900000101196","name":"부산진구종합재가노인서비스센터","lat":35.154918,"lng":129.041624,"roadAddr":"부산광역시 부산진구 엄광로292","jibunAddr":"부산광역시 부산진구 가야동 48-218번지","openHours":"09:00~18:00","maleToilets":1,"femaleToilets":0,"disabled":true,"diaperTable":false,"emergencyBell":false,"cctv":false,"managerTel":"0519510100","source":"public","category":"public"},{"id":"202432900000101089","name":"지하철 범내골역","lat":35.147356,"lng":129.059236,"roadAddr":"부산광역시 부산진구 중앙대로 지하 612","jibunAddr":"부산광역시 부산진구 범천동 948-4","openHours":"05:00-24:00","maleToilets":9,"femaleToilets":5,"disabled":true,"diaperTable":true,"emergencyBell":true,"cctv":true,"source":"public","category":"public"},{"id":"202432900000101034","name":"가야유원지 등산로","lat":35.143536,"lng":129.027409,"roadAddr":"부산광역시 부산진구 가야공원로 110","jibunAddr":"부산광역시 부산진구가야동 산 40","openHours":"상시","maleToilets":4,"femaleToilets":4,"disabled":false,"diaperTable":true,"emergencyBell":true,"cctv":false,"source":"public","category":"public"},{"id":"202432900000101046","name":"가야2동주민센터","lat":35.149186,"lng":129.031742,"roadAddr":"부산광역시 부산진구 엄광로147번길 37","jibunAddr":"부산광역시 부산진구 가야동 519-1","openHours":"09:00-18:00","maleToilets":2,"femaleToilets":2,"disabled":true,"diaperTable":false,"emergencyBell":true,"cctv":true,"source":"public","category":"public"},{"id":"202432900000101073","name":"가야119안전센터","lat":35.15575,"lng":129.04039,"roadAddr":"부산광역시 부산진구 가야대로 627, 가야119안전센터 (가야동)","openHours":"상시","maleToilets":3,"femaleToilets":1,"disabled":false,"diaperTable":false,"emergencyBell":false,"cctv":false,"source":"public","category":"public"},{"id":"202432900000101152","name":"호천생활문화센터","lat":35.142769,"lng":129.052189,"roadAddr":"부산광역시 부산진구 엄광로495번가길 36","jibunAddr":"부산광역시 부산진구 범천동 1515-190","openHours":"09:00~18:00","maleToilets":2,"femaleToilets":1,"disabled":true,"diaperTable":true,"emergencyBell":false,"cctv":false,"source":"public","category":"public"},{"id":"202432900000101222","name":"가야지구대","lat":35.152467,"lng":129.029488,"roadAddr":"부산광역시부산진구 가야공원로 10","openHours":"상시","maleToilets":2,"femaleToilets":1,"disabled":true,"diaperTable":false,"emergencyBell":false,"cctv":false,"source":"public","category":"public"},{"id":"202432900000101219","name":"서면지구대","lat":35.147111,"lng":129.055476,"roadAddr":"부산광역시 부산진구 신암로 56","openHours":"상시","maleToilets":3,"femaleToilets":1,"disabled":true,"diaperTable":false,"emergencyBell":false,"cctv":false,"source":"public","category":"public"},{"id":"202432900000101055","name":"범천건강문화센터","lat":35.151749,"lng":129.048174,"roadAddr":"부산광역시 부산진구 신암로135번길 36 (범천동)","openHours":"09:00-18:00","maleToilets":5,"femaleToilets":4,"disabled":true,"diaperTable":false,"emergencyBell":false,"cctv":false,"source":"public","category":"public"},{"id":"202432900000101074","name":"가야1치안센터","lat":35.154367,"lng":129.037578,"roadAddr":"부산광역시 부산진구 대학로 7, 가야1치안센터 (가야동)","openHours":"상시","maleToilets":0,"femaleToilets":0,"disabled":false,"diaperTable":false,"emergencyBell":false,"cctv":false,"source":"public","category":"public"},{"id":"202432900000101012","name":"동방석유황령산주유소","lat":35.149428,"lng":129.066581,"roadAddr":"부산광역시 부산진구 황령대로 66, 황령산주유소 (전포동)","openHours":"18시간","maleToilets":2,"femaleToilets":1,"disabled":false,"diaperTable":false,"emergencyBell":false,"cctv":false,"source":"public","category":"public"},{"id":"202432900000101302","name":"대한적십자사 부산혈액원","lat":35.1517,"lng":129.06594,"roadAddr":"부산광역시 부산진구 전포대로 168 (전포동)","openHours":"9시간","maleToilets":2,"femaleToilets":1,"disabled":true,"diaperTable":false,"emergencyBell":true,"cctv":false,"source":"public","category":"public"},{"id":"202432900000101154","name":"가얏골건강문화센터","lat":35.153571,"lng":129.034113,"roadAddr":"부산광역시 부산진구 가야대로572번가길 8","jibunAddr":"부산광역시 부산진구 가야동 306-1","openHours":"09:00-18:00","maleToilets":2,"femaleToilets":2,"disabled":false,"diaperTable":false,"emergencyBell":false,"cctv":false,"source":"public","category":"public"},{"id":"202432900000101307","name":"W모텔","lat":35.152749,"lng":129.056687,"roadAddr":"부산광역시 부산진구 부전로20번길 19, W모텔 (부전동)","openHours":"24시간","maleToilets":1,"femaleToilets":1,"disabled":false,"diaperTable":false,"emergencyBell":false,"cctv":false,"source":"public","category":"public"},{"id":"202432900000101225","name":"전포파출소","lat":35.151443,"lng":129.064995,"roadAddr":"부산광역시부산진구 전포대로 165","openHours":"상시","maleToilets":2,"femaleToilets":1,"disabled":true,"diaperTable":false,"emergencyBell":false,"cctv":false,"source":"public","category":"public"},{"id":"202432900000101304","name":"엔젤호텔","lat":35.154086,"lng":129.061885,"roadAddr":"부산광역시 부산진구 중앙대로692번길 46-7, 엔젠호텔 (부전동)","openHours":"24시간","maleToilets":4,"femaleToilets":4,"disabled":false,"diaperTable":false,"emergencyBell":false,"cctv":false,"source":"public","category":"public"},{"id":"202432900000101306","name":"유니크스테이","lat":35.155312,"lng":129.054752,"roadAddr":"부산광역시 부산진구 부전로 59, 유니크스테이 (부전동)","openHours":"24시간","maleToilets":7,"femaleToilets":5,"disabled":false,"diaperTable":false,"emergencyBell":false,"cctv":false,"source":"public","category":"public"},{"id":"202432900000101332","name":"서면시장","lat":35.155658,"lng":129.058141,"roadAddr":"부산광역시 부산진구 서면로 56, 서면시장 (부전동)","openHours":"12시간","maleToilets":19,"femaleToilets":8,"disabled":false,"diaperTable":false,"emergencyBell":false,"cctv":false,"source":"public","category":"public"},{"id":"202432900000101146","name":"선암정다운학습관","lat":35.149842,"lng":129.050086,"roadAddr":"부산광역시 부산진구 신암로117번길28-11","jibunAddr":"부산광역시 부산진구 범천동1194-94","openHours":"09:00~16:30","maleToilets":2,"femaleToilets":1,"disabled":false,"diaperTable":false,"emergencyBell":false,"cctv":false,"source":"public","category":"public"},{"id":"202432900000101029","name":"가야주유소","lat":35.152407,"lng":129.032946,"roadAddr":"부산광역시 부산진구 가야대로552번길 39, 가야주유소 (가야동)","openHours":"18시간","maleToilets":2,"femaleToilets":2,"disabled":false,"diaperTable":false,"emergencyBell":false,"cctv":false,"source":"public","category":"public"},{"id":"202432900000101118","name":"중부지하도상가 서면몰 1호","lat":35.155237,"lng":129.05914,"roadAddr":"부산광역시 부산진구 중앙대로 지하717","jibunAddr":"부산광역시 부산진구 부전동 573-1","openHours":"05:00-23:00","maleToilets":8,"femaleToilets":8,"disabled":true,"diaperTable":true,"emergencyBell":true,"cctv":true,"source":"public","category":"public"},{"id":"202432900000101192","name":"다사랑치매전문주간보호센터","lat":35.150441,"lng":129.034459,"roadAddr":"부산광역시 부산진구 대학로 60","jibunAddr":"부산광역시 부산진구 가야동 449","openHours":"09:00~18:00","maleToilets":0,"femaleToilets":0,"disabled":true,"diaperTable":false,"emergencyBell":false,"cctv":false,"managerTel":"0518921745","source":"public","category":"public"},{"id":"202432900000101322","name":"춘해병원","lat":35.14695,"lng":129.058381,"roadAddr":"부산광역시 부산진구 중앙대로 605, 춘해병원 (범천동)","openHours":"6시간","maleToilets":5,"femaleToilets":2,"disabled":false,"diaperTable":false,"emergencyBell":false,"cctv":false,"source":"public","category":"public"},{"id":"202432900000101336","name":"서면지하상가","lat":35.155237,"lng":129.05914,"roadAddr":"부산광역시 부산진구 중앙대로 지하 717, 서면지하도상가 서면몰 (부전동)","openHours":"12시간","maleToilets":9,"femaleToilets":9,"disabled":false,"diaperTable":false,"emergencyBell":false,"cctv":false,"source":"public","category":"public"},{"id":"202432900000101209","name":"부산범천동우체국","lat":35.147061,"lng":129.061551,"roadAddr":"부산광역시 부산진구 황령대로 18번길 21","openHours":"09:00-18:00","maleToilets":1,"femaleToilets":0,"disabled":false,"diaperTable":false,"emergencyBell":false,"cctv":false,"source":"public","category":"public"},{"id":"202432900000101138","name":"부산교통공사","lat":35.149631,"lng":129.060171,"roadAddr":"부산광역시 부산진구 중앙대로644번길 20, 부산교통공사 (범천동)","openHours":"09:00-18:00","maleToilets":4,"femaleToilets":1,"disabled":true,"diaperTable":false,"emergencyBell":false,"cctv":false,"source":"public","category":"public"},{"id":"202432900000101045","name":"가야1동주민센터","lat":35.153245,"lng":129.034288,"roadAddr":"부산광역시 부산진구 가야대로572번길 22","jibunAddr":"부산광역시 부산진구 가야동 296-1","openHours":"09:00-18:00","maleToilets":7,"femaleToilets":4,"disabled":false,"diaperTable":false,"emergencyBell":false,"cctv":false,"source":"public","category":"public"},{"id":"202432900000101153","name":"감고개무인카페","lat":35.148594,"lng":129.032195,"roadAddr":"부산광역시 부산진구 가야대로548번가길 17-1","jibunAddr":"부산광역시 부산진구 가야동 563-1","openHours":"09:00~18:00","maleToilets":4,"femaleToilets":2,"disabled":false,"diaperTable":false,"emergencyBell":false,"cctv":false,"managerTel":"0516055825","source":"public","category":"public"},{"id":"202432900000101122","name":"부산시설공단 서면사업소 2~3층","lat":35.152948,"lng":129.057275,"roadAddr":"부산광역시 부산진구 서면로25(부전동, 삼한골든뷰)","jibunAddr":"부산광역시 부산진구 부전2동 522-4","openHours":"10:30-19:00","maleToilets":16,"femaleToilets":5,"disabled":true,"diaperTable":false,"emergencyBell":false,"cctv":false,"source":"public","category":"public"},{"id":"202432900000101121","name":"중부지하도상가 중앙몰","lat":35.156166,"lng":129.054727,"roadAddr":"부산광역시 부산진구 중앙대로 지하777","jibunAddr":"부산광역시 부산진구 부전동576-1","openHours":"05:00-23:00","maleToilets":7,"femaleToilets":5,"disabled":true,"diaperTable":true,"emergencyBell":true,"cctv":true,"source":"public","category":"public"},{"id":"202432900000101256","name":"동의대학교 가야캠퍼스","lat":35.144318,"lng":129.03631,"roadAddr":"부산광역시 부산진구 엄광로 176","jibunAddr":"부산광역시 부산진구 가야동 464-121","openHours":"9시간","maleToilets":6,"femaleToilets":2,"disabled":true,"diaperTable":false,"emergencyBell":false,"cctv":false,"source":"public","category":"public"},{"id":"202432900000101197","name":"부산진구종합재가노인서비스센터 2층","lat":35.154918,"lng":129.041624,"roadAddr":"부산광역시 부산진구 엄광로292","jibunAddr":"부산광역시 부산진구 가야동 48-218번지","openHours":"09:00-18:00","maleToilets":2,"femaleToilets":0,"disabled":true,"diaperTable":false,"emergencyBell":false,"cctv":false,"managerTel":"0519510100","source":"public","category":"public"},{"id":"202432900000101139","name":"부산도시공사","lat":35.155915,"lng":129.05139,"roadAddr":"부산광역시 부산진구 신천대로 156 (부전동)","openHours":"05:00-22:00","maleToilets":5,"femaleToilets":2,"disabled":false,"diaperTable":false,"emergencyBell":false,"cctv":true,"source":"public","category":"public"},{"id":"202432900000101095","name":"지하철 가야역","lat":35.155874,"lng":129.04282,"roadAddr":"부산광역시 부산진구 가야대로 지하 650","jibunAddr":"부산광역시 부산진구 가야동 15-13","openHours":"05:00-24:00","maleToilets":8,"femaleToilets":7,"disabled":true,"diaperTable":true,"emergencyBell":true,"cctv":true,"source":"public","category":"public"},{"id":"202333100000100310","name":"국제금융센터,부산은행 지하철역","lat":35.145733,"lng":129.066743,"roadAddr":"부산광역시 남구 전포대로 지하 97","jibunAddr":"부산광역시 남구 문현동 728-3","openHours":"05:00~24:00","maleToilets":12,"femaleToilets":5,"disabled":true,"diaperTable":false,"emergencyBell":true,"cctv":true,"managerTel":"0516407266","source":"public","category":"public"},{"id":"202333100000100341","name":"드림씨어터 1층 화장실","lat":35.148282,"lng":129.065473,"roadAddr":"부산광역시 남구 전포대로 133 (문현동)","jibunAddr":"부산광역시 남구 문현동 1227-2","openHours":"공연장운영시","maleToilets":8,"femaleToilets":36,"disabled":false,"diaperTable":false,"emergencyBell":false,"cctv":false,"managerTel":"0519543352","source":"public","category":"public"},{"id":"202333100000100343","name":"드림씨어터 1층 장애인화장실","lat":35.148282,"lng":129.065473,"roadAddr":"부산광역시 남구 전포대로 133 (문현동)","jibunAddr":"부산광역시 남구 문현동 1227-2","openHours":"공연장운영시","maleToilets":0,"femaleToilets":0,"disabled":true,"diaperTable":false,"emergencyBell":true,"cctv":false,"managerTel":"0519543352","source":"public","category":"public"},{"id":"202333100000100288","name":"동명주유소","lat":35.13758,"lng":129.067256,"roadAddr":"부산광역시 남구 전포대로 7 (문현동, 동명주유소)","openHours":"상시","maleToilets":2,"femaleToilets":0,"disabled":false,"diaperTable":false,"emergencyBell":false,"cctv":false,"managerTel":"0516464390","source":"public","category":"public"},{"id":"202333100000100309","name":"문현 지하철역","lat":35.139158,"lng":129.06728,"roadAddr":"부산광역시 남구 전포대로 지하 17","jibunAddr":"부산광역시 남구 문현동 651-1","openHours":"05:00~24:00","maleToilets":10,"femaleToilets":5,"disabled":true,"diaperTable":true,"emergencyBell":true,"cctv":true,"managerTel":"0516407266","source":"public","category":"public"},{"id":"202333100000100345","name":"드림씨어터 2층 장애인화장실","lat":35.148282,"lng":129.065473,"roadAddr":"부산광역시 남구 전포대로 133 (문현동)","jibunAddr":"부산광역시 남구 문현동 1227-2","openHours":"공연장운영시","maleToilets":0,"femaleToilets":0,"disabled":true,"diaperTable":false,"emergencyBell":true,"cctv":false,"managerTel":"0519543352","source":"public","category":"public"},{"id":"202333100000100342","name":"드림씨어터 1층 가족화장실","lat":35.148282,"lng":129.065473,"roadAddr":"부산광역시 남구 전포대로 133 (문현동)","jibunAddr":"부산광역시 남구 문현동 1227-2","openHours":"공연장운영시","maleToilets":3,"femaleToilets":3,"disabled":false,"diaperTable":false,"emergencyBell":false,"cctv":false,"managerTel":"0519543352","source":"public","category":"public"},{"id":"202333100000100278","name":"문현2치안센터","lat":35.146066,"lng":129.067107,"roadAddr":"부산광역시 남구 전포대로 104 (문현동, 문현2치안센터)","openHours":"09:00~18:00","maleToilets":2,"femaleToilets":0,"disabled":false,"diaperTable":false,"emergencyBell":false,"cctv":false,"managerTel":"0516464285","source":"public","category":"public"},{"id":"202333100000100344","name":"드림씨어터 2층 화장실","lat":35.148282,"lng":129.065473,"roadAddr":"부산광역시 남구 전포대로 133 (문현동)","jibunAddr":"부산광역시 남구 문현동 1227-2","openHours":"공연장운영시","maleToilets":9,"femaleToilets":6,"disabled":false,"diaperTable":false,"emergencyBell":false,"cctv":false,"managerTel":"0519543352","source":"public","category":"public"},{"id":"202333100000100346","name":"드림씨어터 3층 화장실","lat":35.148282,"lng":129.065473,"roadAddr":"부산광역시 남구 전포대로 133 (문현동)","jibunAddr":"부산광역시 남구 문현동 1227-2","openHours":"공연장운영시","maleToilets":9,"femaleToilets":6,"disabled":false,"diaperTable":false,"emergencyBell":false,"cctv":false,"managerTel":"0519543352","source":"public","category":"public"},{"id":"202333100000100289","name":"금융단지주유소","lat":35.143575,"lng":129.066388,"roadAddr":"부산광역시 남구 전포대로 75, 문현금융단지주유소 (문현동)","jibunAddr":"부산광역시 남구 문현동 774-1 문현금융단지주유소","openHours":"15시간","maleToilets":3,"femaleToilets":1,"disabled":false,"diaperTable":false,"emergencyBell":false,"cctv":false,"managerTel":"0516335117","source":"public","category":"public"}]