[{"id":"202558200000100024","name":"광산업단지 충전소","lat":35.240698,"lng":126.869734,"roadAddr":"전남광주통합특별시 북구 삼소로 330(월출동)","jibunAddr":"전남광주통합특별시 북구 우산동 633-5","openHours":"상시","maleToilets":4,"femaleToilets":1,"disabled":false,"diaperTable":false,"emergencyBell":false,"cctv":false,"managerTel":"0625723628","source":"public","category":"public"},{"id":"202558200000100002","name":"(유)오일패밀리 용두우리주유소","lat":35.219859,"lng":126.869401,"roadAddr":"전남광주통합특별시 북구 빛고을대로 652(용두동)","jibunAddr":"전남광주통합특별시 북구 오룡동 1117","openHours":"상시","maleToilets":4,"femaleToilets":2,"disabled":false,"diaperTable":false,"emergencyBell":false,"cctv":false,"managerTel":"0625737319","source":"public","category":"public"},{"id":"202558200000100021","name":"강변공원","lat":35.233017,"lng":126.866337,"roadAddr":"전남광주통합특별시 북구 추암로 190 (월출동)","jibunAddr":"전남광주통합특별시 북구 문흥동 1011-6","openHours":"상시","maleToilets":4,"femaleToilets":3,"disabled":true,"diaperTable":true,"emergencyBell":true,"cctv":false,"managerTel":"0624106438","source":"public","category":"public"},{"id":"202558200000100179","name":"미래LPG충전소","lat":35.214767,"lng":126.865501,"roadAddr":"전남광주통합특별시 북구 임방울대로 983(신용동)","jibunAddr":"전남광주통합특별시 북구 각화동 495-8","openHours":"상시","maleToilets":4,"femaleToilets":2,"disabled":false,"diaperTable":false,"emergencyBell":false,"cctv":false,"managerTel":"0625745700","source":"public","category":"public"},{"id":"202558200000100191","name":"북구종합체육관","lat":35.200336,"lng":126.861757,"roadAddr":"전남광주통합특별시 북구 첨단연신로29번길 15, 북구종합체육관 (연제동)","jibunAddr":"전남광주통합특별시 북구 운암동 1224","openHours":"06:00~22:00(평일)09:00~18:00(주말,매주1,3주휴무)","maleToilets":18,"femaleToilets":18,"disabled":true,"diaperTable":true,"emergencyBell":true,"cctv":true,"managerTel":"0625240744","source":"public","category":"public"},{"id":"202558200000100197","name":"빛고을로셀프주유소","lat":35.220547,"lng":126.86842,"roadAddr":"전남광주통합특별시 북구 빛고을대로 657(용두동)","jibunAddr":"전남광주통합특별시 북구 오룡동 1115-6","openHours":"상시","maleToilets":4,"femaleToilets":2,"disabled":false,"diaperTable":false,"emergencyBell":false,"cctv":false,"managerTel":"0625743303","source":"public","category":"public"},{"id":"202558200000100155","name":"디오LPG충전소(유)","lat":35.220187,"lng":126.869482,"roadAddr":"전남광주통합특별시 북구 빛고을대로 656(용두동)","jibunAddr":"전남광주통합특별시 북구 각화동 451-1","openHours":"상시","maleToilets":6,"femaleToilets":3,"disabled":false,"diaperTable":false,"emergencyBell":false,"cctv":false,"managerTel":"0625730093","source":"public","category":"public"},{"id":"202558200000100157","name":"마루힐ibc지식산업센터","lat":35.222602,"lng":126.849253,"roadAddr":"전남광주통합특별시 북구 첨단과기로208번길 43-10 (오룡동)","jibunAddr":"전남광주통합특별시 북구 운암동 392-1","openHours":"09:00~18:00","maleToilets":8,"femaleToilets":6,"disabled":true,"diaperTable":false,"emergencyBell":false,"cctv":false,"source":"public","category":"public"},{"id":"202558200000100290","name":"첨단우암병원","lat":35.218546,"lng":126.853274,"roadAddr":"전남광주통합특별시 북구 앰코로 6(오룡동)","openHours":"08:00~21:00","maleToilets":6,"femaleToilets":3,"disabled":true,"diaperTable":false,"emergencyBell":false,"cctv":false,"managerTel":"0626012133","source":"public","category":"public"},{"id":"202558200000100293","name":"테크노파크주유소","lat":35.240519,"lng":126.867177,"roadAddr":"전남광주통합특별시 북구 삼소로 307(월출동)","openHours":"상시","maleToilets":4,"femaleToilets":2,"disabled":false,"diaperTable":false,"emergencyBell":false,"cctv":false,"managerTel":"0625745199","source":"public","category":"public"},{"id":"202558200000100206","name":"세오㈜직영 미래주유소","lat":35.214919,"lng":126.864927,"roadAddr":"전남광주통합특별시 북구 임방울대로 979(신용동)","jibunAddr":"전남광주통합특별시 북구 운암동 486-9","openHours":"상시","maleToilets":4,"femaleToilets":1,"disabled":false,"diaperTable":false,"emergencyBell":false,"cctv":false,"managerTel":"0625717100","source":"public","category":"public"},{"id":"202558200000100220","name":"신용구도일주유소","lat":35.215467,"lng":126.862248,"roadAddr":"전남광주통합특별시 북구 임방울대로 953(신용동)","openHours":"상시","maleToilets":4,"femaleToilets":1,"disabled":false,"diaperTable":false,"emergencyBell":false,"cctv":false,"managerTel":"0625765200","source":"public","category":"public"},{"id":"202558200000100221","name":"신용동행정복지센터","lat":35.207753,"lng":126.86176,"roadAddr":"전남광주통합특별시 북구 첨단연신로107번길 22","openHours":"09:00~18:00","maleToilets":12,"femaleToilets":12,"disabled":true,"diaperTable":true,"emergencyBell":false,"cctv":false,"managerTel":"0624108305","source":"public","category":"public"},{"id":"202558200000100222","name":"신용주유소","lat":35.215343,"lng":126.863171,"roadAddr":"전남광주통합특별시 북구 임방울대로 961(신용동)","openHours":"상시","maleToilets":4,"femaleToilets":1,"disabled":false,"diaperTable":false,"emergencyBell":false,"cctv":false,"managerTel":"0625735189","source":"public","category":"public"},{"id":"202558200000100057","name":"드론공원","lat":35.219414,"lng":126.858438,"roadAddr":"전남광주통합특별시 북구 추암로 44(오룡동)","jibunAddr":"전남광주통합특별시 북구 두암동 829-8","openHours":"상시","maleToilets":3,"femaleToilets":3,"disabled":false,"diaperTable":true,"emergencyBell":true,"cctv":false,"managerTel":"0624106112","source":"public","category":"public"},{"id":"202558200000100282","name":"지에스칼텍스㈜ 북광주IC주유소","lat":35.240698,"lng":126.869734,"roadAddr":"전남광주통합특별시 북구 삼소로 330(월출동)","openHours":"상시","maleToilets":4,"femaleToilets":2,"disabled":false,"diaperTable":false,"emergencyBell":false,"cctv":false,"managerTel":"0625745153","source":"public","category":"public"},{"id":"202558200000100288","name":"첨단북광주IC주유소","lat":35.240253,"lng":126.868698,"roadAddr":"전남광주통합특별시 북구 삼소로 318(월출동)","openHours":"상시","maleToilets":4,"femaleToilets":2,"disabled":false,"diaperTable":false,"emergencyBell":false,"cctv":false,"managerTel":"0625755145","source":"public","category":"public"},{"id":"202558200000100289","name":"첨단용두주유소","lat":35.221113,"lng":126.868818,"roadAddr":"전남광주통합특별시 북구 빛고을대로 663(용두동)","openHours":"상시","maleToilets":4,"femaleToilets":2,"disabled":false,"diaperTable":false,"emergencyBell":false,"cctv":false,"managerTel":"0625725189","source":"public","category":"public"},{"id":"202558200000100126","name":"국립광주과학관","lat":35.229977,"lng":126.849795,"roadAddr":"전남광주통합특별시 북구 첨단과기로 235(오룡동)","jibunAddr":"전남광주통합특별시 북구 신안동 500-5","openHours":"09:00~18:00","maleToilets":12,"femaleToilets":16,"disabled":true,"diaperTable":true,"emergencyBell":false,"cctv":false,"managerTel":"0629606210","source":"public","category":"public"},{"id":"202558200000100089","name":"신용빛고을근린공원","lat":35.207791,"lng":126.861397,"roadAddr":"전남광주통합특별시 북구 첨단연신로107번길 26(신용동)","jibunAddr":"전남광주통합특별시 북구 양산동 343-5","openHours":"상시","maleToilets":5,"femaleToilets":5,"disabled":true,"diaperTable":true,"emergencyBell":true,"cctv":false,"managerTel":"0624106438","source":"public","category":"public"},{"id":"202558200000100095","name":"영산강대상근린(하)","lat":35.219584,"lng":126.858711,"roadAddr":"전남광주통합특별시 북구 추암로 30(오룡동)","jibunAddr":"전남광주통합특별시 북구 풍향동 1-1","openHours":"상시","maleToilets":3,"femaleToilets":3,"disabled":false,"diaperTable":true,"emergencyBell":true,"cctv":false,"managerTel":"0624106438","source":"public","category":"public"},{"id":"202558200000100115","name":"첨단체육공원(테니스장)","lat":35.220546,"lng":126.858767,"roadAddr":"전남광주통합특별시 북구 추암로 37, 공원관리사무소 (오룡동)","jibunAddr":"전남광주통합특별시 북구 문흥동 81","openHours":"상시","maleToilets":3,"femaleToilets":1,"disabled":false,"diaperTable":true,"emergencyBell":true,"cctv":false,"managerTel":"0624106438","source":"public","category":"public"},{"id":"202358250000100078","name":"응암공원","lat":35.216902,"lng":126.832127,"roadAddr":"전남광주통합특별시 광산구 임방울대로 673-12 (월계동)","jibunAddr":"전남광주통합특별시 광산구 월계동 760-1","openHours":"24시간","maleToilets":3,"femaleToilets":1,"disabled":true,"diaperTable":true,"emergencyBell":true,"cctv":false,"managerTel":"0629608704","source":"public","category":"public"},{"id":"202358250000100079","name":"첨단파크골프장","lat":35.214497,"lng":126.831333,"jibunAddr":"전남광주통합특별시 광산구 월계동 762-2","openHours":"24시간","maleToilets":5,"femaleToilets":5,"disabled":false,"diaperTable":false,"emergencyBell":true,"cctv":false,"managerTel":"0629609922","source":"public","category":"public"},{"id":"202358250000100080","name":"무양공원","lat":35.210898,"lng":126.839804,"roadAddr":"전남광주통합특별시 광산구 산월로21번길 42 (월계동)","jibunAddr":"전남광주통합특별시 광산구 월계동 848-1","openHours":"24시간","maleToilets":5,"femaleToilets":2,"disabled":false,"diaperTable":false,"emergencyBell":true,"cctv":false,"managerTel":"0629608704","source":"public","category":"public"},{"id":"202358250000100050","name":"쌍암공원3","lat":35.222232,"lng":126.844167,"roadAddr":"전남광주통합특별시 광산구 첨단중앙로182번길 39 (쌍암동)","jibunAddr":"전남광주통합특별시 광산구 쌍암동 653-1","openHours":"24시간","maleToilets":4,"femaleToilets":4,"disabled":true,"diaperTable":true,"emergencyBell":true,"cctv":false,"managerTel":"0629608704","source":"public","category":"public"},{"id":"202358250000100051","name":"쌍암공원2","lat":35.222232,"lng":126.844167,"roadAddr":"전남광주통합특별시 광산구 첨단중앙로182번길 39 (쌍암동)","jibunAddr":"전남광주통합특별시 광산구 쌍암동 653-1","openHours":"24시간","maleToilets":4,"femaleToilets":2,"disabled":false,"diaperTable":true,"emergencyBell":true,"cctv":false,"managerTel":"0629608704","source":"public","category":"public"},{"id":"202358250000100052","name":"쌍암공원1","lat":35.222232,"lng":126.844167,"roadAddr":"전남광주통합특별시 광산구 첨단중앙로182번길 39 (쌍암동)","jibunAddr":"전남광주통합특별시 광산구 쌍암동 653-1","openHours":"24시간","maleToilets":6,"femaleToilets":6,"disabled":true,"diaperTable":true,"emergencyBell":true,"cctv":false,"managerTel":"0629608704","source":"public","category":"public"},{"id":"202358250000100053","name":"영산강대상공원2","lat":35.213304,"lng":126.852508,"roadAddr":"전남광주통합특별시 광산구 첨단강변로 76 (산월동)","jibunAddr":"전남광주통합특별시 광산구 쌍암동 695-3","openHours":"24시간","maleToilets":6,"femaleToilets":5,"disabled":false,"diaperTable":true,"emergencyBell":true,"cctv":false,"managerTel":"0629608704","source":"public","category":"public"},{"id":"202358250000100054","name":"영산강대상공원1","lat":35.213304,"lng":126.852508,"roadAddr":"전남광주통합특별시 광산구 첨단강변로 76 (산월동)","jibunAddr":"전남광주통합특별시 광산구 쌍암동 695-3","openHours":"24시간","maleToilets":6,"femaleToilets":5,"disabled":false,"diaperTable":true,"emergencyBell":true,"cctv":false,"managerTel":"0629608704","source":"public","category":"public"},{"id":"202358250000100306","name":"산월셀프주유소","lat":35.204287,"lng":126.836921,"roadAddr":"전남광주통합특별시 광산구 북문대로 579 (수완동)","jibunAddr":"전남광주통합특별시 광산구 수완동 37-1","openHours":"24시간","maleToilets":4,"femaleToilets":2,"disabled":false,"diaperTable":false,"emergencyBell":false,"cctv":false,"managerTel":"0629565150","source":"public","category":"public"},{"id":"202358250000100287","name":"광산IC LPG충전소","lat":35.214774,"lng":126.827258,"roadAddr":"전남광주통합특별시 광산구 사암로 860-38 (도천동)","jibunAddr":"전남광주통합특별시 광산구 도천동 123-22","openHours":"24시간","maleToilets":2,"femaleToilets":1,"disabled":false,"diaperTable":false,"emergencyBell":false,"cctv":false,"managerTel":"0629512283","source":"public","category":"public"},{"id":"202358250000100041","name":"수완1제","lat":35.200784,"lng":126.827342,"jibunAddr":"전남광주통합특별시 광산구 수완동 452-84","openHours":"24시간","maleToilets":2,"femaleToilets":1,"disabled":true,"diaperTable":true,"emergencyBell":true,"cctv":false,"managerTel":"0629608434","source":"public","category":"public"},{"id":"202358250000100302","name":"첨단현대주유소","lat":35.221575,"lng":126.829627,"roadAddr":"전남광주통합특별시 광산구 비아동원촌길 89 (비아동)","jibunAddr":"전남광주통합특별시 광산구 비아동 60-38","openHours":"24시간","maleToilets":3,"femaleToilets":1,"disabled":false,"diaperTable":false,"emergencyBell":false,"cctv":false,"managerTel":"0629565188","source":"public","category":"public"},{"id":"202358250000100305","name":"수완주유소","lat":35.208038,"lng":126.832486,"roadAddr":"전남광주통합특별시 광산구 북문대로 639(수완동)","jibunAddr":"전남광주통합특별시 광산구 수완동  264","openHours":"24시간","maleToilets":4,"femaleToilets":2,"disabled":false,"diaperTable":false,"emergencyBell":false,"cctv":false,"managerTel":"0629539293","source":"public","category":"public"},{"id":"202358250000100016","name":"산월교우 화장실","lat":35.204311,"lng":126.852656,"jibunAddr":"전남광주통합특별시 광산구 산월동 44-3","openHours":"24시간","maleToilets":4,"femaleToilets":4,"disabled":true,"diaperTable":true,"emergencyBell":true,"cctv":false,"managerTel":"0626035310","source":"public","category":"public"},{"id":"202358250000100023","name":"첨단테니스장","lat":35.222351,"lng":126.830607,"roadAddr":"전남광주통합특별시 광산구 첨단과기로 45-11","jibunAddr":"전남광주통합특별시 광산구 비아동 35-6","openHours":"24시간","maleToilets":3,"femaleToilets":2,"disabled":false,"diaperTable":false,"emergencyBell":true,"cctv":false,"managerTel":"0629609924","source":"public","category":"public"},{"id":"202358250000100284","name":"도천에너지","lat":35.219315,"lng":126.826524,"roadAddr":"전남광주통합특별시 광산구 사암로 896 (비아동)","jibunAddr":"전남광주통합특별시 광산구 비아동 63-52","openHours":"24시간","maleToilets":3,"femaleToilets":2,"disabled":false,"diaperTable":false,"emergencyBell":false,"cctv":false,"managerTel":"0629510210","source":"public","category":"public"},{"id":"202358250000100227","name":"반디이원 첨단점","lat":35.206294,"lng":126.851016,"roadAddr":"전남광주통합특별시 광산구 첨단월봉로 114(산월동)","jibunAddr":"전남광주통합특별시 광산구 산월동 853-1","openHours":"24시간","maleToilets":4,"femaleToilets":1,"disabled":false,"diaperTable":false,"emergencyBell":false,"cctv":false,"managerTel":"0629718301","source":"public","category":"public"},{"id":"202358250000100228","name":"보훈주유소","lat":35.205976,"lng":126.851101,"roadAddr":"전남광주통합특별시 광산구 첨단봉산안길 102 (산월동)","jibunAddr":"전남광주통합특별시 광산구 산월동 853-22","openHours":"24시간","maleToilets":4,"femaleToilets":2,"disabled":false,"diaperTable":false,"emergencyBell":false,"cctv":true,"managerTel":"0622343700","source":"public","category":"public"},{"id":"202358250000100229","name":"한백석유주유소","lat":35.222246,"lng":126.832198,"roadAddr":"전남광주통합특별시 광산구 첨단과기로 53 (비아동)","jibunAddr":"전남광주통합특별시 광산구 비아동 602-1","openHours":"24시간","maleToilets":4,"femaleToilets":2,"disabled":false,"diaperTable":false,"emergencyBell":false,"cctv":false,"managerTel":"0629740700","source":"public","category":"public"},{"id":"202358250000100230","name":"금성2주유소","lat":35.221374,"lng":126.829693,"roadAddr":"전남광주통합특별시 광산구 첨단과기로 33 (비아동)","jibunAddr":"전남광주통합특별시 광산구 비아동 626-2","openHours":"24시간","maleToilets":4,"femaleToilets":2,"disabled":false,"diaperTable":false,"emergencyBell":false,"cctv":false,"managerTel":"0629535189","source":"public","category":"public"},{"id":"202358250000100232","name":"비아농협주유소","lat":35.210574,"lng":126.826787,"roadAddr":"전남광주통합특별시 광산구 임방울대로 600 (도천동)","jibunAddr":"전남광주통합특별시 광산구 도천동 135-33","openHours":"24시간","maleToilets":3,"femaleToilets":1,"disabled":false,"diaperTable":false,"emergencyBell":false,"cctv":false,"managerTel":"0629515182","source":"public","category":"public"},{"id":"202358250000100201","name":"첨단프라자(종합상가)","lat":35.213713,"lng":126.84932,"roadAddr":"전남광주통합특별시 광산구 월계로 217(쌍암동)","jibunAddr":"전남광주통합특별시 광산구 쌍암동 694-63","openHours":"24시간","maleToilets":8,"femaleToilets":4,"disabled":true,"diaperTable":false,"emergencyBell":false,"cctv":false,"managerTel":"0627170001","source":"public","category":"public"},{"id":"202358250000100202","name":"롯데마트 첨단점","lat":35.216867,"lng":126.85194,"roadAddr":"전남광주통합특별시 광산구 첨단강변로99번길 22 (쌍암동)","jibunAddr":"전남광주통합특별시 광산구 쌍암동 694-3","openHours":"24시간","maleToilets":10,"femaleToilets":11,"disabled":false,"diaperTable":false,"emergencyBell":false,"cctv":false,"managerTel":"0629622500","source":"public","category":"public"},{"id":"202358250000100203","name":"대호상가","lat":35.219138,"lng":126.846241,"roadAddr":"전남광주통합특별시 광산구 임방울대로801번길 26 (쌍암동)","jibunAddr":"전남광주통합특별시 광산구 쌍암동 673-7","openHours":"24시간","maleToilets":2,"femaleToilets":1,"disabled":true,"diaperTable":false,"emergencyBell":false,"cctv":false,"managerTel":"0629730666","source":"public","category":"public"},{"id":"202358250000100204","name":"쌍둥이빌딩","lat":35.218226,"lng":126.843652,"roadAddr":"전남광주통합특별시 광산구 임방울대로 779 (쌍암동)","jibunAddr":"전남광주통합특별시 광산구 쌍암동 657-6","openHours":"24시간","maleToilets":3,"femaleToilets":2,"disabled":true,"diaperTable":true,"emergencyBell":false,"cctv":false,"managerTel":"0629723503","source":"public","category":"public"},{"id":"202358250000100168","name":"첨단우리병원","lat":35.221667,"lng":126.842817,"roadAddr":"전남광주통합특별시 광산구 첨단중앙로182번길 12 (쌍암동)","jibunAddr":"전남광주통합특별시 광산구 쌍암동 654-4","openHours":"24시간","maleToilets":5,"femaleToilets":3,"disabled":true,"diaperTable":false,"emergencyBell":false,"cctv":false,"managerTel":"0629706000","source":"public","category":"public"},{"id":"202358250000100177","name":"광주보훈병원","lat":35.208067,"lng":126.849657,"roadAddr":"전남광주통합특별시 광산구 첨단월봉로 99 (산월동)","jibunAddr":"전남광주통합특별시 광산구 산월동 887-1","openHours":"24시간","maleToilets":7,"femaleToilets":7,"disabled":false,"diaperTable":true,"emergencyBell":false,"cctv":true,"managerTel":"0626026022","source":"public","category":"public"},{"id":"202358250000100190","name":"LC타워","lat":35.213829,"lng":126.843468,"roadAddr":"전남광주통합특별시 광산구 첨단중앙로 96 (월계동)","jibunAddr":"전남광주통합특별시 광산구 월계동 889-2","openHours":"24시간","maleToilets":10,"femaleToilets":6,"disabled":false,"diaperTable":false,"emergencyBell":false,"cctv":true,"managerTel":"0629724224","source":"public","category":"public"},{"id":"202358250000100191","name":"㈜에이스빌","lat":35.214566,"lng":126.843341,"roadAddr":"전남광주통합특별시 광산구 첨단중앙로104 (월계동)","jibunAddr":"전남광주통합특별시 광산구 월계동 889-1","openHours":"24시간","maleToilets":4,"femaleToilets":3,"disabled":false,"diaperTable":false,"emergencyBell":false,"cctv":false,"managerTel":"0629730040","source":"public","category":"public"},{"id":"202358250000100192","name":"기아오토큐(월계점)","lat":35.21631,"lng":126.842963,"roadAddr":"전남광주통합특별시 광산구 첨단중앙로124번길 16 (월계동)","jibunAddr":"전남광주통합특별시 광산구 월계동 875-3","openHours":"24시간","maleToilets":3,"femaleToilets":1,"disabled":false,"diaperTable":false,"emergencyBell":false,"cctv":true,"managerTel":"0629736635","source":"public","category":"public"},{"id":"202358250000100125","name":"첨단도서관","lat":35.216902,"lng":126.832127,"roadAddr":"전남광주통합특별시 광산구 임방울대로 673-12 (월계동)","jibunAddr":"전남광주통합특별시 광산구 월계동 760-1","openHours":"09:00~18:00","maleToilets":4,"femaleToilets":4,"disabled":false,"diaperTable":false,"emergencyBell":false,"cctv":false,"managerTel":"0629608296","source":"public","category":"public"},{"id":"202358250000100134","name":"첨단종합사회복지관","lat":35.21948,"lng":126.842369,"roadAddr":"전남광주통합특별시 광산구 첨단중앙로 160 (쌍암동)","jibunAddr":"전남광주통합특별시 광산구 쌍암동 656-2","openHours":"24시간","maleToilets":4,"femaleToilets":4,"disabled":false,"diaperTable":false,"emergencyBell":false,"cctv":false,"managerTel":"0629719500","source":"public","category":"public"},{"id":"202358250000100135","name":"첨단1동행정복지센터","lat":35.21948,"lng":126.842369,"roadAddr":"전남광주통합특별시 광산구 첨단중앙로 160 (쌍암동)","jibunAddr":"전남광주통합특별시 광산구 쌍암동 656-2","openHours":"09:00~18:00","maleToilets":4,"femaleToilets":4,"disabled":false,"diaperTable":false,"emergencyBell":false,"cctv":false,"managerTel":"0629607703","source":"public","category":"public"},{"id":"202358250000100104","name":"첨단임방울대로","lat":35.207366,"lng":126.851415,"jibunAddr":"전남광주통합특별시 광산구 산월동 880-1","openHours":"24시간","maleToilets":3,"femaleToilets":3,"disabled":false,"diaperTable":false,"emergencyBell":true,"cctv":false,"managerTel":"0629609922","source":"public","category":"public"},{"id":"202358250000100360","name":"첨단아크레타","lat":35.214283,"lng":126.846506,"roadAddr":"전남광주통합특별시 광산구 임방울대로 800번길 71","jibunAddr":"전남광주통합특별시 광산구 월계동 892-8","openHours":"24시간","maleToilets":30,"femaleToilets":19,"disabled":true,"diaperTable":true,"emergencyBell":false,"cctv":true,"source":"public","category":"public"},{"id":"202358250000100362","name":"첨단청소년수련관","lat":35.222232,"lng":126.844167,"roadAddr":"전남광주통합특별시 광산구 첨단중앙로182번길 39 (쌍암동)","jibunAddr":"전남광주통합특별시 광산구 쌍암동 653-1","openHours":"09:00~18:00","maleToilets":3,"femaleToilets":3,"disabled":false,"diaperTable":true,"emergencyBell":true,"cctv":true,"managerTel":"0629603842","source":"public","category":"public"},{"id":"202358250000100124","name":"첨단2동행정복지센터","lat":35.21625,"lng":126.84333,"roadAddr":"전남광주통합특별시 광산구 첨단중앙로124번길 24 (월계동)","jibunAddr":"전남광주통합특별시 광산구 월계동 875-5","openHours":"09:00~18:00","maleToilets":15,"femaleToilets":8,"disabled":true,"diaperTable":false,"emergencyBell":false,"cctv":false,"managerTel":"0629607715","source":"public","category":"public"}]