[{"id":"202058850000100039","name":"해보 보건지소 화장실","lat":35.179385,"lng":126.602646,"roadAddr":"함평군 해보면 유정길 8-11","jibunAddr":"함평군 해보면 금덕리 498-1","openHours":"정시","maleToilets":2,"femaleToilets":1,"disabled":true,"diaperTable":false,"emergencyBell":false,"cctv":false,"managerTel":"0613202480","source":"public","category":"public"},{"id":"202058850000100098","name":"국립종자원 수위실 화장실","lat":35.182115,"lng":126.59459,"roadAddr":"함평군 해보면 밀재로 1194","jibunAddr":"함평군 해보면 금덕리 346-7","openHours":"정시","maleToilets":1,"femaleToilets":1,"disabled":false,"diaperTable":false,"emergencyBell":false,"cctv":false,"managerTel":"0613230701","source":"public","category":"public"},{"id":"202058850000100072","name":"해보면사무소 화장실","lat":35.180128,"lng":126.601548,"roadAddr":"해보면 밀재로 1264-7","jibunAddr":"해보면 금덕리 495-1","openHours":"정시","maleToilets":11,"femaleToilets":4,"disabled":true,"diaperTable":false,"emergencyBell":false,"cctv":false,"managerTel":"0613202774","source":"public","category":"public"},{"id":"202058850000100078","name":"해보파출소 1층","lat":35.182081,"lng":126.601372,"roadAddr":"함평군 해보면 밀재로 1255","jibunAddr":"함평군 해보면 금덕리 364-1","openHours":"정시","maleToilets":3,"femaleToilets":1,"disabled":true,"diaperTable":false,"emergencyBell":false,"cctv":false,"managerTel":"0613201303","source":"public","category":"public"},{"id":"202058850000100096","name":"국립종자원 전남지원 1층 화장실","lat":35.182115,"lng":126.59459,"roadAddr":"함평군 해보면 밀재로 1194","jibunAddr":"함평군 해보면 금덕리 346-7","openHours":"정시","maleToilets":4,"femaleToilets":2,"disabled":false,"diaperTable":false,"emergencyBell":false,"cctv":false,"managerTel":"0613230701","source":"public","category":"public"},{"id":"202058850000100097","name":"국립종자원 전남지원 2층 화장실","lat":35.182115,"lng":126.59459,"roadAddr":"함평군 해보면 밀재로 1194","jibunAddr":"함평군 해보면 금덕리 346-7","openHours":"정시","maleToilets":4,"femaleToilets":2,"disabled":false,"diaperTable":false,"emergencyBell":false,"cctv":false,"managerTel":"0613230701","source":"public","category":"public"},{"id":"202058850000100174","name":"문장터미널 화장실","lat":35.181248,"lng":126.605497,"roadAddr":"해보면 해삼로 364-4","jibunAddr":"해보면 문장리 822-24","openHours":"정시","maleToilets":5,"femaleToilets":2,"disabled":false,"diaperTable":false,"emergencyBell":true,"cctv":false,"managerTel":"0613201755","source":"public","category":"public"},{"id":"202058850000100176","name":"해보5일시장 화장실","lat":35.181054,"lng":126.602544,"roadAddr":"해보면 밀재로 1274-12","jibunAddr":"해보면 금덕리 414-9","openHours":"정시","maleToilets":4,"femaleToilets":2,"disabled":true,"diaperTable":false,"emergencyBell":false,"cctv":true,"managerTel":"0613201733","source":"public","category":"public"},{"id":"202058850000100185","name":"함평나비주유소 화장실","lat":35.177947,"lng":126.595458,"roadAddr":"해보면 영광로 2538","jibunAddr":"해보면 해보리 212-27","openHours":"불규칙","maleToilets":3,"femaleToilets":2,"disabled":false,"diaperTable":false,"emergencyBell":false,"cctv":false,"managerTel":"0613232030","source":"public","category":"public"},{"id":"202058850000100186","name":"함평나비중앙충전소 화장실","lat":35.17748,"lng":126.595876,"roadAddr":"해보면 영광로 2542","jibunAddr":"해보면 해보리 212-33","openHours":"불규칙","maleToilets":3,"femaleToilets":2,"disabled":false,"diaperTable":false,"emergencyBell":false,"cctv":false,"managerTel":"0613236030","source":"public","category":"public"}]