[{"id":"202658300000100010","name":"병풍산 등산로 입구","lat":35.312847,"lng":126.875746,"roadAddr":"전남광주통합특별시 담양군 대전면 병풍로 612","jibunAddr":"전남광주통합특별시 담양군 대전면 평장리 산 123-3","openHours":"상시","maleToilets":2,"femaleToilets":1,"disabled":false,"diaperTable":false,"emergencyBell":true,"cctv":false,"managerTel":"0613803072","source":"public","category":"public"},{"id":"202658300000100011","name":"한재골 주차장","lat":35.297695,"lng":126.878191,"roadAddr":"전남광주통합특별시 담양군 대전면 병풍로 419","jibunAddr":"전남광주통합특별시 담양군 대전면 평장리 477","openHours":"상시","maleToilets":4,"femaleToilets":4,"disabled":true,"diaperTable":false,"emergencyBell":true,"cctv":true,"managerTel":"0613803072","source":"public","category":"public"},{"id":"202658300000100012","name":"대방리 화장실","lat":35.312494,"lng":126.913045,"roadAddr":"전남광주통합특별시 담양군 수북면 한수동로 764","jibunAddr":"전남광주통합특별시 담양군 수북면 대방리 991","openHours":"상시","maleToilets":2,"femaleToilets":2,"disabled":false,"diaperTable":false,"emergencyBell":true,"cctv":false,"managerTel":"0613803072","source":"public","category":"public"},{"id":"202658300000100065","name":"대방제","lat":35.314828,"lng":126.907284,"roadAddr":"전남광주통합특별시 담양군 수북면 한수동로 833","jibunAddr":"전남광주통합특별시 담양군 수북면 대방리 924","openHours":"상시","maleToilets":3,"femaleToilets":3,"disabled":false,"diaperTable":false,"emergencyBell":true,"cctv":false,"managerTel":"0613803072","source":"public","category":"public"},{"id":"202658300000100069","name":"한재골1(광장)","lat":35.301953,"lng":126.876866,"roadAddr":"전남광주통합특별시 담양군 대전면 병풍로 483","jibunAddr":"전남광주통합특별시 담양군 대전면 평장리 산 12-4","openHours":"상시","maleToilets":5,"femaleToilets":5,"disabled":true,"diaperTable":true,"emergencyBell":true,"cctv":false,"managerTel":"0613803072","source":"public","category":"public"},{"id":"202658300000100070","name":"한재골 3(사방댐)","lat":35.305202,"lng":126.874941,"jibunAddr":"전남광주통합특별시 담양군 대전면 평장리 산 85-6","openHours":"상시","maleToilets":3,"femaleToilets":3,"disabled":true,"diaperTable":false,"emergencyBell":true,"cctv":false,"managerTel":"0613803072","source":"public","category":"public"},{"id":"202658300000100071","name":"정골","lat":35.29624,"lng":126.896057,"roadAddr":"전남광주통합특별시 담양군 대전면 추성1로 419-145","jibunAddr":"전남광주통합특별시 담양군 대전면 행성리 628-7","openHours":"상시","maleToilets":1,"femaleToilets":1,"disabled":true,"diaperTable":false,"emergencyBell":true,"cctv":false,"managerTel":"0613803072","source":"public","category":"public"}]