[{"id":"202558200000100025","name":"광주개인택시조합LPG충전소","lat":35.224808,"lng":126.882835,"roadAddr":"전남광주통합특별시 북구 하서로 576(본촌동)","jibunAddr":"전남광주통합특별시 북구 문흥동 925-6","openHours":"상시","maleToilets":2,"femaleToilets":0,"disabled":false,"diaperTable":false,"emergencyBell":false,"cctv":false,"managerTel":"0625727711","source":"public","category":"public"},{"id":"202558200000100036","name":"산월교좌","lat":35.208933,"lng":126.873483,"jibunAddr":"전남광주통합특별시 북구 양산동 254-94","openHours":"상시","maleToilets":3,"femaleToilets":3,"disabled":true,"diaperTable":true,"emergencyBell":true,"cctv":false,"managerTel":"0626035308","source":"public","category":"public"},{"id":"202558200000100003","name":"(유)오일패밀리주유소","lat":35.236666,"lng":126.876683,"roadAddr":"전남광주통합특별시 북구 빛고을대로 849(지야동)","jibunAddr":"전남광주통합특별시 북구 오치동 1018-2","openHours":"상시","maleToilets":5,"femaleToilets":2,"disabled":false,"diaperTable":false,"emergencyBell":false,"cctv":false,"source":"public","category":"public"},{"id":"202558200000100007","name":"(주)무등LPG충전소","lat":35.223493,"lng":126.880966,"roadAddr":"전남광주통합특별시 북구 하서로 553(본촌동)","jibunAddr":"전남광주통합특별시 북구 용봉동 1270","openHours":"상시","maleToilets":4,"femaleToilets":1,"disabled":false,"diaperTable":false,"emergencyBell":false,"cctv":false,"managerTel":"0625755188","source":"public","category":"public"},{"id":"202558200000100022","name":"건국동 행정복지센터","lat":35.222936,"lng":126.881646,"roadAddr":"전남광주통합특별시 북구 본촌마을길 25(본촌동)","jibunAddr":"전남광주통합특별시 북구 오룡동 1113 공원관리사무소","openHours":"09:00~18:00","maleToilets":4,"femaleToilets":2,"disabled":false,"diaperTable":true,"emergencyBell":false,"cctv":false,"managerTel":"0624108853","source":"public","category":"public"},{"id":"202558200000100135","name":"대원정사","lat":35.22635,"lng":126.887327,"roadAddr":"전남광주통합특별시 북구 하서로 610-28(본촌동)","jibunAddr":"전남광주통합특별시 북구 운암동 480-2","openHours":"09:00~18:00","maleToilets":3,"femaleToilets":3,"disabled":false,"diaperTable":false,"emergencyBell":false,"cctv":false,"managerTel":"0625714004","source":"public","category":"public"},{"id":"202558200000100138","name":"덕양에너지 광주주유소","lat":35.234234,"lng":126.875617,"roadAddr":"전남광주통합특별시 북구 빛고을대로 825(지야동)","jibunAddr":"전남광주통합특별시 북구 효령동 100-2 영락공원","openHours":"상시","maleToilets":4,"femaleToilets":2,"disabled":false,"diaperTable":false,"emergencyBell":false,"cctv":false,"managerTel":"0625755116","source":"public","category":"public"},{"id":"202558200000100146","name":"동부에너지","lat":35.22481,"lng":126.881883,"roadAddr":"전남광주통합특별시 북구 하서로 571(본촌동)","jibunAddr":"전남광주통합특별시 북구 오치동 1003","openHours":"상시","maleToilets":4,"femaleToilets":2,"disabled":false,"diaperTable":false,"emergencyBell":false,"cctv":false,"managerTel":"0625765182","source":"public","category":"public"},{"id":"202558200000100181","name":"반디이원충전소(일곡점)","lat":35.216487,"lng":126.902289,"roadAddr":"전남광주통합특별시 북구 우치로 585(일곡동)","jibunAddr":"전남광주통합특별시 북구 본촌동 773-1","openHours":"상시","maleToilets":4,"femaleToilets":1,"disabled":false,"diaperTable":false,"emergencyBell":false,"cctv":false,"managerTel":"0625748400","source":"public","category":"public"},{"id":"202558200000100182","name":"복합문화복지커뮤니티센터","lat":35.201343,"lng":126.873852,"roadAddr":"전남광주통합특별시 북구 하서로 299(양산동)","jibunAddr":"전남광주통합특별시 북구 양산동 620-82","openHours":"09:00~18:00","maleToilets":20,"femaleToilets":19,"disabled":true,"diaperTable":true,"emergencyBell":true,"cctv":true,"managerTel":"0625740296","source":"public","category":"public"},{"id":"202558200000100183","name":"본촌생활건강지원센터","lat":35.214258,"lng":126.879173,"roadAddr":"전남광주통합특별시 북구 양산택지로79번길 24-1 (본촌동)","jibunAddr":"전남광주통합특별시 북구 유동 14-6","openHours":"09:00~18:00(평일)","maleToilets":4,"femaleToilets":6,"disabled":true,"diaperTable":false,"emergencyBell":true,"cctv":true,"managerTel":"0624106226","source":"public","category":"public"},{"id":"202558200000100184","name":"북광주IC주유소","lat":35.232885,"lng":126.888125,"roadAddr":"전남광주통합특별시 북구 하서로 678(지야동)","jibunAddr":"전남광주통합특별시 북구 중흥동 650-7","openHours":"상시","maleToilets":3,"femaleToilets":1,"disabled":false,"diaperTable":false,"emergencyBell":false,"cctv":false,"managerTel":"0625729800","source":"public","category":"public"},{"id":"202558200000100186","name":"북광주우체국","lat":35.201808,"lng":126.897758,"roadAddr":"전남광주통합특별시 북구 양일로 314(삼각동)","jibunAddr":"전남광주통합특별시 북구 중흥동 845 중흥2,3동 통합청사 및 공영주차장","openHours":"09:00~18:00","maleToilets":5,"femaleToilets":3,"disabled":true,"diaperTable":false,"emergencyBell":false,"cctv":false,"managerTel":"0625109114","source":"public","category":"public"},{"id":"202558200000100167","name":"매일엘피지","lat":35.238144,"lng":126.893228,"roadAddr":"전남광주통합특별시 북구 우치로 850(용전동)","jibunAddr":"전남광주통합특별시 북구 일곡동 849-5","openHours":"상시","maleToilets":2,"femaleToilets":1,"disabled":false,"diaperTable":false,"emergencyBell":false,"cctv":false,"managerTel":"0625710388","source":"public","category":"public"},{"id":"202558200000100294","name":"패밀리LPG충전소","lat":35.222589,"lng":126.902933,"roadAddr":"전남광주통합특별시 북구 우치로 654 (생용동)","openHours":"상시","maleToilets":3,"femaleToilets":2,"disabled":false,"diaperTable":false,"emergencyBell":false,"cctv":false,"managerTel":"0625133824","source":"public","category":"public"},{"id":"202558200000100295","name":"패밀리셀프주유소","lat":35.224193,"lng":126.902423,"roadAddr":"전남광주통합특별시 북구 우치로 670(생용동)","openHours":"상시","maleToilets":3,"femaleToilets":2,"disabled":false,"diaperTable":false,"emergencyBell":false,"cctv":false,"managerTel":"0625715050","source":"public","category":"public"},{"id":"202558200000100242","name":"용전IC주유소","lat":35.237664,"lng":126.893431,"roadAddr":"전남광주통합특별시 북구 우치로 842(용전동)","openHours":"상시","maleToilets":3,"femaleToilets":1,"disabled":false,"diaperTable":false,"emergencyBell":false,"cctv":false,"managerTel":"0625767052","source":"public","category":"public"},{"id":"202558200000100243","name":"용전주유소","lat":35.234412,"lng":126.894296,"roadAddr":"전남광주통합특별시 북구 우치로 809(용전동)","openHours":"상시","maleToilets":4,"femaleToilets":2,"disabled":false,"diaperTable":false,"emergencyBell":false,"cctv":false,"managerTel":"0625765189","source":"public","category":"public"},{"id":"202558200000100259","name":"일곡도서관","lat":35.210044,"lng":126.895681,"roadAddr":"전남광주통합특별시 북구 일곡마을로 198(일곡동)","openHours":"09:00~18:00","maleToilets":33,"femaleToilets":19,"disabled":false,"diaperTable":false,"emergencyBell":false,"cctv":false,"managerTel":"0624106887","source":"public","category":"public"},{"id":"202558200000100260","name":"일곡동 행정복지센터","lat":35.205997,"lng":126.897272,"roadAddr":"전남광주통합특별시 북구 설죽로 525(일곡동)","openHours":"09:00~18:00","maleToilets":5,"femaleToilets":2,"disabled":false,"diaperTable":false,"emergencyBell":false,"cctv":false,"managerTel":"0624108803","source":"public","category":"public"},{"id":"202558200000100261","name":"일곡우리주유소","lat":35.217598,"lng":126.902735,"roadAddr":"전남광주통합특별시 북구 우치로 595(일곡동)","openHours":"상시","maleToilets":2,"femaleToilets":1,"disabled":false,"diaperTable":false,"emergencyBell":false,"cctv":false,"managerTel":"0622688951","source":"public","category":"public"},{"id":"202558200000100225","name":"양산동 행정복지센터","lat":35.209176,"lng":126.879637,"roadAddr":"전남광주통합특별시 북구 양산택지로 32(양산동)","openHours":"09:00~18:00","maleToilets":3,"femaleToilets":2,"disabled":true,"diaperTable":false,"emergencyBell":false,"cctv":false,"managerTel":"0624108873","source":"public","category":"public"},{"id":"202558200000100069","name":"들샘어린이공원","lat":35.205967,"lng":126.897001,"roadAddr":"전남광주통합특별시 북구 일곡마을로 38 (일곡동)","jibunAddr":"전남광주통합특별시 북구 우산동 190-1","openHours":"상시","maleToilets":3,"femaleToilets":2,"disabled":true,"diaperTable":true,"emergencyBell":true,"cctv":false,"managerTel":"0624106438","source":"public","category":"public"},{"id":"202558200000100274","name":"㈜케이피유통 본촌주유소","lat":35.221521,"lng":126.880515,"roadAddr":"전남광주통합특별시 북구 하서로 530(본촌동)","openHours":"상시","maleToilets":2,"femaleToilets":1,"disabled":false,"diaperTable":false,"emergencyBell":false,"cctv":false,"managerTel":"0625721600","source":"public","category":"public"},{"id":"202558200000100307","name":"효령노인복지타운시내버스정류소","lat":35.240695,"lng":126.912338,"roadAddr":"전남광주통합특별시 북구 하서로 950, 효령노인복지타운 (효령동)","openHours":"상시","maleToilets":3,"femaleToilets":2,"disabled":false,"diaperTable":false,"emergencyBell":true,"cctv":false,"managerTel":"0626039833","source":"public","category":"public"},{"id":"202558200000100281","name":"지산주유소","lat":35.217395,"lng":126.878073,"roadAddr":"전남광주통합특별시 북구 양산택지로 157(본촌동)","openHours":"상시","maleToilets":3,"femaleToilets":1,"disabled":false,"diaperTable":false,"emergencyBell":false,"cctv":false,"managerTel":"0625717012","source":"public","category":"public"},{"id":"202558200000100286","name":"천보주유소","lat":35.234988,"lng":126.894474,"roadAddr":"전남광주통합특별시 북구 우치로 812(용전동)","openHours":"상시","maleToilets":2,"femaleToilets":0,"disabled":false,"diaperTable":false,"emergencyBell":false,"cctv":false,"managerTel":"0625719777","source":"public","category":"public"},{"id":"202558200000100042","name":"광주본촌동우체국","lat":35.219725,"lng":126.880061,"roadAddr":"전남광주통합특별시 북구 본촌마을길 95(본촌동)","jibunAddr":"전남광주통합특별시 북구 본촌동 27","openHours":"09:00~18:00","maleToilets":2,"femaleToilets":1,"disabled":false,"diaperTable":false,"emergencyBell":false,"cctv":false,"managerTel":"0625711293","source":"public","category":"public"},{"id":"202558200000100043","name":"광주양산동우체국","lat":35.206175,"lng":126.873107,"roadAddr":"전남광주통합특별시 북구 하서로 349(양산동)","jibunAddr":"전남광주통합특별시 북구 문흥동 920","openHours":"09:00~18:00","maleToilets":2,"femaleToilets":1,"disabled":true,"diaperTable":false,"emergencyBell":false,"cctv":false,"managerTel":"0625719181","source":"public","category":"public"},{"id":"202558200000100048","name":"광주일곡병원","lat":35.202862,"lng":126.897606,"roadAddr":"전남광주통합특별시 북구 양일로 309(일곡동)","jibunAddr":"전남광주통합특별시 북구 동림동 41","openHours":"06:00~23:00","maleToilets":4,"femaleToilets":2,"disabled":true,"diaperTable":false,"emergencyBell":false,"cctv":false,"managerTel":"0626087072","source":"public","category":"public"},{"id":"202558200000100051","name":"광주희망병원","lat":35.21355,"lng":126.874775,"roadAddr":"전남광주통합특별시 북구 하서로 429(용두동)","jibunAddr":"전남광주통합특별시 북구 두암동 560-22","openHours":"상시","maleToilets":6,"femaleToilets":3,"disabled":true,"diaperTable":false,"emergencyBell":false,"cctv":false,"managerTel":"0626086851","source":"public","category":"public"},{"id":"202558200000100263","name":"일곡주유소","lat":35.204626,"lng":126.902294,"roadAddr":"전남광주통합특별시 북구 우치로422번길 22(삼각동)","openHours":"상시","maleToilets":3,"femaleToilets":2,"disabled":false,"diaperTable":false,"emergencyBell":false,"cctv":false,"managerTel":"0625736005","source":"public","category":"public"},{"id":"202558200000100083","name":"삼각어린이공원","lat":35.200657,"lng":126.900258,"roadAddr":"전남광주통합특별시 북구 송해로 21(삼각동)","jibunAddr":"전남광주통합특별시 북구 각화동 224-12","openHours":"상시","maleToilets":2,"femaleToilets":1,"disabled":true,"diaperTable":true,"emergencyBell":true,"cctv":false,"managerTel":"0624106438","source":"public","category":"public"},{"id":"202558200000100122","name":"한새봉농업생태공원","lat":35.212399,"lng":126.893386,"roadAddr":"전남광주통합특별시 북구 소해로 61(일곡동)","jibunAddr":"전남광주통합특별시 북구 운암동 164","openHours":"상시","maleToilets":2,"femaleToilets":1,"disabled":true,"diaperTable":true,"emergencyBell":true,"cctv":false,"managerTel":"0624106438","source":"public","category":"public"},{"id":"202558200000100123","name":"한새어린이공원","lat":35.213106,"lng":126.897398,"roadAddr":"전남광주통합특별시 북구 소해로 100(일곡동)","jibunAddr":"전남광주통합특별시 북구 운암동 164","openHours":"상시","maleToilets":2,"femaleToilets":1,"disabled":false,"diaperTable":true,"emergencyBell":true,"cctv":false,"managerTel":"0624106438","source":"public","category":"public"},{"id":"202558200000100133","name":"남도향토음식박물관","lat":35.201804,"lng":126.89864,"roadAddr":"전남광주통합특별시 북구 설죽로 477 (삼각동)","jibunAddr":"전남광주통합특별시 북구 양산동 610-17","openHours":"09:00~18:00(매주월요일휴무)","maleToilets":12,"femaleToilets":9,"disabled":true,"diaperTable":false,"emergencyBell":false,"cctv":false,"source":"public","category":"public"},{"id":"202558200000100091","name":"양산호수공원","lat":35.202534,"lng":126.87366,"roadAddr":"전남광주통합특별시 북구 하서로 309(양산동)","jibunAddr":"전남광주통합특별시 북구 지야동 798-6","openHours":"상시","maleToilets":5,"femaleToilets":7,"disabled":true,"diaperTable":true,"emergencyBell":true,"cctv":false,"managerTel":"0624106438","source":"public","category":"public"},{"id":"202558200000100097","name":"용두어린이공원","lat":35.21862,"lng":126.87479,"roadAddr":"전남광주통합특별시 북구 용두마을2길 12(용두동)","jibunAddr":"전남광주통합특별시 북구 우산동 230-1 북구우산생활체육관","openHours":"상시","maleToilets":5,"femaleToilets":3,"disabled":true,"diaperTable":true,"emergencyBell":true,"cctv":false,"managerTel":"0624106438","source":"public","category":"public"},{"id":"202558200000100129","name":"기아오토큐양산점","lat":35.208955,"lng":126.87351,"roadAddr":"전남광주통합특별시 북구 하서로 381 (양산동)","jibunAddr":"전남광주통합특별시 북구 신용동 476-25","openHours":"09:00~18:00","maleToilets":2,"femaleToilets":1,"disabled":false,"diaperTable":false,"emergencyBell":false,"cctv":true,"managerTel":"0625720777","source":"public","category":"public"},{"id":"202558200000100107","name":"일곡제1근린공원(사무실옆)上","lat":35.209514,"lng":126.894649,"roadAddr":"전남광주통합특별시 북구 일곡택지로 88 (일곡동)","jibunAddr":"전남광주통합특별시 북구 용봉동 247-12","openHours":"상시","maleToilets":3,"femaleToilets":3,"disabled":true,"diaperTable":true,"emergencyBell":true,"cctv":false,"managerTel":"0624106438","source":"public","category":"public"},{"id":"202558200000100108","name":"일곡제1근린공원下","lat":35.209514,"lng":126.894649,"roadAddr":"전남광주통합특별시 북구 일곡택지로 88 (일곡동)","jibunAddr":"전남광주통합특별시 북구 운암동 180-1","openHours":"상시","maleToilets":4,"femaleToilets":2,"disabled":false,"diaperTable":true,"emergencyBell":true,"cctv":false,"managerTel":"0624106438","source":"public","category":"public"},{"id":"202558200000100109","name":"일곡제2근린공원(중앙초교옆)","lat":35.206502,"lng":126.898396,"roadAddr":"전남광주통합특별시 북구 설죽로 526 (일곡동)","jibunAddr":"전남광주통합특별시 북구 신안동 252-9","openHours":"상시","maleToilets":4,"femaleToilets":2,"disabled":false,"diaperTable":true,"emergencyBell":true,"cctv":false,"managerTel":"0624106438","source":"public","category":"public"},{"id":"202558200000100110","name":"일곡제3근린공원(일곡중옆)","lat":35.202596,"lng":126.896228,"roadAddr":"전남광주통합특별시 북구 양일로 297 (일곡동)","jibunAddr":"전남광주통합특별시 북구 망월동 668-3","openHours":"상시","maleToilets":4,"femaleToilets":2,"disabled":false,"diaperTable":true,"emergencyBell":true,"cctv":false,"managerTel":"0624106438","source":"public","category":"public"},{"id":"202558200000100080","name":"본촌생태어린이공원","lat":35.218215,"lng":126.880368,"roadAddr":"전남광주통합특별시 북구 본촌마을길 136(본촌동)","jibunAddr":"전남광주통합특별시 북구 운암동 328-16","openHours":"상시","maleToilets":1,"femaleToilets":2,"disabled":true,"diaperTable":true,"emergencyBell":true,"cctv":false,"managerTel":"0624106438","source":"public","category":"public"},{"id":"202558200000100306","name":"효령노인복지타운 경비실","lat":35.240695,"lng":126.912338,"roadAddr":"전남광주통합특별시 북구 하서로 950, 효령노인복지타운 (효령동)","openHours":"상시","maleToilets":6,"femaleToilets":9,"disabled":true,"diaperTable":false,"emergencyBell":true,"cctv":false,"managerTel":"0626039833","source":"public","category":"public"}]