[{"id":"202358250000100352","name":"임곡농협주유소","lat":35.218668,"lng":126.744626,"roadAddr":"전남광주통합특별시 광산구 고봉로 785 (임곡동)","jibunAddr":"전남광주통합특별시 광산구 임곡동 494-2","openHours":"24시간","maleToilets":4,"femaleToilets":2,"disabled":false,"diaperTable":false,"emergencyBell":false,"cctv":false,"managerTel":"0629525182","source":"public","category":"public"},{"id":"202358250000100353","name":"현대오일뱅크 주유소","lat":35.204231,"lng":126.758878,"roadAddr":"전남광주통합특별시 광산구 고봉로 565 (산막동)","jibunAddr":"전남광주통합특별시 광산구 산막동 469-2","openHours":"24시간","maleToilets":2,"femaleToilets":0,"disabled":false,"diaperTable":false,"emergencyBell":false,"cctv":false,"managerTel":"0629623590","source":"public","category":"public"},{"id":"202358250000100354","name":"스마일주유소","lat":35.203498,"lng":126.76103,"roadAddr":"전남광주통합특별시 광산구 고봉로 541 (산막동)","jibunAddr":"전남광주통합특별시 광산구 산막동 456-2","openHours":"24시간","maleToilets":2,"femaleToilets":1,"disabled":false,"diaperTable":false,"emergencyBell":false,"cctv":false,"managerTel":"0629515142","source":"public","category":"public"},{"id":"202358250000100090","name":"용진교이동식화장실","lat":35.213295,"lng":126.745628,"jibunAddr":"전남광주통합특별시 광산구 임곡동 585-1","openHours":"24시간","maleToilets":3,"femaleToilets":3,"disabled":true,"diaperTable":false,"emergencyBell":true,"cctv":false,"managerTel":"0629603985","source":"public","category":"public"},{"id":"202358250000100032","name":"임곡교이동식화장실","lat":35.207184,"lng":126.752791,"jibunAddr":"전남광주통합특별시 광산구 선동 697-2","openHours":"24시간","maleToilets":4,"femaleToilets":3,"disabled":true,"diaperTable":false,"emergencyBell":true,"cctv":false,"managerTel":"0629603985","source":"public","category":"public"},{"id":"202358250000100018","name":"월봉서원","lat":35.235836,"lng":126.745186,"roadAddr":"전남광주통합특별시 광산구 광곡길 133 (광산동)","jibunAddr":"전남광주통합특별시 광산구 광산동 452","openHours":"24시간","maleToilets":4,"femaleToilets":3,"disabled":true,"diaperTable":false,"emergencyBell":true,"cctv":false,"managerTel":"0629608252","source":"public","category":"public"},{"id":"202358250000100242","name":"고룡셀프주유소","lat":35.207015,"lng":126.775749,"roadAddr":"전남광주통합특별시 광산구 임곡로 359 (고룡동)","jibunAddr":"전남광주통합특별시 광산구 고룡동 47","openHours":"24시간","maleToilets":4,"femaleToilets":2,"disabled":false,"diaperTable":false,"emergencyBell":false,"cctv":true,"managerTel":"0627100515","source":"public","category":"public"},{"id":"202358250000100162","name":"임곡농협자재센터","lat":35.220406,"lng":126.742452,"roadAddr":"전남광주통합특별시 광산구 고봉로 808(임곡동)","jibunAddr":"전남광주통합특별시 광산구 임곡동 450-18","openHours":"24시간","maleToilets":2,"femaleToilets":1,"disabled":false,"diaperTable":false,"emergencyBell":false,"cctv":false,"managerTel":"0629528064","source":"public","category":"public"},{"id":"202358250000100187","name":"임곡농협","lat":35.219787,"lng":126.742624,"roadAddr":"전남광주통합특별시 광산구 고봉로 807 (임곡동)","jibunAddr":"전남광주통합특별시 광산구 임곡동 780","openHours":"24시간","maleToilets":4,"femaleToilets":4,"disabled":false,"diaperTable":false,"emergencyBell":false,"cctv":false,"managerTel":"0629528045","source":"public","category":"public"},{"id":"202358250000100121","name":"임곡동행정복지센터","lat":35.219598,"lng":126.74479,"roadAddr":"전남광주통합특별시 광산구 고봉로 788 (임곡동)","jibunAddr":"전남광주통합특별시 광산구 임곡동 451-2","openHours":"09:00~18:00","maleToilets":5,"femaleToilets":2,"disabled":false,"diaperTable":false,"emergencyBell":false,"cctv":true,"managerTel":"0629607826","source":"public","category":"public"}]