[{"id":"202058850000100040","name":"월야 보건지소 화장실","lat":35.178851,"lng":126.623302,"roadAddr":"함평군 월야면 밀재로 1476","jibunAddr":"함평군 월야면 월야리 759-7","openHours":"09:00~18:00","maleToilets":2,"femaleToilets":1,"disabled":true,"diaperTable":false,"emergencyBell":false,"cctv":false,"managerTel":"0613202485","source":"public","category":"public"},{"id":"202058850000100079","name":"월야파출소 1층","lat":35.179096,"lng":126.631842,"roadAddr":"함평군 월야면 밀재로 1551","jibunAddr":"함평군 월야면 월야리 1115","openHours":"09:00~18:06","maleToilets":2,"femaleToilets":1,"disabled":true,"diaperTable":false,"emergencyBell":false,"cctv":false,"managerTel":"0613201307","source":"public","category":"public"},{"id":"202058850000100142","name":"월야달맞이공원 화장실(입구)","lat":35.165355,"lng":126.627034,"roadAddr":"월야면 용월리 355-4","jibunAddr":"월야면 용월리355-4","openHours":"09:00~18:00","maleToilets":3,"femaleToilets":2,"disabled":true,"diaperTable":false,"emergencyBell":true,"cctv":false,"managerTel":"0613202802","source":"public","category":"public"},{"id":"202058850000100143","name":"달맞이 공원화장실(주무대뒤)","lat":35.163485,"lng":126.626636,"roadAddr":"월야면 용월리 367-106","jibunAddr":"월야면 용월리367-106","openHours":"09:00~18:00","maleToilets":3,"femaleToilets":2,"disabled":false,"diaperTable":false,"emergencyBell":false,"cctv":false,"managerTel":"0613202802","source":"public","category":"public"},{"id":"202058850000100144","name":"월야면사무소 화장실","lat":35.18005,"lng":126.632234,"roadAddr":"월야면 전하길 65","jibunAddr":"월야리 205-67","openHours":"09:00~18:00","maleToilets":4,"femaleToilets":2,"disabled":false,"diaperTable":false,"emergencyBell":false,"cctv":false,"managerTel":"0613202814","source":"public","category":"public"},{"id":"202058850000100145","name":"월야 달맞이문화센터 화장실","lat":35.180384,"lng":126.625065,"roadAddr":"월야면 밀재로 1491","jibunAddr":"월야리 1098","openHours":"09:00~18:00","maleToilets":6,"femaleToilets":6,"disabled":false,"diaperTable":false,"emergencyBell":false,"cctv":false,"managerTel":"0613202802","source":"public","category":"public"},{"id":"202058850000100146","name":"월야 구 면복지회관 화장실(1층)","lat":35.17904,"lng":126.631287,"roadAddr":"월야면 밀재로 1549","jibunAddr":"월야리 1098","openHours":"09:00~18:00","maleToilets":4,"femaleToilets":2,"disabled":false,"diaperTable":false,"emergencyBell":false,"cctv":false,"managerTel":"0613203807","source":"public","category":"public"},{"id":"202058850000100147","name":"월야 구 면복지회관 화장실(2층)","lat":35.17904,"lng":126.631287,"roadAddr":"월야면 밀재로 1549","jibunAddr":"월야리 1098","openHours":"09:00~18:00","maleToilets":4,"femaleToilets":2,"disabled":false,"diaperTable":false,"emergencyBell":false,"cctv":false,"managerTel":"0613203807","source":"public","category":"public"},{"id":"202058850000100177","name":"월야5일시장 화장실","lat":35.179274,"lng":126.626781,"roadAddr":"월야면 밀재로 1504-5","jibunAddr":"월야면 월야리 713-69","openHours":"06:00~18:00","maleToilets":3,"femaleToilets":1,"disabled":true,"diaperTable":false,"emergencyBell":false,"cctv":false,"managerTel":"0613201733","source":"public","category":"public"},{"id":"202058850000100187","name":"SK 영월주유소 화장실","lat":35.174631,"lng":126.64748,"roadAddr":"월야면 밀재로 1718","jibunAddr":"월야면 영월리 342-3","openHours":"06:00~18:00","maleToilets":3,"femaleToilets":1,"disabled":false,"diaperTable":false,"emergencyBell":false,"cctv":false,"managerTel":"0613239442","source":"public","category":"public"},{"id":"202058850000100188","name":"월야농협주유소 화장실","lat":35.180013,"lng":126.627354,"roadAddr":"월야면 밀재로 1513-1","jibunAddr":"월야면 월야리 494-29","openHours":"06:00~18:00","maleToilets":2,"femaleToilets":1,"disabled":false,"diaperTable":false,"emergencyBell":false,"cctv":false,"managerTel":"0613231058","source":"public","category":"public"},{"id":"202058850000100189","name":"함평에너지 주유소 화장실","lat":35.174631,"lng":126.64748,"roadAddr":"월야면 밀재로 1718","jibunAddr":"월야면 영월리 342-3","openHours":"06:00~18:00","maleToilets":2,"femaleToilets":1,"disabled":false,"diaperTable":false,"emergencyBell":false,"cctv":false,"managerTel":"0613232131","source":"public","category":"public"}]