[{"id":"202658300000100003","name":"메타길7(어린이프로방스주차장)","lat":35.322401,"lng":127.005656,"roadAddr":"전남광주통합특별시 담양군 담양읍 담양88로 428","jibunAddr":"전남광주통합특별시 담양군 담양읍 학동리 672","openHours":"상시","maleToilets":3,"femaleToilets":3,"disabled":true,"diaperTable":false,"emergencyBell":true,"cctv":true,"managerTel":"0613803072","source":"public","category":"public"},{"id":"202658300000100022","name":"메타길5(어린이프로방스)","lat":35.322401,"lng":127.005656,"roadAddr":"전남광주통합특별시 담양군 담양읍 담양88로 428","jibunAddr":"전남광주통합특별시 담양군 담양읍 학동리 672","openHours":"상시","maleToilets":5,"femaleToilets":5,"disabled":true,"diaperTable":true,"emergencyBell":true,"cctv":true,"managerTel":"0613803072","source":"public","category":"public"},{"id":"202658300000100024","name":"메타길4(금월교)","lat":35.33201,"lng":127.016903,"roadAddr":"전남광주통합특별시 담양군 담양읍 메타세쿼이아로 177","jibunAddr":"전남광주통합특별시 담양군 담양읍 학동리 40-5","openHours":"상시","maleToilets":3,"femaleToilets":3,"disabled":true,"diaperTable":true,"emergencyBell":true,"cctv":true,"managerTel":"0613803072","source":"public","category":"public"},{"id":"202658300000100025","name":"메타길3(학동입구)","lat":35.326535,"lng":127.012397,"roadAddr":"전남광주통합특별시 담양군 담양읍 메타세쿼이아로 104","jibunAddr":"전남광주통합특별시 담양군 담양읍 학동리 346-5","openHours":"상시","maleToilets":3,"femaleToilets":3,"disabled":true,"diaperTable":false,"emergencyBell":true,"cctv":false,"managerTel":"0613803072","source":"public","category":"public"},{"id":"202658300000100026","name":"메타길2(영화촬영장)","lat":35.325704,"lng":127.009407,"roadAddr":"전남광주통합특별시 담양군 담양읍 메타세쿼이아로 67","jibunAddr":"전남광주통합특별시 담양군 담양읍 학동리 54-10","openHours":"상시","maleToilets":1,"femaleToilets":1,"disabled":true,"diaperTable":false,"emergencyBell":true,"cctv":false,"managerTel":"0613803072","source":"public","category":"public"},{"id":"202658300000100027","name":"메타길1(매점)","lat":35.324121,"lng":127.004564,"roadAddr":"전남광주통합특별시 담양군 담양읍 메타세쿼이아로 27","jibunAddr":"전남광주통합특별시 담양군 담양읍 학동리 59-5","openHours":"상시","maleToilets":6,"femaleToilets":5,"disabled":true,"diaperTable":true,"emergencyBell":true,"cctv":true,"managerTel":"0613803072","source":"public","category":"public"}]