[{"id":"202558550000101389","name":"백아면행정복지센터 화장실","lat":35.168087,"lng":127.132283,"roadAddr":"전남광주통합특별시 화순군 백아면 학천길 26","jibunAddr":"전남광주통합특별시 화순군 백아면 이천리 216-3","openHours":"정시","maleToilets":8,"femaleToilets":1,"disabled":false,"diaperTable":false,"emergencyBell":false,"cctv":false,"managerTel":"0613725301","source":"public","category":"public"},{"id":"202558550000101392","name":"원리정자 공중화장실","lat":35.189001,"lng":127.129895,"jibunAddr":"전남광주통합특별시 화순군 백아면 원리 573","openHours":"상시","maleToilets":1,"femaleToilets":1,"disabled":false,"diaperTable":false,"emergencyBell":false,"cctv":false,"managerTel":"0613793614","source":"public","category":"public"},{"id":"202558550000101209","name":"화순백아우체국","lat":35.16818,"lng":127.13259,"roadAddr":"전남광주통합특별시 화순군 백아면 학천길 24 백아면우체국","jibunAddr":"전남광주통합특별시 화순군 화순읍 일심리 501번지","openHours":"정시","maleToilets":2,"femaleToilets":1,"disabled":false,"diaperTable":false,"emergencyBell":false,"cctv":false,"managerTel":"0613725003","source":"public","category":"public"},{"id":"202558550000101400","name":"공룡발자국화석지 공중화장실","lat":35.169506,"lng":127.090777,"roadAddr":"전남광주통합특별시 화순군 백아면 백아로 2080","jibunAddr":"전남광주통합특별시 화순군 백아면 서유리 산 148-4","openHours":"정시","maleToilets":5,"femaleToilets":3,"disabled":true,"diaperTable":false,"emergencyBell":false,"cctv":false,"managerTel":"0613793614","source":"public","category":"public"},{"id":"202558550000101403","name":"맹리 공중화장실","lat":35.181749,"lng":127.093801,"roadAddr":"전남광주통합특별시 화순군 백아면 백아로 1936","jibunAddr":"전남광주통합특별시 화순군 백아면 맹리 343-6","openHours":"상시","maleToilets":1,"femaleToilets":1,"disabled":false,"diaperTable":false,"emergencyBell":false,"cctv":false,"managerTel":"0613793614","source":"public","category":"public"}]