[{"id":"202658300000100001","name":"평화예술광장","lat":35.294633,"lng":126.979843,"roadAddr":"전남광주통합특별시 담양군 담양읍 담양로 208","jibunAddr":"전남광주통합특별시 담양군 담양읍 반룡리 340-12","openHours":"상시","maleToilets":2,"femaleToilets":2,"disabled":true,"diaperTable":true,"emergencyBell":true,"cctv":false,"managerTel":"0613803072","source":"public","category":"public"},{"id":"202658300000100005","name":"백진공원4(파크골프장)","lat":35.316796,"lng":126.965374,"jibunAddr":"전남광주통합특별시 담양군 담양읍 강쟁리 1448-5","openHours":"상시","maleToilets":0,"femaleToilets":1,"disabled":true,"diaperTable":false,"emergencyBell":true,"cctv":false,"managerTel":"0613803072","source":"public","category":"public"},{"id":"202658300000100008","name":"해동어린이공원","lat":35.317479,"lng":126.984515,"jibunAddr":"전남광주통합특별시 담양군 담양읍 지침리 84-23","openHours":"상시","maleToilets":0,"femaleToilets":1,"disabled":true,"diaperTable":false,"emergencyBell":true,"cctv":false,"managerTel":"0613803072","source":"public","category":"public"},{"id":"202658300000100023","name":"종합체육관 체육관","lat":35.325042,"lng":126.989123,"roadAddr":"전남광주통합특별시 담양군 담양읍 죽녹원로 134","jibunAddr":"전남광주통합특별시 담양군 담양읍 향교리 22-1","openHours":"상시","maleToilets":6,"femaleToilets":5,"disabled":true,"diaperTable":true,"emergencyBell":true,"cctv":false,"managerTel":"0613803072","source":"public","category":"public"},{"id":"202658300000100028","name":"관어공원(호국사)","lat":35.325589,"lng":126.981874,"roadAddr":"전남광주통합특별시 담양군 담양읍 완동길 10-15","jibunAddr":"전남광주통합특별시 담양군 담양읍 만성리 63-3","openHours":"상시","maleToilets":1,"femaleToilets":1,"disabled":true,"diaperTable":false,"emergencyBell":true,"cctv":false,"managerTel":"0613803072","source":"public","category":"public"},{"id":"202658300000100029","name":"죽녹원(향교교 밑)","lat":35.324498,"lng":126.986629,"roadAddr":"전남광주통합특별시 담양군 담양읍 영산강자전거길 931","jibunAddr":"전남광주통합특별시 담양군 담양읍 향교리 271-33","openHours":"상시","maleToilets":2,"femaleToilets":2,"disabled":true,"diaperTable":true,"emergencyBell":true,"cctv":false,"managerTel":"0613803072","source":"public","category":"public"},{"id":"202658300000100030","name":"추성경기장(추성무대)","lat":35.324102,"lng":126.993705,"roadAddr":"전남광주통합특별시 담양군 담양읍 관방제림길 69","jibunAddr":"전남광주통합특별시 담양군 담양읍 객사리 1-30","openHours":"상시","maleToilets":7,"femaleToilets":4,"disabled":false,"diaperTable":false,"emergencyBell":true,"cctv":false,"managerTel":"0613803072","source":"public","category":"public"},{"id":"202658300000100031","name":"객사리 마을회관","lat":35.323577,"lng":126.983336,"roadAddr":"전남광주통합특별시 담양군 담양읍 객사4길 43-10","jibunAddr":"전남광주통합특별시 담양군 담양읍 객사리 211-25","openHours":"상시","maleToilets":5,"femaleToilets":3,"disabled":false,"diaperTable":false,"emergencyBell":true,"cctv":false,"managerTel":"0613803072","source":"public","category":"public"},{"id":"202658300000100032","name":"담양시장(주차장)","lat":35.3218,"lng":126.98055,"roadAddr":"전남광주통합특별시 담양군 담양읍 담주3길 23","jibunAddr":"전남광주통합특별시 담양군 담양읍 담주리 19-1","openHours":"상시","maleToilets":3,"femaleToilets":6,"disabled":true,"diaperTable":false,"emergencyBell":true,"cctv":false,"managerTel":"0613803072","source":"public","category":"public"},{"id":"202658300000100033","name":"담양시장(담양교)","lat":35.319673,"lng":126.9796,"roadAddr":"전남광주통합특별시 담양군 담양읍 담주4길 1","jibunAddr":"전남광주통합특별시 담양군 담양읍 담주리 137","openHours":"상시","maleToilets":2,"femaleToilets":2,"disabled":true,"diaperTable":false,"emergencyBell":true,"cctv":false,"managerTel":"0613803072","source":"public","category":"public"},{"id":"202658300000100034","name":"관방제림(객사경로당)","lat":35.323464,"lng":126.985663,"roadAddr":"전남광주통합특별시 담양군 담양읍 죽녹원로 98","jibunAddr":"전남광주통합특별시 담양군 담양읍 객사리 169-7","openHours":"상시","maleToilets":4,"femaleToilets":4,"disabled":false,"diaperTable":false,"emergencyBell":false,"cctv":false,"managerTel":"0613803072","source":"public","category":"public"},{"id":"202658300000100035","name":"공용터미널","lat":35.315019,"lng":126.983914,"roadAddr":"전남광주통합특별시 담양군 담양읍 중앙로 22-2","jibunAddr":"전남광주통합특별시 담양군 담양읍 지침리 131","openHours":"상시","maleToilets":4,"femaleToilets":4,"disabled":true,"diaperTable":false,"emergencyBell":true,"cctv":true,"managerTel":"0613803072","source":"public","category":"public"},{"id":"202658300000100039","name":"백진공원2(야구장)","lat":35.319083,"lng":126.978611,"jibunAddr":"전남광주통합특별시 담양군 담양읍 양각리 348","openHours":"상시","maleToilets":2,"femaleToilets":2,"disabled":false,"diaperTable":false,"emergencyBell":true,"cctv":false,"managerTel":"0613803072","source":"public","category":"public"},{"id":"202658300000100040","name":"총무정 옆","lat":35.323231,"lng":126.989686,"roadAddr":"전남광주통합특별시 담양군 담양읍 객사7길 41","jibunAddr":"전남광주통합특별시 담양군 담양읍 객사리 2-27","openHours":"상시","maleToilets":4,"femaleToilets":3,"disabled":true,"diaperTable":false,"emergencyBell":false,"cctv":false,"managerTel":"0613803072","source":"public","category":"public"},{"id":"202658300000100041","name":"연화촌","lat":35.327032,"lng":126.998851,"roadAddr":"전남광주통합특별시 담양군 담양읍 연화길 125","jibunAddr":"전남광주통합특별시 담양군 담양읍 금월리 435-4","openHours":"상시","maleToilets":2,"femaleToilets":3,"disabled":true,"diaperTable":true,"emergencyBell":true,"cctv":false,"managerTel":"0613803072","source":"public","category":"public"},{"id":"202658300000100042","name":"석당간주차장","lat":35.323335,"lng":126.99316,"roadAddr":"전남광주통합특별시 담양군 담양읍 객사7길 75","jibunAddr":"전남광주통합특별시 담양군 담양읍 객사리 9","openHours":"상시","maleToilets":0,"femaleToilets":1,"disabled":true,"diaperTable":false,"emergencyBell":false,"cctv":false,"managerTel":"0613803072","source":"public","category":"public"},{"id":"202658300000100043","name":"도립대","lat":35.327009,"lng":126.988828,"jibunAddr":"전남광주통합특별시 담양군 담양읍 향교리 237-8","openHours":"상시","maleToilets":2,"femaleToilets":1,"disabled":true,"diaperTable":false,"emergencyBell":true,"cctv":false,"managerTel":"0613803072","source":"public","category":"public"},{"id":"202658300000100044","name":"백진공원3","lat":35.319083,"lng":126.978611,"jibunAddr":"전남광주통합특별시 담양군 담양읍 양각리 348","openHours":"상시","maleToilets":4,"femaleToilets":4,"disabled":true,"diaperTable":true,"emergencyBell":true,"cctv":true,"managerTel":"0613803072","source":"public","category":"public"},{"id":"202658300000100045","name":"보건소 앞","lat":35.324637,"lng":126.981819,"jibunAddr":"전남광주통합특별시 담양군 담양읍 만성리 140-1","openHours":"상시","maleToilets":4,"femaleToilets":4,"disabled":true,"diaperTable":true,"emergencyBell":true,"cctv":true,"managerTel":"0613803072","source":"public","category":"public"},{"id":"202658300000100036","name":"중앙공원","lat":35.319631,"lng":126.983237,"roadAddr":"전남광주통합특별시 담양군 담양읍 추성로 1324","jibunAddr":"전남광주통합특별시 담양군 담양읍 지침리 175-1","openHours":"상시","maleToilets":1,"femaleToilets":2,"disabled":true,"diaperTable":false,"emergencyBell":true,"cctv":false,"managerTel":"0613803072","source":"public","category":"public"},{"id":"202658300000100038","name":"백진공원1(파크골프장)","lat":35.319083,"lng":126.978611,"jibunAddr":"전남광주통합특별시 담양군 담양읍 양각리 348","openHours":"상시","maleToilets":2,"femaleToilets":3,"disabled":true,"diaperTable":false,"emergencyBell":true,"cctv":false,"managerTel":"0613803072","source":"public","category":"public"},{"id":"202658300000100072","name":"역사문화공원","lat":35.321359,"lng":126.992212,"roadAddr":"전남광주통합특별시 담양군 담양읍 동정자길 15-13","jibunAddr":"전남광주통합특별시 담양군 담양읍 객사리 34","openHours":"상시","maleToilets":4,"femaleToilets":4,"disabled":false,"diaperTable":false,"emergencyBell":true,"cctv":false,"managerTel":"0613803072","source":"public","category":"public"},{"id":"202658300000100046","name":"남산 등산로 입구","lat":35.316957,"lng":126.995506,"jibunAddr":"전남광주통합특별시 담양군 담양읍 남산리 80","openHours":"상시","maleToilets":2,"femaleToilets":2,"disabled":true,"diaperTable":true,"emergencyBell":true,"cctv":false,"managerTel":"0613803072","source":"public","category":"public"}]