[{"id":"202446910000100257","name":"내장터미널","lat":35.494846,"lng":126.927011,"jibunAddr":"전북특별자치도 정읍시 내장동46-29","openHours":"정시","maleToilets":12,"femaleToilets":7,"disabled":false,"diaperTable":false,"emergencyBell":false,"cctv":false,"managerTel":"0635334101","source":"public","category":"public"},{"id":"202446910000100222","name":"내장산국립공원화장실(신선교옆)","lat":35.492592,"lng":126.927576,"jibunAddr":"전북특별자치도 정읍시 내장동52-13","openHours":"정시","maleToilets":10,"femaleToilets":8,"disabled":false,"diaperTable":false,"emergencyBell":true,"cctv":false,"managerTel":"0635396141","source":"public","category":"public"},{"id":"202446910000100237","name":"공원치안센터","lat":35.493454,"lng":126.927661,"roadAddr":"전북특별자치도 정읍시 내장산로 930-5  (내장동,59-13)","jibunAddr":"전북특별자치도 정읍시 내장동59-13","openHours":"정시","maleToilets":0,"femaleToilets":0,"disabled":false,"diaperTable":false,"emergencyBell":false,"cctv":false,"managerTel":"0635368112","source":"public","category":"public"},{"id":"202446910000100229","name":"내장산국립공원화장실(매표소옆)","lat":35.489289,"lng":126.926442,"roadAddr":"전북특별자치도 정읍시 내장호반로 606  (내장동,산 196)","jibunAddr":"전북특별자치도 정읍시 내장동산196","openHours":"정시","maleToilets":4,"femaleToilets":5,"disabled":false,"diaperTable":false,"emergencyBell":true,"cctv":false,"managerTel":"0635387876","source":"public","category":"public"},{"id":"202446910000100228","name":"내장산국립공원화장실(제3주차장)","lat":35.496242,"lng":126.918717,"roadAddr":"전북특별자치도 정읍시 내장산로 836  (내장동,산 249)","jibunAddr":"전북특별자치도 정읍시 내장동산249","openHours":"정시","maleToilets":10,"femaleToilets":10,"disabled":false,"diaperTable":false,"emergencyBell":true,"cctv":false,"managerTel":"0635387877","source":"public","category":"public"},{"id":"202446910000100226","name":"내장산국립공원화장실(제1주차장)","lat":35.494059,"lng":126.925606,"roadAddr":"전북특별자치도 정읍시 내장호반로 536  (내장동,대지 52)","jibunAddr":"전북특별자치도 정읍시 내장동52","openHours":"정시","maleToilets":10,"femaleToilets":5,"disabled":false,"diaperTable":false,"emergencyBell":true,"cctv":false,"managerTel":"0635387879","source":"public","category":"public"},{"id":"202446910000100219","name":"내장산국립공원화장실(천하대장군)","lat":35.487643,"lng":126.917685,"jibunAddr":"전북특별자치도 정읍시 내장동산187-1","openHours":"정시","maleToilets":4,"femaleToilets":2,"disabled":false,"diaperTable":false,"emergencyBell":true,"cctv":false,"managerTel":"0635387877","source":"public","category":"public"},{"id":"202446910000100051","name":"내장 신선교","lat":35.492456,"lng":126.927753,"jibunAddr":"전북특별자치도 정읍시 내장동 77-1","openHours":"상시","maleToilets":7,"femaleToilets":7,"disabled":false,"diaperTable":false,"emergencyBell":true,"cctv":false,"managerTel":"0635395202","source":"public","category":"public"},{"id":"202446910000100230","name":"내장산국립공원화장실(사무소)","lat":35.49337,"lng":126.92771,"roadAddr":"전북특별자치도 정읍시 내장산로 936  (내장동,59-10)","jibunAddr":"전북특별자치도 정읍시 내장동59-10","openHours":"정시","maleToilets":6,"femaleToilets":4,"disabled":false,"diaperTable":false,"emergencyBell":true,"cctv":false,"managerTel":"0635387875","source":"public","category":"public"},{"id":"202446910000100223","name":"내장산국립공원화장실(야영장)","lat":35.498419,"lng":126.918082,"jibunAddr":"전북특별자치도 정읍시 내장동92-2","openHours":"정시","maleToilets":10,"femaleToilets":7,"disabled":false,"diaperTable":false,"emergencyBell":true,"cctv":false,"managerTel":"0635387882","source":"public","category":"public"},{"id":"202047710000100134","name":"추령주유소","lat":35.472756,"lng":126.926147,"roadAddr":"전북특별자치도 순창군 복흥면 추령로 1727","openHours":"24시간","maleToilets":1,"femaleToilets":1,"disabled":false,"diaperTable":false,"emergencyBell":false,"cctv":false,"source":"public","category":"public"},{"id":"202047710000100084","name":"추령장승촌","lat":35.478139,"lng":126.927822,"roadAddr":"전북특별자치도 순창군 복흥면 추령로 1792-12","jibunAddr":"전북특별자치도 순창군 복흥면 서마리 722-2","openHours":"24시간","maleToilets":3,"femaleToilets":4,"disabled":true,"diaperTable":false,"emergencyBell":false,"cctv":false,"managerTel":"0636501731","source":"public","category":"public"}]