[{"id":"202247710000100008","name":"출렁다리(1)","lat":35.412048,"lng":127.237875,"jibunAddr":"전북특별자치도 순창군 적성면 괴정리 1607","openHours":"연중","maleToilets":4,"femaleToilets":4,"disabled":false,"diaperTable":false,"emergencyBell":false,"cctv":true,"managerTel":"0636501731","source":"public","category":"public"},{"id":"202247710000100003","name":"체계산","lat":35.401179,"lng":127.223569,"roadAddr":"전북특별자치도 순창군 적성면 담순로 2172-33","jibunAddr":"전북특별자치도 순창군 적성면 괴정리 산 175-1","openHours":"연중","maleToilets":1,"femaleToilets":1,"disabled":false,"diaperTable":false,"emergencyBell":false,"cctv":true,"managerTel":"0636501731","source":"public","category":"public"},{"id":"202247710000100010","name":"출렁다리(3)","lat":35.41136,"lng":127.238084,"roadAddr":"전북특별자치도 순창군 적성면 마계길 1-5","jibunAddr":"전북특별자치도 순창군 적성면 괴정리 1610","openHours":"연중","maleToilets":4,"femaleToilets":4,"disabled":false,"diaperTable":false,"emergencyBell":false,"cctv":true,"managerTel":"0636501731","source":"public","category":"public"},{"id":"202047710000100167","name":"신 적성교","lat":35.413096,"lng":127.234357,"roadAddr":"전북특별자치도 순창군 적성면 괴정리","jibunAddr":"전북특별자치도 순창군 적성면 괴정리 380-2","openHours":"24시간","maleToilets":2,"femaleToilets":1,"disabled":false,"diaperTable":false,"emergencyBell":false,"cctv":false,"source":"public","category":"public"},{"id":"202247710000100011","name":"출렁다리(4)","lat":35.411539,"lng":127.23198,"jibunAddr":"전북특별자치도 순창군 적성면 괴정리 산 170-6","openHours":"연중","maleToilets":4,"femaleToilets":4,"disabled":false,"diaperTable":false,"emergencyBell":false,"cctv":true,"managerTel":"0636501731","source":"public","category":"public"},{"id":"202247710000100009","name":"출렁다리(2)","lat":35.410565,"lng":127.236706,"jibunAddr":"전북특별자치도 순창군 적성면 괴정리 1615-6","openHours":"연중","maleToilets":4,"femaleToilets":4,"disabled":false,"diaperTable":false,"emergencyBell":false,"cctv":true,"managerTel":"0636501731","source":"public","category":"public"}]