[{"id":"202247710000100006","name":"석현마을","lat":35.493815,"lng":126.994128,"jibunAddr":"전북특별자치도 순창군 쌍치면 금평리 963","openHours":"연중","maleToilets":1,"femaleToilets":1,"disabled":false,"diaperTable":false,"emergencyBell":false,"cctv":true,"managerTel":"0636501731","source":"public","category":"public"},{"id":"202047710000100082","name":"쌍치공용터미널","lat":35.499746,"lng":127.00014,"roadAddr":"전북특별자치도 순창군 쌍치면 쌍계로 6-7","jibunAddr":"전북특별자치도 순창군 쌍치면 쌍계리 447-7","openHours":"24시간","maleToilets":3,"femaleToilets":2,"disabled":false,"diaperTable":false,"emergencyBell":false,"cctv":false,"managerTel":"0636501731","source":"public","category":"public"},{"id":"202047710000100153","name":"시산양수장","lat":35.49095,"lng":126.979052,"roadAddr":"전북특별자치도 순창군 쌍치면 시산리","jibunAddr":"전북특별자치도 순창군 쌍치면 시산리 430-1","openHours":"24시간","maleToilets":2,"femaleToilets":1,"disabled":false,"diaperTable":false,"emergencyBell":false,"cctv":false,"source":"public","category":"public"},{"id":"202047710000100151","name":"대학보","lat":35.478067,"lng":126.971329,"roadAddr":"전북특별자치도 순창군 쌍치면 둔전리","jibunAddr":"전북특별자치도 순창군 쌍치면 둔전리 425","openHours":"24시간","maleToilets":1,"femaleToilets":1,"disabled":false,"diaperTable":false,"emergencyBell":false,"cctv":false,"source":"public","category":"public"},{"id":"202047710000100148","name":"쌍치 금평교","lat":35.491421,"lng":126.996443,"roadAddr":"전북특별자치도 순창군 쌍치면 금평리","jibunAddr":"전북특별자치도 순창군 쌍치면 금평리 325-1","openHours":"24시간","maleToilets":1,"femaleToilets":1,"disabled":false,"diaperTable":false,"emergencyBell":false,"cctv":false,"source":"public","category":"public"},{"id":"202047710000100150","name":"사기점마을","lat":35.46681,"lng":126.969493,"jibunAddr":"전북특별자치도 순창군 쌍치면 둔전리 15-1","openHours":"24시간","maleToilets":1,"femaleToilets":1,"disabled":false,"diaperTable":false,"emergencyBell":false,"cctv":false,"source":"public","category":"public"},{"id":"202247710000100017","name":"순창군 쌍치면 금정마을 화장실","lat":35.498015,"lng":126.990574,"jibunAddr":"전북특별자치도 순창군 쌍치면 금평리 916-1","openHours":"연중","maleToilets":2,"femaleToilets":1,"disabled":false,"diaperTable":false,"emergencyBell":false,"cctv":true,"source":"public","category":"public"},{"id":"202047710000100154","name":"쌍계1교","lat":35.504508,"lng":127.00052,"roadAddr":"전북특별자치도 순창군 쌍치면 쌍계리","jibunAddr":"전북특별자치도 순창군 쌍치면 쌍계리 364-6","openHours":"24시간","maleToilets":2,"femaleToilets":1,"disabled":false,"diaperTable":false,"emergencyBell":false,"cctv":false,"source":"public","category":"public"},{"id":"202047710000100081","name":"금정체육공원","lat":35.498044,"lng":126.991479,"roadAddr":"전북특별자치도 순창군 쌍치면 청정로 58-15","jibunAddr":"전북특별자치도 순창군 쌍치면 금평리 811-96","openHours":"24시간","maleToilets":9,"femaleToilets":3,"disabled":false,"diaperTable":false,"emergencyBell":false,"cctv":false,"managerTel":"0636501731","source":"public","category":"public"},{"id":"202047710000100152","name":"중안마을모정","lat":35.478067,"lng":126.971329,"roadAddr":"전북특별자치도 순창군 쌍치면 둔전리","jibunAddr":"전북특별자치도 순창군 쌍치면 중안리 210-2","openHours":"24시간","maleToilets":1,"femaleToilets":1,"disabled":false,"diaperTable":false,"emergencyBell":false,"cctv":false,"source":"public","category":"public"},{"id":"202047710000100149","name":"보평마을","lat":35.491421,"lng":126.996443,"roadAddr":"전북특별자치도 순창군 쌍치면 금평리","jibunAddr":"전북특별자치도 순창군 쌍치면 금평리 산 60-2","openHours":"24시간","maleToilets":1,"femaleToilets":1,"disabled":false,"diaperTable":false,"emergencyBell":false,"cctv":false,"source":"public","category":"public"}]