[{"id":"202047710000100074","name":"복흥재래시장","lat":35.431425,"lng":126.932909,"roadAddr":"전북특별자치도 순창군 복흥면 정산2길 2","jibunAddr":"전북특별자치도 순창군 복흥면 정산리 282-1","openHours":"24시간","maleToilets":7,"femaleToilets":5,"disabled":true,"diaperTable":false,"emergencyBell":false,"cctv":false,"managerTel":"0636505424","source":"public","category":"public"},{"id":"202047710000100083","name":"복흥면 체육공원","lat":35.42852,"lng":126.932748,"roadAddr":"전북특별자치도 순창군 복흥면 정산리 744-38","jibunAddr":"전북특별자치도 순창군 복흥면 정산리 744-38","openHours":"24시간","maleToilets":3,"femaleToilets":2,"disabled":false,"diaperTable":false,"emergencyBell":false,"cctv":false,"managerTel":"0636501731","source":"public","category":"public"},{"id":"202247710000100005","name":"복흥 버스정류장","lat":35.43094,"lng":126.931401,"roadAddr":"전북특별자치도 순창군 복흥면 정산로 6-6","jibunAddr":"전북특별자치도 순창군 복흥면 정산리 388-7","openHours":"연중","maleToilets":5,"femaleToilets":4,"disabled":false,"diaperTable":false,"emergencyBell":false,"cctv":true,"managerTel":"0636501731","source":"public","category":"public"},{"id":"202047710000100085","name":"복흥공용터미널","lat":35.43094,"lng":126.931401,"roadAddr":"전북특별자치도 순창군 복흥면 정산로 6-6","jibunAddr":"전북특별자치도 순창군 복흥면 정산리 388-7","openHours":"24시간","maleToilets":2,"femaleToilets":2,"disabled":false,"diaperTable":false,"emergencyBell":false,"cctv":false,"managerTel":"0636501731","source":"public","category":"public"},{"id":"202047710000100133","name":"정산주유소","lat":35.430095,"lng":126.930825,"roadAddr":"전북특별자치도 순창군 복흥면 추령로 1131 (정산리)","openHours":"상시","maleToilets":1,"femaleToilets":1,"disabled":false,"diaperTable":false,"emergencyBell":false,"cctv":false,"source":"public","category":"public"},{"id":"202047710000100132","name":"정산교","lat":35.423768,"lng":126.933637,"roadAddr":"전북특별자치도 순창군 복흥면 정산리","jibunAddr":"전북특별자치도 순창군 복흥면 정산리 963-1","openHours":"24시간","maleToilets":2,"femaleToilets":1,"disabled":false,"diaperTable":false,"emergencyBell":false,"cctv":false,"source":"public","category":"public"},{"id":"202047710000100128","name":"반월1교","lat":35.456738,"lng":126.933861,"roadAddr":"전북특별자치도 순창군 복흥면 동산리","jibunAddr":"전북특별자치도 순창군 복흥면 동산리 535-1","openHours":"24시간","maleToilets":0,"femaleToilets":1,"disabled":false,"diaperTable":false,"emergencyBell":false,"cctv":false,"source":"public","category":"public"},{"id":"202247710000100014","name":"정산체육공원","lat":35.42852,"lng":126.932748,"jibunAddr":"전북특별자치도 순창군 복흥면 정산리 744-38","openHours":"연중","maleToilets":4,"femaleToilets":4,"disabled":false,"diaperTable":false,"emergencyBell":false,"cctv":true,"managerTel":"0636501731","source":"public","category":"public"}]