[{"id":"202446910000100207","name":"정우우체국","lat":35.642438,"lng":126.876531,"roadAddr":"전북특별자치도 정읍시 정우면 정신로 584-1  (58-2)","jibunAddr":"전북특별자치도 정읍시 정우면 초강리58-2","openHours":"정시","maleToilets":1,"femaleToilets":0,"disabled":false,"diaperTable":false,"emergencyBell":false,"cctv":false,"managerTel":"0635379002","source":"public","category":"public"},{"id":"202446910000100243","name":"정우치안센터","lat":35.642948,"lng":126.876412,"roadAddr":"전북특별자치도 정읍시 정우면 정신로 592  (59-1)","jibunAddr":"전북특별자치도 정읍시 정우면 초강리59-1","openHours":"정시","maleToilets":31,"femaleToilets":8,"disabled":false,"diaperTable":false,"emergencyBell":false,"cctv":false,"managerTel":"0635379112","source":"public","category":"public"},{"id":"202446910000100174","name":"정우보건지소","lat":35.644982,"lng":126.876475,"roadAddr":"전북특별자치도 정읍시 정우면 정신로 614  (37-1)","jibunAddr":"전북특별자치도 정읍시 정우면 초강리37-1","openHours":"정시","maleToilets":3,"femaleToilets":0,"disabled":false,"diaperTable":false,"emergencyBell":true,"cctv":false,"managerTel":"0635396597","source":"public","category":"public"},{"id":"202446910000100013","name":"신태인 인조잔디 축구장1","lat":35.679598,"lng":126.888554,"roadAddr":"전북특별자치도 정읍시 정우면 정신로 1059","jibunAddr":"전북특별자치도 정읍시 정우면 대사리 1714","openHours":"상시","maleToilets":3,"femaleToilets":3,"disabled":true,"diaperTable":false,"emergencyBell":true,"cctv":false,"managerTel":"0635395442","source":"public","category":"public"},{"id":"202446910000100012","name":"신태인 인조잔디 축구장2","lat":35.67944,"lng":126.890475,"roadAddr":"전북특별자치도 정읍시 신태인읍 정신로 1056","jibunAddr":"전북특별자치도 정읍시 신태인읍 구석리 439-3 체","openHours":"상시","maleToilets":5,"femaleToilets":2,"disabled":false,"diaperTable":false,"emergencyBell":true,"cctv":false,"managerTel":"0635395442","source":"public","category":"public"},{"id":"202446910000100173","name":"회룡보건진료소","lat":35.659406,"lng":126.907592,"roadAddr":"전북특별자치도 정읍시 정우면 정우길 162 (119-12)","jibunAddr":"전북특별자치도 정읍시 정우면 회룡리119-12","openHours":"정시","maleToilets":3,"femaleToilets":1,"disabled":false,"diaperTable":false,"emergencyBell":true,"cctv":false,"managerTel":"0635396119","source":"public","category":"public"},{"id":"202446910000100180","name":"정우종합복지회관","lat":35.64463,"lng":126.876518,"roadAddr":"전북특별자치도 정읍시 정우면 정신로 610  (36)","jibunAddr":"전북특별자치도 정읍시 정우면 초강리36","openHours":"정시","maleToilets":5,"femaleToilets":2,"disabled":false,"diaperTable":false,"emergencyBell":true,"cctv":false,"managerTel":"0635378566","source":"public","category":"public"},{"id":"202446910000100181","name":"정우면사무소","lat":35.644727,"lng":126.875629,"roadAddr":"전북특별자치도 정읍시 정우면 정신로 609  (39-3)","jibunAddr":"전북특별자치도 정읍시 정우면 초강리39-3","openHours":"정시","maleToilets":7,"femaleToilets":3,"disabled":true,"diaperTable":false,"emergencyBell":true,"cctv":false,"managerTel":"0635397391","source":"public","category":"public"}]