[{"id":"202446910000100175","name":"영원보건지소","lat":35.654937,"lng":126.785259,"jibunAddr":"전북특별자치도 정읍시 영원면 은선리182-4","openHours":"0900-1800","maleToilets":2,"femaleToilets":1,"disabled":false,"diaperTable":false,"emergencyBell":true,"cctv":false,"managerTel":"0635396590","source":"public","category":"public"},{"id":"202446910000100039","name":"전봉준 고택","lat":35.670928,"lng":126.814561,"roadAddr":"전북특별자치도 정읍시 이평면 조소1길 20","jibunAddr":"전북특별자치도 정읍시 이평면 장내리 542-6","openHours":"상시","maleToilets":7,"femaleToilets":5,"disabled":true,"diaperTable":false,"emergencyBell":true,"cctv":false,"managerTel":"0635395184","source":"public","category":"public"},{"id":"202446910000100203","name":"영원우체국","lat":35.655314,"lng":126.785341,"roadAddr":"전북특별자치도 정읍시 영원면 영원로 1084-1  (182-5)","jibunAddr":"전북특별자치도 정읍시 영원면 은선리182-5","openHours":"0900-1600","maleToilets":2,"femaleToilets":0,"disabled":false,"diaperTable":false,"emergencyBell":false,"cctv":false,"managerTel":"0635357000","source":"public","category":"public"},{"id":"202446910000100178","name":"창동보건진료소","lat":35.659315,"lng":126.813589,"roadAddr":"전북특별자치도 정읍시 이평면 창골길 9-12  (200-2)","jibunAddr":"전북특별자치도 정읍시 이평면 창동리200-2","openHours":"0900-1800","maleToilets":2,"femaleToilets":1,"disabled":false,"diaperTable":false,"emergencyBell":true,"cctv":false,"managerTel":"0635341871","source":"public","category":"public"},{"id":"202446910000100188","name":"영원119안전센터","lat":35.65217,"lng":126.784203,"roadAddr":"전북특별자치도 정읍시 영원면 영원로 1048  (606-1)","jibunAddr":"전북특별자치도 정읍시 영원면 은선리606-1","openHours":"0900-1800","maleToilets":0,"femaleToilets":0,"disabled":false,"diaperTable":false,"emergencyBell":false,"cctv":false,"managerTel":"0635701275","source":"public","category":"public"},{"id":"202446910000100034","name":"백정기의사기념관","lat":35.652199,"lng":126.783239,"roadAddr":"전북특별자치도 정읍시 영원면 영원로 1049","jibunAddr":"전북특별자치도 정읍시 영원면 은선리 928","openHours":"09:00~18:00","maleToilets":6,"femaleToilets":5,"disabled":true,"diaperTable":false,"emergencyBell":true,"cctv":false,"managerTel":"0635395454","source":"public","category":"public"},{"id":"202446910000100184","name":"영원면사무소","lat":35.65481,"lng":126.785359,"roadAddr":"전북특별자치도 정읍시 영원면 영원로 1080-1","jibunAddr":"전북특별자치도 정읍시 영원면 은선리182-4","openHours":"0900-1800","maleToilets":12,"femaleToilets":8,"disabled":false,"diaperTable":false,"emergencyBell":true,"cctv":false,"managerTel":"0632397271","source":"public","category":"public"},{"id":"202446910000100003","name":"영원119안전센터 1층 화장실","lat":35.65217,"lng":126.784203,"roadAddr":"전북특별자치도 정읍시 영원면 영원로 1048, 정읍소방서영원지점","jibunAddr":"전북특별자치도 정읍시 영원면 은선리 606-1 정읍소방서영원지점","openHours":"0900-1800","maleToilets":3,"femaleToilets":0,"disabled":false,"diaperTable":false,"emergencyBell":false,"cctv":true,"managerTel":"0632701223","source":"public","category":"public"}]