[{"id":"202446910000100167","name":"장학보건진료소","lat":35.630205,"lng":126.913846,"roadAddr":"전북특별자치도 정읍시 북면 장학1길 52  (465-1)","jibunAddr":"전북특별자치도 정읍시 북면 장학리465-1","openHours":"정시","maleToilets":9,"femaleToilets":4,"disabled":false,"diaperTable":false,"emergencyBell":true,"cctv":false,"managerTel":"0635397091","source":"public","category":"public"},{"id":"202446910000100253","name":"북면치안센터","lat":35.607583,"lng":126.890948,"roadAddr":"전북특별자치도 정읍시 정읍북로 554","jibunAddr":"전북특별자치도 정읍시 북면 한교리72-7","openHours":"정시","maleToilets":2,"femaleToilets":1,"disabled":false,"diaperTable":false,"emergencyBell":false,"cctv":false,"managerTel":"0635350112","source":"public","category":"public"},{"id":"202446910000100166","name":"북면사무소","lat":35.608966,"lng":126.892457,"roadAddr":"전북특별자치도 정읍시 정읍북로 570","jibunAddr":"전북특별자치도 정읍시 북면 한교리67-4","openHours":"정시","maleToilets":2,"femaleToilets":1,"disabled":false,"diaperTable":false,"emergencyBell":true,"cctv":false,"managerTel":"0635397431","source":"public","category":"public"},{"id":"202446910000100209","name":"북면우체국","lat":35.605028,"lng":126.886131,"roadAddr":"전북특별자치도 정읍시 북면 정읍북로 502  (339-2)","jibunAddr":"전북특별자치도 정읍시 북면 한교리339-2","openHours":"정시","maleToilets":2,"femaleToilets":0,"disabled":false,"diaperTable":false,"emergencyBell":false,"cctv":false,"managerTel":"0635350402","source":"public","category":"public"},{"id":"202446910000100006","name":"국립종자원 전북지원 1층 화장실","lat":35.620832,"lng":126.895444,"roadAddr":"전북특별자치도 정읍시 정우면 정읍북로 723-19","jibunAddr":"전북특별자치도 정읍시 정우면 우산리 283-3","openHours":"정시","maleToilets":4,"femaleToilets":2,"disabled":false,"diaperTable":false,"emergencyBell":false,"cctv":true,"managerTel":"0635303623","source":"public","category":"public"},{"id":"202446910000100127","name":"전북특별자치도 정읍시농업기술센터","lat":35.622065,"lng":126.894991,"roadAddr":"전북특별자치도 정읍시 정우면 정읍남로 282","jibunAddr":"전북특별자치도 정읍시 정우면 우산리661","openHours":"정시","maleToilets":6,"femaleToilets":4,"disabled":false,"diaperTable":false,"emergencyBell":false,"cctv":false,"managerTel":"0635396141","source":"public","category":"public"},{"id":"202446910000100168","name":"북면보건지소","lat":35.608966,"lng":126.892457,"roadAddr":"전북특별자치도 정읍시 북면 정읍북로 570  (원한교 67-24)","jibunAddr":"전북특별자치도 정읍시 북면 한교리67-24","openHours":"정시","maleToilets":8,"femaleToilets":4,"disabled":false,"diaperTable":false,"emergencyBell":true,"cctv":false,"managerTel":"0635367801","source":"public","category":"public"}]