[{"id":"202347110000100004","name":"만경119안전센터1층","lat":35.853765,"lng":126.819359,"roadAddr":"전북특별자치도 김제시 만경읍 두릉길 49","jibunAddr":"전북특별자치도 김제시 만경읍 만경리 330-25","openHours":"상시","maleToilets":2,"femaleToilets":0,"disabled":true,"diaperTable":true,"emergencyBell":false,"cctv":false,"managerTel":"0635404223","source":"public","category":"public"},{"id":"202047110000100046","name":"만경읍사무소","lat":35.854154,"lng":126.820212,"roadAddr":"전북특별자치도 김제시 만경읍 두내산로 52 (만경리, 만경읍사무소)","openHours":"09:00~18:00","maleToilets":9,"femaleToilets":2,"disabled":true,"diaperTable":false,"emergencyBell":false,"cctv":true,"source":"public","category":"public"},{"id":"202047110000100047","name":"만경파출소","lat":35.854128,"lng":126.819372,"roadAddr":"전북특별자치도 김제시 만경읍 두내산로 53 (만경리)","openHours":"상시","maleToilets":2,"femaleToilets":1,"disabled":true,"diaperTable":false,"emergencyBell":false,"cctv":true,"source":"public","category":"public"},{"id":"202447110000100073","name":"금만농협주유소","lat":35.849531,"lng":126.816686,"roadAddr":"전북특별자치도 김제시 만경읍 만경로 780","jibunAddr":"전북특별자치도 김제시 만경읍 만경리 538-1","openHours":"상시","maleToilets":2,"femaleToilets":1,"disabled":false,"diaperTable":false,"emergencyBell":false,"cctv":false,"source":"public","category":"public"},{"id":"202447110000100021","name":"만경터미널","lat":35.852751,"lng":126.816197,"roadAddr":"전북특별자치도 김제시 만경읍 만경로 813","jibunAddr":"전북특별자치도 김제시 만경읍 만경리 476-3","openHours":"상시","maleToilets":2,"femaleToilets":1,"disabled":false,"diaperTable":false,"emergencyBell":false,"cctv":true,"source":"public","category":"public"},{"id":"202447110000100022","name":"능제근린공원","lat":35.852138,"lng":126.822036,"jibunAddr":"전북특별자치도 김제시 만경읍 만경리 216-4","openHours":"상시","maleToilets":4,"femaleToilets":3,"disabled":true,"diaperTable":false,"emergencyBell":true,"cctv":true,"source":"public","category":"public"},{"id":"202047110000100050","name":"김제시립도서관 만경분관","lat":35.849322,"lng":126.816911,"roadAddr":"전북특별자치도 김제시 만경읍 만경로 776 (만경리, 만경 도서관)","openHours":"09:00~22:00","maleToilets":5,"femaleToilets":3,"disabled":true,"diaperTable":false,"emergencyBell":false,"cctv":true,"source":"public","category":"public"},{"id":"202047110000100083","name":"성덕보건지소","lat":35.819982,"lng":126.806044,"roadAddr":"전북특별자치도 김제시 성덕면 석동1길 16 (석동리, 성덕보건소)","openHours":"09:00~18:00","maleToilets":4,"femaleToilets":2,"disabled":true,"diaperTable":false,"emergencyBell":false,"cctv":false,"source":"public","category":"public"},{"id":"202447110000100083","name":"삼복주유소","lat":35.840334,"lng":126.816175,"roadAddr":"전북특별자치도 김제시 성덕면 해학로 872","jibunAddr":"전북특별자치도 김제시 성덕면 묘라리 550-3","openHours":"상시","maleToilets":2,"femaleToilets":1,"disabled":false,"diaperTable":false,"emergencyBell":false,"cctv":false,"source":"public","category":"public"},{"id":"202047110000100045","name":"만경우체국","lat":35.853935,"lng":126.82019,"roadAddr":"전북특별자치도 김제시 만경읍 두내산로 48 (만경리, 만경우체국)","openHours":"09:00~18:00","maleToilets":2,"femaleToilets":1,"disabled":false,"diaperTable":false,"emergencyBell":false,"cctv":false,"source":"public","category":"public"},{"id":"202047110000100007","name":"동산근린공원","lat":35.85539,"lng":126.819614,"roadAddr":"전북특별자치도 김제시 만경읍 두내산로 56-27","jibunAddr":"전북특별자치도 김제시 만경읍 만경리 산 23-1","openHours":"상시","maleToilets":6,"femaleToilets":4,"disabled":true,"diaperTable":false,"emergencyBell":true,"cctv":true,"source":"public","category":"public"},{"id":"202047110000100085","name":"성덕면사무소","lat":35.820545,"lng":126.805847,"roadAddr":"전북특별자치도 김제시 성덕면 석동1길 23 (석동리, 성덕면사무소)","openHours":"09:00~18:00","maleToilets":4,"femaleToilets":2,"disabled":true,"diaperTable":false,"emergencyBell":false,"cctv":false,"source":"public","category":"public"},{"id":"202047110000100049","name":"만경 능제 농촌테마공원","lat":35.84618,"lng":126.816077,"roadAddr":"전북특별자치도 김제시 만경읍 만경로 750 (만경리)","openHours":"상시","maleToilets":5,"femaleToilets":4,"disabled":true,"diaperTable":false,"emergencyBell":false,"cctv":false,"source":"public","category":"public"},{"id":"202047110000100051","name":"만경보건지소","lat":35.850859,"lng":126.814854,"roadAddr":"전북특별자치도 김제시 만경읍 만경로 799-21 (만경리, 만경보건지소)","openHours":"09:00~18:00","maleToilets":6,"femaleToilets":4,"disabled":true,"diaperTable":false,"emergencyBell":false,"cctv":false,"source":"public","category":"public"},{"id":"202047110000100084","name":"성덕면 복지회관","lat":35.820246,"lng":126.805605,"roadAddr":"전북특별자치도 김제시 성덕면 석동1길 21 (석동리)","openHours":"09:00~18:00","maleToilets":4,"femaleToilets":2,"disabled":false,"diaperTable":false,"emergencyBell":false,"cctv":false,"source":"public","category":"public"},{"id":"202447110000100117","name":"삼거리주유소","lat":35.84225,"lng":126.815782,"roadAddr":"전북특별자치도 김제시 진봉면 만경로 697","jibunAddr":"전북특별자치도 김제시 진봉면 정당리 85-1","openHours":"상시","maleToilets":2,"femaleToilets":1,"disabled":false,"diaperTable":false,"emergencyBell":false,"cctv":false,"source":"public","category":"public"},{"id":"202447110000100077","name":"지평선주유소","lat":35.835141,"lng":126.810687,"roadAddr":"전북특별자치도 김제시 진봉면 해학로 791","jibunAddr":"전북특별자치도 김제시 진봉면 가실리 4-6","openHours":"상시","maleToilets":2,"femaleToilets":1,"disabled":false,"diaperTable":false,"emergencyBell":false,"cctv":false,"source":"public","category":"public"}]