[{"id":"202147210000100264","name":"백송주유소","lat":35.659143,"lng":127.110515,"roadAddr":"완주군 구이면 구이로 623","openHours":"상시","maleToilets":3,"femaleToilets":1,"disabled":false,"diaperTable":false,"emergencyBell":false,"cctv":false,"source":"public","category":"public"},{"id":"202447210000100108","name":"대덕교밑(간이화장실)","lat":35.666472,"lng":127.106233,"jibunAddr":"전북특별자치도 완주군 구이면 계곡리 670-1","openHours":"상시","maleToilets":2,"femaleToilets":1,"disabled":false,"diaperTable":false,"emergencyBell":false,"cctv":false,"source":"public","category":"public"},{"id":"202447210000100111","name":"오봉산 주차장","lat":35.648959,"lng":127.115263,"jibunAddr":"전북특별자치도 완주군 구이면 백여리 105","openHours":"상시","maleToilets":2,"femaleToilets":2,"disabled":false,"diaperTable":false,"emergencyBell":true,"cctv":false,"source":"public","category":"public"},{"id":"202447210000100109","name":"백여2교 밑(간이화장실)","lat":35.651721,"lng":127.106423,"roadAddr":"전북특별자치도 완주군 구이면 오봉산길 10","jibunAddr":"전북특별자치도 완주군 구이면 백여리 313-1","openHours":"상시","maleToilets":2,"femaleToilets":1,"disabled":false,"diaperTable":false,"emergencyBell":false,"cctv":false,"source":"public","category":"public"},{"id":"202147210000100246","name":"금호주유소","lat":35.66723,"lng":127.113282,"roadAddr":"완주군 구이면 구이로 731","openHours":"정시","maleToilets":5,"femaleToilets":0,"disabled":false,"diaperTable":false,"emergencyBell":false,"cctv":false,"source":"public","category":"public"}]