[{"id":"202547610000100106","name":"운암터미널","lat":35.659904,"lng":127.159239,"roadAddr":"전북특별자치도 임실군 운암면 쌍암리 826-3","jibunAddr":"전북특별자치도 임실군 운암면 쌍암리 826-3","openHours":"24시간","maleToilets":3,"femaleToilets":0,"disabled":false,"diaperTable":false,"emergencyBell":false,"cctv":false,"managerTel":"0636430123","source":"public","category":"public"},{"id":"202547610000100107","name":"운암면사무소","lat":35.660651,"lng":127.160467,"roadAddr":"전북특별자치도 임실군 운암면 임운로 1884","jibunAddr":"전북특별자치도 임실군 운암면 임운로 1884","openHours":"24시간","maleToilets":6,"femaleToilets":2,"disabled":true,"diaperTable":false,"emergencyBell":false,"cctv":false,"managerTel":"0636404085","source":"public","category":"public"},{"id":"202547610000100108","name":"운암면 복지관","lat":35.659018,"lng":127.161408,"roadAddr":"전북특별자치도 임실군 운암면 임운로 1861","jibunAddr":"전북특별자치도 임실군 운암면 임운로 1861","openHours":"24시간","maleToilets":3,"femaleToilets":2,"disabled":true,"diaperTable":false,"emergencyBell":false,"cctv":false,"managerTel":"0636404085","source":"public","category":"public"},{"id":"202547610000100155","name":"희망주유소","lat":35.67375,"lng":127.16145,"roadAddr":"전북특별자치도 임실군 신덕면 신덕평로 713","jibunAddr":"전북특별자치도 임실군 신덕면 신덕평로 713","openHours":"09시~21시","maleToilets":2,"femaleToilets":1,"disabled":false,"diaperTable":false,"emergencyBell":false,"cctv":false,"source":"public","category":"public"},{"id":"202547610000100059","name":"쌍암리주차장","lat":35.662635,"lng":127.155553,"roadAddr":"전북특별자치도 임실군 운암면 쌍암리 615-2","jibunAddr":"전북특별자치도 임실군 운암면 쌍암리 615-2","openHours":"24시간","maleToilets":3,"femaleToilets":3,"disabled":false,"diaperTable":false,"emergencyBell":false,"cctv":false,"managerTel":"0636404593","source":"public","category":"public"},{"id":"202547610000100134","name":"신덕면농업인상담소 및 북부농기계임대사업소","lat":35.680762,"lng":127.173226,"roadAddr":"전북특별자치도 임실군 신덕면 수지로 36","jibunAddr":"전북특별자치도 임실군 신덕면 수지로 36","openHours":"09:00~18:00","maleToilets":1,"femaleToilets":0,"disabled":true,"diaperTable":false,"emergencyBell":false,"cctv":false,"managerTel":"0636402807","source":"public","category":"public"},{"id":"202547610000100103","name":"양대박전승지","lat":35.640142,"lng":127.137965,"roadAddr":"전북특별자치도 임실군 운암면 국사봉로 512","jibunAddr":"전북특별자치도 임실군 운암면 국사봉로 512","openHours":"24시간","maleToilets":4,"femaleToilets":4,"disabled":true,"diaperTable":true,"emergencyBell":true,"cctv":false,"managerTel":"0636404085","source":"public","category":"public"},{"id":"202547610000100105","name":"국사봉 전망대","lat":35.63968,"lng":127.149632,"roadAddr":"전북특별자치도 임실군 운암면 국사봉로 653","jibunAddr":"전북특별자치도 임실군 운암면 국사봉로 653","openHours":"24시간","maleToilets":5,"femaleToilets":3,"disabled":true,"diaperTable":true,"emergencyBell":true,"cctv":false,"managerTel":"0636404085","source":"public","category":"public"},{"id":"202547610000100104","name":"국사봉 입구","lat":35.640435,"lng":127.147969,"roadAddr":"전북특별자치도 임실군 운암면 입석리 산 32-1","jibunAddr":"전북특별자치도 임실군 운암면 입석리 산 32-1","openHours":"24시간","maleToilets":5,"femaleToilets":3,"disabled":true,"diaperTable":false,"emergencyBell":false,"cctv":false,"managerTel":"0636404085","source":"public","category":"public"}]