[{"id":"202446910000100162","name":"옹동면사무소","lat":35.643468,"lng":126.974478,"roadAddr":"전북특별자치도 정읍시 옹동면 옹지동촌로 208  (171-14)","jibunAddr":"전북특별자치도 정읍시 옹동면 칠석리171-14","openHours":"정시","maleToilets":5,"femaleToilets":2,"disabled":false,"diaperTable":false,"emergencyBell":true,"cctv":false,"managerTel":"0635397521","source":"public","category":"public"},{"id":"202446910000100206","name":"옹동우체국","lat":35.644698,"lng":126.975329,"roadAddr":"전북특별자치도 정읍시 옹동면 옹지동촌로 224  (149-3)","jibunAddr":"전북특별자치도 정읍시 옹동면 칠석리149-3","openHours":"정시","maleToilets":2,"femaleToilets":0,"disabled":false,"diaperTable":false,"emergencyBell":false,"cctv":false,"managerTel":"0635378002","source":"public","category":"public"},{"id":"202446910000100108","name":"고천보건진료소","lat":35.667014,"lng":126.960446,"roadAddr":"전북특별자치도 정읍시 태인면 태인동서로 489  (92-9)","jibunAddr":"전북특별자치도 정읍시 태인면 고천리92-9","openHours":"정시","maleToilets":2,"femaleToilets":2,"disabled":false,"diaperTable":false,"emergencyBell":true,"cctv":false,"managerTel":"0635344880","source":"public","category":"public"},{"id":"202446910000100161","name":"옹동보건지소","lat":35.643183,"lng":126.974054,"roadAddr":"전북특별자치도 정읍시 옹동면 옹지동촌로 204  (2-4)","jibunAddr":"전북특별자치도 정읍시 옹동면 매정리2-4","openHours":"정시","maleToilets":2,"femaleToilets":1,"disabled":true,"diaperTable":false,"emergencyBell":true,"cctv":false,"managerTel":"0635396603","source":"public","category":"public"},{"id":"202446910000100073","name":"용호보건진료소","lat":35.675196,"lng":126.989807,"roadAddr":"전북특별자치도 정읍시 옹동면 용이길 56-9  (172-2)","jibunAddr":"전북특별자치도 정읍시 옹동면 용호리172-2","openHours":"정시","maleToilets":1,"femaleToilets":0,"disabled":false,"diaperTable":false,"emergencyBell":true,"cctv":false,"managerTel":"0635388368","source":"public","category":"public"}]