[{"id":"202547610000100056","name":"붕어섬2(방문자센터)","lat":35.633118,"lng":127.145731,"roadAddr":"전북특별자치도 임실군 운암면 용운1길 202-57","jibunAddr":"전북특별자치도 임실군 운암면 용운1길 202-57","openHours":"09:00~17:00","maleToilets":4,"femaleToilets":4,"disabled":true,"diaperTable":true,"emergencyBell":false,"cctv":false,"managerTel":"0636404593","source":"public","category":"public"},{"id":"202547610000100057","name":"붕어섬3(휴광장)","lat":35.635333,"lng":127.145523,"roadAddr":"전북특별자치도 임실군 운암면 입석리 697-1","jibunAddr":"전북특별자치도 임실군 운암면 입석리 697-1","openHours":"09:00~17:00","maleToilets":3,"femaleToilets":4,"disabled":true,"diaperTable":false,"emergencyBell":true,"cctv":false,"managerTel":"0636404593","source":"public","category":"public"},{"id":"202547610000100058","name":"요산공원","lat":35.631727,"lng":127.153162,"roadAddr":"전북특별자치도 임실군 운암면 입석리 490-3","jibunAddr":"전북특별자치도 임실군 운암면 입석리 490-3","openHours":"24시간","maleToilets":6,"femaleToilets":4,"disabled":true,"diaperTable":true,"emergencyBell":true,"cctv":false,"managerTel":"0636404593","source":"public","category":"public"},{"id":"202547610000100055","name":"붕어섬1(다리앞)","lat":35.632213,"lng":127.147157,"roadAddr":"전북특별자치도 임실군 운암면 입석리 산 74-6","jibunAddr":"전북특별자치도 임실군 운암면 입석리 산 74-6","openHours":"09:00~17:00","maleToilets":2,"femaleToilets":3,"disabled":true,"diaperTable":false,"emergencyBell":true,"cctv":false,"managerTel":"0636404593","source":"public","category":"public"},{"id":"202547610000100060","name":"출렁다리주차장","lat":35.639065,"lng":127.152556,"roadAddr":"전북특별자치도 임실군 운암면 입석리 309-3","jibunAddr":"전북특별자치도 임실군 운암면 입석리 309-3","openHours":"24시간","maleToilets":4,"femaleToilets":4,"disabled":true,"diaperTable":false,"emergencyBell":true,"cctv":false,"managerTel":"0636404593","source":"public","category":"public"}]