[{"id":"202547610000100149","name":"청웅터미널","lat":35.569209,"lng":127.20156,"roadAddr":"전북특별자치도 임실군 청웅면 청웅로 152","jibunAddr":"전북특별자치도 임실군 청웅면 청웅로 152","openHours":"05시~24시","maleToilets":1,"femaleToilets":1,"disabled":false,"diaperTable":false,"emergencyBell":true,"cctv":false,"source":"public","category":"public"},{"id":"202547610000100038","name":"청웅면 복지회관","lat":35.568769,"lng":127.200395,"roadAddr":"전북특별자치도 임실군 청웅면 청웅로 141","jibunAddr":"전북특별자치도 임실군 청웅면 청웅로 141","openHours":"09:00~18:00","maleToilets":4,"femaleToilets":2,"disabled":true,"diaperTable":true,"emergencyBell":true,"cctv":false,"managerTel":"0636404054","source":"public","category":"public"},{"id":"202547610000100037","name":"청웅면사무소","lat":35.569774,"lng":127.201292,"roadAddr":"전북특별자치도 임실군 청웅면 청웅로 153","jibunAddr":"전북특별자치도 임실군 청웅면 청웅로 153","openHours":"09:00~18:00","maleToilets":3,"femaleToilets":1,"disabled":true,"diaperTable":false,"emergencyBell":true,"cctv":false,"managerTel":"0636404054","source":"public","category":"public"},{"id":"202547610000100039","name":"용추공원 화장실","lat":35.581094,"lng":127.186504,"roadAddr":"전북특별자치도 임실군 청웅면 두복리 산86-7","jibunAddr":"전북특별자치도 임실군 청웅면 두복리 산86-7","openHours":"09:00~18:00","maleToilets":4,"femaleToilets":2,"disabled":true,"diaperTable":false,"emergencyBell":true,"cctv":false,"managerTel":"0636404054","source":"public","category":"public"},{"id":"202547610000100173","name":"임실농협주유소","lat":35.570086,"lng":127.202576,"roadAddr":"전북특별자치도 임실군 청웅면 구고6길 66","jibunAddr":"전북특별자치도 임실군 청웅면 구고6길 66","openHours":"09시~21시","maleToilets":1,"femaleToilets":0,"disabled":false,"diaperTable":false,"emergencyBell":false,"cctv":false,"source":"public","category":"public"},{"id":"202547610000100096","name":"청웅우체국","lat":35.570053,"lng":127.202307,"roadAddr":"전북특별자치도 임실군 청웅면 구고리 414-3","jibunAddr":"전북특별자치도 임실군 청웅면 구고리 414-3","openHours":"09:00~18:00","maleToilets":1,"femaleToilets":1,"disabled":false,"diaperTable":false,"emergencyBell":false,"cctv":false,"managerTel":"0636438000","source":"public","category":"public"},{"id":"202547610000100049","name":"전북특별자치도 종합사격장 화장실","lat":35.587008,"lng":127.192941,"roadAddr":"전북특별자치도 임실군 청웅면 청운로 168-46","jibunAddr":"전북특별자치도 임실군 청웅면 청운로 168-46","openHours":"09:00~17:00","maleToilets":8,"femaleToilets":3,"disabled":true,"diaperTable":false,"emergencyBell":false,"cctv":false,"managerTel":"0636430104","source":"public","category":"public"},{"id":"202547610000100126","name":"청웅면농업인상담소","lat":35.572774,"lng":127.203308,"roadAddr":"전북특별자치도 임실군 청웅면 구고리 554-3","jibunAddr":"전북특별자치도 임실군 청웅면 구고리 554-3","openHours":"09:00~18:00","maleToilets":0,"femaleToilets":0,"disabled":false,"diaperTable":false,"emergencyBell":false,"cctv":false,"managerTel":"0636402802","source":"public","category":"public"}]