[{"id":"202447210000100103","name":"신리역 공원","lat":35.77082,"lng":127.208255,"roadAddr":"전북특별자치도 완주군 상관면 신리로 104, 신리역","jibunAddr":"전북특별자치도 완주군 상관면 신리 509-5 신리역","openHours":"상시","maleToilets":3,"femaleToilets":2,"disabled":true,"diaperTable":true,"emergencyBell":false,"cctv":true,"source":"public","category":"public"},{"id":"202147210000100182","name":"상관생활체육공원","lat":35.764196,"lng":127.211865,"roadAddr":"완주군 상관면 신리 150","openHours":"24","maleToilets":3,"femaleToilets":4,"disabled":true,"diaperTable":false,"emergencyBell":true,"cctv":false,"source":"public","category":"public"},{"id":"202147210000100179","name":"완주상관우체국","lat":35.768048,"lng":127.210186,"roadAddr":"완주군 상관면 신리로 59","openHours":"9","maleToilets":1,"femaleToilets":1,"disabled":false,"diaperTable":false,"emergencyBell":false,"cctv":false,"source":"public","category":"public"},{"id":"202447210000100099","name":"상관편백숲 공영주차장","lat":35.741187,"lng":127.205675,"roadAddr":"전북특별자치도 완주군 상관면 죽림편백길 164-8","jibunAddr":"전북특별자치도 완주군 상관면 죽림리 633-1","openHours":"상시","maleToilets":2,"femaleToilets":3,"disabled":false,"diaperTable":false,"emergencyBell":false,"cctv":false,"source":"public","category":"public"},{"id":"202447210000100101","name":"상관편백숲 쉼터","lat":35.73749,"lng":127.202388,"roadAddr":"전북특별자치도 완주군 상관면 죽림편백길 191-24","jibunAddr":"전북특별자치도 완주군 상관면 죽림리 650","openHours":"상시","maleToilets":4,"femaleToilets":2,"disabled":true,"diaperTable":false,"emergencyBell":false,"cctv":false,"source":"public","category":"public"},{"id":"202147210000100223","name":"상관IC주유소","lat":35.758803,"lng":127.216157,"roadAddr":"완주군 상관면 춘향로 4585","openHours":"상시","maleToilets":2,"femaleToilets":1,"disabled":false,"diaperTable":false,"emergencyBell":false,"cctv":false,"source":"public","category":"public"},{"id":"202447210000100100","name":"상관 파크골프장 간이화장실","lat":35.769182,"lng":127.213208,"jibunAddr":"전북특별자치도 완주군 상관면 신리 291","openHours":"상시","maleToilets":2,"femaleToilets":1,"disabled":false,"diaperTable":false,"emergencyBell":false,"cctv":false,"source":"public","category":"public"},{"id":"202147210000100183","name":"(주)죽림온천주유소","lat":35.760648,"lng":127.215504,"roadAddr":"완주군 상관면 춘향로 4599","openHours":"상시","maleToilets":4,"femaleToilets":2,"disabled":false,"diaperTable":false,"emergencyBell":false,"cctv":false,"source":"public","category":"public"},{"id":"202447210000100102","name":"상관 파크골프장","lat":35.768632,"lng":127.213566,"jibunAddr":"전북특별자치도 완주군 상관면 신리 914-116","openHours":"상시","maleToilets":4,"femaleToilets":4,"disabled":true,"diaperTable":true,"emergencyBell":true,"cctv":false,"source":"public","category":"public"}]