[{"id":"202546410000100026","name":"오공공원","lat":35.832572,"lng":127.055709,"roadAddr":"전북특별자치도 전주시 덕진구 농생명로 296","jibunAddr":"전북특별자치도 전주시 덕진구 중동830","openHours":"상시","maleToilets":7,"femaleToilets":8,"disabled":true,"diaperTable":true,"emergencyBell":true,"cctv":false,"managerTel":"0632706319","source":"public","category":"public"},{"id":"202546410000100027","name":"중동공원","lat":35.833548,"lng":127.062141,"roadAddr":"전북특별자치도 전주시 덕진구 농생명로 357","jibunAddr":"전북특별자치도 전주시 덕진구 중동787-11","openHours":"상시","maleToilets":7,"femaleToilets":8,"disabled":true,"diaperTable":true,"emergencyBell":true,"cctv":false,"managerTel":"0632706319","source":"public","category":"public"},{"id":"202546410000100265","name":"효자공원봉안당","lat":35.824386,"lng":127.088977,"roadAddr":"전북특별자치도 전주시 완산구 콩쥐팥쥐로 1705-138","jibunAddr":"전북특별자치도 전주시 완산구 효자동3가 산170-1","openHours":"08:00-17:00","maleToilets":5,"femaleToilets":2,"disabled":false,"diaperTable":false,"emergencyBell":false,"cctv":false,"managerTel":"0632392691","source":"public","category":"public"},{"id":"202546410000100236","name":"경륜장","lat":35.818186,"lng":127.089157,"roadAddr":"전북특별자치도 전주시 완산구 백마산길 22-14","jibunAddr":"전북특별자치도 전주시완산구 효자동 3가 1310-1","openHours":"09:00-18:00","maleToilets":28,"femaleToilets":10,"disabled":false,"diaperTable":false,"emergencyBell":false,"cctv":false,"managerTel":"0632392602","source":"public","category":"public"},{"id":"202546410000100113","name":"전주혁신도시 복합문화센터 공중화장실","lat":35.841274,"lng":127.057304,"roadAddr":"전북특별자치도 전주시 덕진구 틀못1길20","jibunAddr":"전북특별자치도 전주시 덕진구 장동 1068-2","openHours":"09:00-18:00","maleToilets":14,"femaleToilets":13,"disabled":true,"diaperTable":true,"emergencyBell":true,"cctv":true,"managerTel":"0632301868","source":"public","category":"public"},{"id":"202546410000100025","name":"엽순공원(2)","lat":35.84232,"lng":127.061236,"roadAddr":"전북특별자치도 전주시 덕진구 틀못2길29","jibunAddr":"전북특별자치도 전주시 덕진구 장동1073","openHours":"상시","maleToilets":2,"femaleToilets":2,"disabled":true,"diaperTable":true,"emergencyBell":true,"cctv":false,"managerTel":"0632706319","source":"public","category":"public"},{"id":"202546410000100018","name":"수질복원센터","lat":35.846435,"lng":127.063078,"roadAddr":"전북특별자치도 전주시 덕진구 중동로 150","jibunAddr":"전북특별자치도 전주시 덕진구 장동1110","openHours":"상시","maleToilets":5,"femaleToilets":5,"disabled":true,"diaperTable":false,"emergencyBell":true,"cctv":false,"managerTel":"0632706319","source":"public","category":"public"},{"id":"202546410000100216","name":"혁신동주민센터 화장실","lat":35.83894,"lng":127.062761,"roadAddr":"전북특별자치도 전주시 덕진구 기지로 95","jibunAddr":"전북특별자치도 전주시 덕진구 장동 1114","openHours":"09:00-18:00","maleToilets":12,"femaleToilets":12,"disabled":true,"diaperTable":true,"emergencyBell":true,"cctv":false,"managerTel":"0632706616","source":"public","category":"public"},{"id":"202546410000100024","name":"엽순공원(1)","lat":35.84232,"lng":127.061236,"roadAddr":"전북특별자치도 전주시 덕진구 틀못2길29","jibunAddr":"전북특별자치도 전주시 덕진구 장동1073","openHours":"상시","maleToilets":7,"femaleToilets":8,"disabled":true,"diaperTable":true,"emergencyBell":true,"cctv":false,"managerTel":"0632706319","source":"public","category":"public"},{"id":"202546410000100260","name":"전주혁신도시 라온체육센터 화장실","lat":35.836817,"lng":127.061043,"roadAddr":"전북특별자치도 전주시 덕진구 오공로 43-6","jibunAddr":"전북특별자치도 전주시 덕진구 중동 852","openHours":"06:00-21:30","maleToilets":6,"femaleToilets":7,"disabled":true,"diaperTable":false,"emergencyBell":true,"cctv":true,"managerTel":"0632392775","source":"public","category":"public"},{"id":"202546410000100022","name":"만성1호공원","lat":35.841481,"lng":127.074052,"roadAddr":"전북특별자치도 전주시 덕진구 만성로 105-12 (만성동)","jibunAddr":"전북특별자치도 전주시 덕진구 만성동1266-7","openHours":"상시","maleToilets":5,"femaleToilets":8,"disabled":true,"diaperTable":true,"emergencyBell":true,"cctv":false,"managerTel":"0632706319","source":"public","category":"public"},{"id":"202546410000100017","name":"기지제수변공원","lat":35.838789,"lng":127.065002,"roadAddr":"전북특별자치도 전주시 덕진구 기지로 115","jibunAddr":"전북특별자치도 전주시 덕진구 장동1094","openHours":"상시","maleToilets":8,"femaleToilets":8,"disabled":true,"diaperTable":true,"emergencyBell":true,"cctv":false,"managerTel":"0632706319","source":"public","category":"public"},{"id":"202546410000100019","name":"만성수변공원","lat":35.842154,"lng":127.06973,"roadAddr":"전북특별자치도 전주시 덕진구 만성서로 37","jibunAddr":"전북특별자치도 전주시 덕진구 만성동1267-2","openHours":"상시","maleToilets":4,"femaleToilets":8,"disabled":true,"diaperTable":true,"emergencyBell":true,"cctv":false,"managerTel":"0632706319","source":"public","category":"public"},{"id":"202546410000100264","name":"효자공원봉안원","lat":35.824386,"lng":127.088977,"roadAddr":"전북특별자치도 전주시 완산구 콩쥐팥쥐로 1705-138","jibunAddr":"전북특별자치도 전주시 완산구 효자동3가 995-1","openHours":"상시","maleToilets":3,"femaleToilets":2,"disabled":false,"diaperTable":false,"emergencyBell":false,"cctv":false,"managerTel":"0632392691","source":"public","category":"public"},{"id":"202546410000100023","name":"만성문화공원","lat":35.848858,"lng":127.079645,"roadAddr":"전북특별자치도 전주시 덕진구 만성북로41","jibunAddr":"전북특별자치도 전주시 덕진구 만성동1339-18","openHours":"상시","maleToilets":5,"femaleToilets":7,"disabled":true,"diaperTable":false,"emergencyBell":true,"cctv":false,"managerTel":"0632706319","source":"public","category":"public"},{"id":"202546410000100156","name":"농업기술센터 농업기술과 화장실","lat":35.850363,"lng":127.06021,"roadAddr":"전북특별자치도 전주시 덕진구 원장동길 111-17","jibunAddr":"전북특별자치도 전주시 덕진구 장동 452-32","openHours":"09:00-18:00","maleToilets":4,"femaleToilets":2,"disabled":true,"diaperTable":false,"emergencyBell":false,"cctv":false,"managerTel":"0632816705","source":"public","category":"public"},{"id":"202546410000100011","name":"팔복공원","lat":35.851468,"lng":127.087016,"roadAddr":"전북특별자치도 전주시 덕진구 서귀로 107","jibunAddr":"전북특별자치도 전주시 덕진구 팔복동3가404","openHours":"상시","maleToilets":4,"femaleToilets":2,"disabled":true,"diaperTable":true,"emergencyBell":true,"cctv":false,"managerTel":"0632706319","source":"public","category":"public"},{"id":"202546410000100263","name":"전주 승화원","lat":35.824386,"lng":127.088977,"roadAddr":"전북특별자치도 전주시 완산구 콩쥐팥쥐로 1705-138","jibunAddr":"전북특별자치도 전주시 완산구 효자동3가 산170-1","openHours":"08:00-17:00","maleToilets":2,"femaleToilets":1,"disabled":false,"diaperTable":false,"emergencyBell":false,"cctv":false,"managerTel":"0632392691","source":"public","category":"public"},{"id":"202447210000100142","name":"국립축산과학원 화장실","lat":35.816603,"lng":127.059811,"roadAddr":"전북특별자치도 완주군 이서면 콩쥐팥쥐로 1500, 국립축산과학원","jibunAddr":"전북특별자치도 완주군 이서면 금평리 산 145-5 국립축산과학원","openHours":"09:00~18:00","maleToilets":50,"femaleToilets":40,"disabled":true,"diaperTable":false,"emergencyBell":false,"cctv":false,"source":"public","category":"public"},{"id":"202447210000100077","name":"소리공원","lat":35.836244,"lng":127.054978,"jibunAddr":"전북특별자치도 완주군 이서면 갈산리 648","openHours":"상시","maleToilets":4,"femaleToilets":9,"disabled":true,"diaperTable":false,"emergencyBell":true,"cctv":true,"source":"public","category":"public"},{"id":"202447210000100140","name":"국립식량과학원 화장실","lat":35.836147,"lng":127.046652,"roadAddr":"전북특별자치도 완주군 이서면 혁신로 181, 국립식량과학원","jibunAddr":"전북특별자치도 완주군 이서면 갈산리 73 국립식량과학원","openHours":"09:00~18:00","maleToilets":40,"femaleToilets":40,"disabled":true,"diaperTable":false,"emergencyBell":false,"cctv":false,"source":"public","category":"public"},{"id":"202447210000100061","name":"콩쥐팥쥐도서관","lat":35.836448,"lng":127.056168,"roadAddr":"전북특별자치도 완주군 이서면 갈산로 40","jibunAddr":"전북특별자치도 완주군 이서면 갈산리 691-3","openHours":"09:00~18:00","maleToilets":6,"femaleToilets":4,"disabled":true,"diaperTable":true,"emergencyBell":true,"cctv":true,"source":"public","category":"public"}]