[{"id":"202454400000100509","name":"목통마을 내","lat":35.274139,"lng":127.613194,"roadAddr":"경상남도 하동군 화개면 목통길 77","jibunAddr":"경상남도 하동군 화개면 범왕리 1536","openHours":"09:00~18:00","maleToilets":2,"femaleToilets":2,"disabled":false,"diaperTable":false,"emergencyBell":false,"cctv":false,"source":"public","category":"public"},{"id":"202454400000100510","name":"물레방아","lat":35.273991,"lng":127.610941,"jibunAddr":"경상남도 하동군 화개면 범왕리 1573","openHours":"09:00~18:00","maleToilets":3,"femaleToilets":3,"disabled":false,"diaperTable":false,"emergencyBell":false,"cctv":false,"source":"public","category":"public"},{"id":"202454400000100506","name":"칠불사다리 밑","lat":35.283583,"lng":127.615918,"jibunAddr":"경상남도 하동군 화개면 범왕리 1017","openHours":"09:00~18:00","maleToilets":2,"femaleToilets":1,"disabled":false,"diaperTable":false,"emergencyBell":false,"cctv":false,"source":"public","category":"public"},{"id":"202458400000100038","name":"연곡사","lat":35.2546,"lng":127.589152,"roadAddr":"전남광주통합특별시 구례군 토지면 피아골로 774 (내동리)","openHours":"(평일)09:00~18:00+(주말)09:00~18:00","maleToilets":7,"femaleToilets":6,"disabled":false,"diaperTable":false,"emergencyBell":false,"cctv":false,"source":"public","category":"public"},{"id":"202458400000100027","name":"피아골 단풍공원","lat":35.245578,"lng":127.590106,"roadAddr":"전남광주통합특별시 구례군 토지면 남산길 13 (내동리)","openHours":"상시","maleToilets":9,"femaleToilets":6,"disabled":true,"diaperTable":false,"emergencyBell":false,"cctv":false,"source":"public","category":"public"},{"id":"202458400000100138","name":"천왕봉산장앞","lat":35.264702,"lng":127.583616,"roadAddr":"전남광주통합특별시 구례군 토지면 직전길 9 (내동리)","openHours":"상시","maleToilets":7,"femaleToilets":5,"disabled":false,"diaperTable":false,"emergencyBell":true,"cctv":false,"source":"public","category":"public"},{"id":"202458400000100144","name":"내동보건진료소","lat":35.246343,"lng":127.591728,"roadAddr":"전남광주통합특별시 구례군 토지면 피아골로 665 (내동리, 내동보건진료소)","openHours":"(평일)09:00~18:00+(주말)09:00~18:00","maleToilets":1,"femaleToilets":1,"disabled":false,"diaperTable":false,"emergencyBell":false,"cctv":false,"source":"public","category":"public"},{"id":"202458400000100146","name":"피아골 탐방지원센터","lat":35.250788,"lng":127.592255,"roadAddr":"전남광주통합특별시 구례군 토지면 피아골로 720","openHours":"(평일)09:00~18:00+(주말)09:00~18:00","maleToilets":7,"femaleToilets":8,"disabled":true,"diaperTable":false,"emergencyBell":false,"cctv":false,"source":"public","category":"public"},{"id":"202458400000100147","name":"피아골계곡","lat":35.251344,"lng":127.592058,"roadAddr":"전남광주통합특별시 구례군 토지면 피아골로 726","openHours":"상시","maleToilets":1,"femaleToilets":1,"disabled":false,"diaperTable":false,"emergencyBell":false,"cctv":false,"source":"public","category":"public"}]