[{"id":"202347010000100062","name":"황산대첩비지","lat":35.456535,"lng":127.561478,"roadAddr":"전북특별자치도 남원시 운봉읍 가산화수길 71","jibunAddr":"전북특별자치도 남원시 운봉읍 화수리 164번지 8호","openHours":"24시간","maleToilets":7,"femaleToilets":5,"disabled":true,"diaperTable":false,"emergencyBell":true,"cctv":false,"managerTel":"0636206838","source":"public","category":"public"},{"id":"202347010000100036","name":"허브밸리(축제장)","lat":35.434878,"lng":127.547019,"roadAddr":"전북특별자치도 남원시 운봉읍 바래봉길 217","jibunAddr":"전북특별자치도 남원시 운봉읍 용산리 266번지 13호","openHours":"9시간","maleToilets":9,"femaleToilets":10,"disabled":true,"diaperTable":false,"emergencyBell":true,"cctv":false,"managerTel":"0636204895","source":"public","category":"public"},{"id":"202347010000100037","name":"허브밸리(주차장 산형)","lat":35.433038,"lng":127.546214,"roadAddr":"전북특별자치도 남원시 운봉읍 바래봉길 175","jibunAddr":"전북특별자치도 남원시 운봉읍 용산리 268번지 6호","openHours":"9시간","maleToilets":7,"femaleToilets":14,"disabled":true,"diaperTable":true,"emergencyBell":true,"cctv":false,"managerTel":"0636204895","source":"public","category":"public"},{"id":"202347010000100039","name":"허브밸리(주차장 돔형)","lat":35.433298,"lng":127.54512,"roadAddr":"전북특별자치도 남원시 운봉읍 바래봉길 165","jibunAddr":"전북특별자치도 남원시 운봉읍 용산리 271번지 2호","openHours":"24시간","maleToilets":8,"femaleToilets":14,"disabled":true,"diaperTable":true,"emergencyBell":true,"cctv":false,"managerTel":"0636204895","source":"public","category":"public"},{"id":"202347010000100045","name":"산덕마을회관옆","lat":35.42363,"lng":127.538948,"roadAddr":"전북특별자치도 남원시 운봉읍 산덕길 17-9","jibunAddr":"전북특별자치도 남원시 운봉읍 산덕리 443번지 2호","openHours":"24시간","maleToilets":2,"femaleToilets":2,"disabled":false,"diaperTable":false,"emergencyBell":true,"cctv":false,"managerTel":"0636203814","source":"public","category":"public"},{"id":"202347010000100041","name":"허브밸리(원형광장)","lat":35.433535,"lng":127.548624,"roadAddr":"전북특별자치도 남원시 운봉읍 바래봉길 210-14","jibunAddr":"전북특별자치도 남원시 운봉읍 용산리 393번지 6호","openHours":"9시간","maleToilets":11,"femaleToilets":7,"disabled":true,"diaperTable":true,"emergencyBell":true,"cctv":false,"managerTel":"0636204895","source":"public","category":"public"},{"id":"202347010000100040","name":"허브밸리(전망대)","lat":35.433807,"lng":127.554572,"roadAddr":"전북특별자치도 남원시 운봉읍 바래봉길 210-67","jibunAddr":"전북특별자치도 남원시 운봉읍 용산리 442번지 5호","openHours":"9시간","maleToilets":4,"femaleToilets":3,"disabled":true,"diaperTable":false,"emergencyBell":true,"cctv":false,"managerTel":"0636204895","source":"public","category":"public"},{"id":"202347010000100038","name":"허브밸리(주차장 버스)","lat":35.433888,"lng":127.544282,"roadAddr":"전북특별자치도 남원시 운봉읍 바래봉길 247-31","jibunAddr":"전북특별자치도 남원시 운봉읍 용산리 721번지 13호","openHours":"9시간","maleToilets":7,"femaleToilets":5,"disabled":false,"diaperTable":false,"emergencyBell":true,"cctv":false,"managerTel":"0636204895","source":"public","category":"public"},{"id":"202347010000100042","name":"허브밸리(암석원)","lat":35.434232,"lng":127.550962,"roadAddr":"전북특별자치도 남원시 운봉읍 바래봉길 210-35","jibunAddr":"전북특별자치도 남원시 운봉읍 용산리 442번지 6호","openHours":"9시간","maleToilets":4,"femaleToilets":3,"disabled":true,"diaperTable":false,"emergencyBell":false,"cctv":false,"managerTel":"0636204895","source":"public","category":"public"}]