[{"id":"202454400000100451","name":"석문광장","lat":35.230047,"lng":127.643879,"jibunAddr":"경상남도 하동군 화개면 운수리 330-1","openHours":"09:00~18:00","maleToilets":9,"femaleToilets":5,"disabled":false,"diaperTable":false,"emergencyBell":true,"cctv":true,"source":"public","category":"public"},{"id":"202454400000100529","name":"가탄교 위","lat":35.202892,"lng":127.639474,"jibunAddr":"경상남도 하동군 화개면 탑리 145-6","openHours":"09:00~18:00","maleToilets":2,"femaleToilets":1,"disabled":false,"diaperTable":false,"emergencyBell":false,"cctv":false,"source":"public","category":"public"},{"id":"202454400000100517","name":"정금교 옆","lat":35.212802,"lng":127.638185,"jibunAddr":"경상남도 하동군 화개면 삼신리 133","openHours":"09:00~18:00","maleToilets":2,"femaleToilets":2,"disabled":false,"diaperTable":false,"emergencyBell":false,"cctv":false,"source":"public","category":"public"},{"id":"202454400000100520","name":"신촌교","lat":35.222826,"lng":127.639179,"jibunAddr":"경상남도 하동군 화개면 삼신리 산19-1","openHours":"09:00~18:00","maleToilets":2,"femaleToilets":2,"disabled":false,"diaperTable":false,"emergencyBell":false,"cctv":false,"source":"public","category":"public"},{"id":"202454400000100516","name":"다우찻집(망운대)","lat":35.217955,"lng":127.638325,"jibunAddr":"경상남도 하동군 화개면 삼신리 103-2","openHours":"09:00~18:00","maleToilets":2,"femaleToilets":2,"disabled":false,"diaperTable":false,"emergencyBell":false,"cctv":false,"source":"public","category":"public"},{"id":"202454400000100445","name":"차문화센터2","lat":35.227292,"lng":127.642918,"roadAddr":"경상남도 하동군 화개면 쌍계로 571-25","jibunAddr":"경상남도 하동군 화개면 운수리 664","openHours":"09:00~18:00","maleToilets":5,"femaleToilets":3,"disabled":false,"diaperTable":false,"emergencyBell":false,"cctv":false,"source":"public","category":"public"},{"id":"202454400000100507","name":"늘봄장앞","lat":35.207229,"lng":127.63338,"jibunAddr":"경상남도 하동군 화개면 삼신리 166-6","openHours":"09:00~18:00","maleToilets":2,"femaleToilets":1,"disabled":false,"diaperTable":false,"emergencyBell":false,"cctv":false,"source":"public","category":"public"},{"id":"202454400000100519","name":"약수장","lat":35.204975,"lng":127.631206,"jibunAddr":"경상남도 하동군 화개면 삼신리 500-1","openHours":"09:00~18:00","maleToilets":2,"femaleToilets":1,"disabled":false,"diaperTable":false,"emergencyBell":false,"cctv":false,"source":"public","category":"public"},{"id":"202454400000100521","name":"소년바구","lat":35.240587,"lng":127.642096,"roadAddr":"경상남도 하동군 화개면 화개로 648","jibunAddr":"경상남도 하동군 화개면 용강리 190-2","openHours":"09:00~18:00","maleToilets":2,"femaleToilets":1,"disabled":false,"diaperTable":false,"emergencyBell":false,"cctv":false,"source":"public","category":"public"},{"id":"202454400000100524","name":"신촌교 밑","lat":35.221915,"lng":127.639753,"jibunAddr":"경상남도 하동군 화개면 운수리 589","openHours":"09:00~18:00","maleToilets":0,"femaleToilets":0,"disabled":false,"diaperTable":false,"emergencyBell":false,"cctv":false,"source":"public","category":"public"},{"id":"202454400000100444","name":"차문화센터1","lat":35.227292,"lng":127.642918,"roadAddr":"경상남도 하동군 화개면 쌍계로 571-25","jibunAddr":"경상남도 하동군 화개면 운수리 664","openHours":"09:00~18:00","maleToilets":4,"femaleToilets":4,"disabled":false,"diaperTable":false,"emergencyBell":false,"cctv":false,"source":"public","category":"public"},{"id":"202454400000100526","name":"가탄교 입구","lat":35.201851,"lng":127.631567,"jibunAddr":"경상남도 하동군 화개면 삼신리 992","openHours":"09:00~18:00","maleToilets":2,"femaleToilets":2,"disabled":false,"diaperTable":false,"emergencyBell":false,"cctv":false,"source":"public","category":"public"},{"id":"202454400000100518","name":"도심다원","lat":35.227419,"lng":127.641326,"jibunAddr":"경상남도 하동군 화개면 삼신리 49-5","openHours":"09:00~18:00","maleToilets":2,"femaleToilets":1,"disabled":false,"diaperTable":false,"emergencyBell":false,"cctv":false,"source":"public","category":"public"},{"id":"202454400000100527","name":"정금마을 차밭 앞","lat":35.214988,"lng":127.640481,"jibunAddr":"경상남도 하동군 화개면 정금리 1205-5","openHours":"09:00~18:00","maleToilets":2,"femaleToilets":2,"disabled":false,"diaperTable":false,"emergencyBell":false,"cctv":false,"source":"public","category":"public"}]