[{"id":"202554600000100193","name":"서주강변","lat":35.46314,"lng":127.787166,"roadAddr":"경상남도 함양군 유림면 천왕봉로 2812","jibunAddr":"경상남도 함양군 유림면 서주리 9-8","openHours":"상시","maleToilets":3,"femaleToilets":3,"disabled":true,"diaperTable":false,"emergencyBell":true,"cctv":false,"source":"public","category":"public"},{"id":"202554600000100161","name":"동호솔숲","lat":35.439853,"lng":127.771685,"roadAddr":"경상남도 함양군 휴천면 천왕봉로 2474-51","jibunAddr":"경상남도 함양군 휴천면 남호리 211","openHours":"상시","maleToilets":3,"femaleToilets":3,"disabled":true,"diaperTable":false,"emergencyBell":true,"cctv":true,"source":"public","category":"public"},{"id":"202554600000100219","name":"원기마을","lat":35.43858,"lng":127.762088,"roadAddr":"경상남도 함양군 휴천면 천왕봉로 2398","jibunAddr":"경상남도 함양군 휴천면 남호리 405-6","openHours":"상시","maleToilets":2,"femaleToilets":2,"disabled":true,"diaperTable":false,"emergencyBell":true,"cctv":false,"source":"public","category":"public"},{"id":"202554600000100235","name":"지곡유원지","lat":35.445725,"lng":127.784848,"roadAddr":"경상남도 함양군 유림면 유림지곡길 77","jibunAddr":"경상남도 함양군 유림면 손곡리 120-2","openHours":"상시","maleToilets":4,"femaleToilets":3,"disabled":false,"diaperTable":false,"emergencyBell":false,"cctv":false,"source":"public","category":"public"},{"id":"202554600000100270","name":"휴천주유소","lat":35.439723,"lng":127.766761,"roadAddr":"경상남도 함양군 휴천면 천왕봉로 2445","jibunAddr":"경상남도 함양군 휴천면 남호리 267-1","openHours":"정시","maleToilets":4,"femaleToilets":2,"disabled":false,"diaperTable":false,"emergencyBell":false,"cctv":false,"source":"public","category":"public"},{"id":"202554600000100231","name":"점촌마을","lat":35.435152,"lng":127.778538,"roadAddr":"경상남도 함양군 휴천면 화계오봉로 435","jibunAddr":"경상남도 함양군 휴천면 동강리 56-6","openHours":"상시","maleToilets":3,"femaleToilets":3,"disabled":true,"diaperTable":true,"emergencyBell":true,"cctv":false,"source":"public","category":"public"},{"id":"202554600000100159","name":"동강마을","lat":35.436651,"lng":127.76389,"roadAddr":"경상남도 함양군 휴천면 동강길 22","jibunAddr":"경상남도 함양군 휴천면 동강리 463-7","openHours":"상시","maleToilets":3,"femaleToilets":3,"disabled":true,"diaperTable":false,"emergencyBell":true,"cctv":false,"source":"public","category":"public"}]