[{"id":"202547610000100138","name":"임실치즈테마파크2","lat":35.633126,"lng":127.301225,"roadAddr":"전북특별자치도 임실군 성수면 도인2길 50","jibunAddr":"전북특별자치도 임실군 성수면 도인2길 50","openHours":"24시간","maleToilets":12,"femaleToilets":10,"disabled":true,"diaperTable":false,"emergencyBell":true,"cctv":true,"managerTel":"0636439541","source":"public","category":"public"},{"id":"202547610000100041","name":"임실교육지원청 화장실","lat":35.620463,"lng":127.286449,"roadAddr":"전북특별자치도 임실군 임실읍 봉황로 247","jibunAddr":"전북특별자치도 임실군 임실읍 봉황로 247","openHours":"09:00~18:00","maleToilets":5,"femaleToilets":2,"disabled":true,"diaperTable":false,"emergencyBell":false,"cctv":false,"managerTel":"0636403543","source":"public","category":"public"},{"id":"202547610000100146","name":"임실시장","lat":35.614419,"lng":127.282655,"roadAddr":"전북특별자치도 임실군 임실읍 운수로 26","jibunAddr":"전북특별자치도 임실군 임실읍 운수로 26","openHours":"상시","maleToilets":6,"femaleToilets":3,"disabled":true,"diaperTable":false,"emergencyBell":true,"cctv":false,"managerTel":"0636402404","source":"public","category":"public"},{"id":"202547610000100150","name":"임실버스터미널","lat":35.615003,"lng":127.282777,"roadAddr":"전북특별자치도 임실군 임실읍 운수로 20","jibunAddr":"전북특별자치도 임실군 임실읍 운수로 20","openHours":"05시~24시","maleToilets":6,"femaleToilets":4,"disabled":false,"diaperTable":false,"emergencyBell":true,"cctv":false,"source":"public","category":"public"},{"id":"202547610000100015","name":"시설사업소탁구장외부화장실","lat":35.60983,"lng":127.282671,"roadAddr":"전북특별자치도 임실군 임실읍 호국로1640","jibunAddr":"전북특별자치도 임실군 임실읍 호국로1640","openHours":"06:00~24:00","maleToilets":8,"femaleToilets":4,"disabled":true,"diaperTable":false,"emergencyBell":false,"cctv":true,"managerTel":"0636402901","source":"public","category":"public"},{"id":"202547610000100018","name":"임실군민회관 화장실","lat":35.615015,"lng":127.28718,"roadAddr":"전북특별자치도 임실군 임실읍 호국로 1703","jibunAddr":"전북특별자치도 임실군 임실읍 호국로 1703","openHours":"평일 08:00~22:00, 토요일 08:00~22:00,","maleToilets":24,"femaleToilets":10,"disabled":true,"diaperTable":false,"emergencyBell":false,"cctv":true,"managerTel":"0636402912","source":"public","category":"public"},{"id":"202547610000100020","name":"전북특별자치도교육청임실도서관 화장실","lat":35.614102,"lng":127.278576,"roadAddr":"전북특별자치도 임실군 임실읍 봉황로 145","jibunAddr":"전북특별자치도 임실군 임실읍 봉황로 145","openHours":"(평일)09:00~21:00+(토요일)09:00~18:00","maleToilets":7,"femaleToilets":4,"disabled":true,"diaperTable":false,"emergencyBell":false,"cctv":false,"managerTel":"0636433525","source":"public","category":"public"},{"id":"202547610000100045","name":"임실군청소년문화의 집 지하","lat":35.614272,"lng":127.28647,"roadAddr":"전북특별자치도 임실군 임실읍 운수로 33-50","jibunAddr":"전북특별자치도 임실군 임실읍 운수로 33-50","openHours":"09:00~21:00","maleToilets":2,"femaleToilets":2,"disabled":true,"diaperTable":false,"emergencyBell":true,"cctv":false,"managerTel":"0636403022","source":"public","category":"public"},{"id":"202547610000100139","name":"임실치즈테마파크3","lat":35.633126,"lng":127.301225,"roadAddr":"전북특별자치도 임실군 성수면 도인2길 50","jibunAddr":"전북특별자치도 임실군 성수면 도인2길 50","openHours":"24시간","maleToilets":3,"femaleToilets":3,"disabled":false,"diaperTable":false,"emergencyBell":false,"cctv":true,"managerTel":"0636439541","source":"public","category":"public"},{"id":"202547610000100140","name":"임실치즈테마파크4","lat":35.633126,"lng":127.301225,"roadAddr":"전북특별자치도 임실군 성수면 도인2길 50","jibunAddr":"전북특별자치도 임실군 성수면 도인2길 50","openHours":"24시간","maleToilets":3,"femaleToilets":2,"disabled":true,"diaperTable":false,"emergencyBell":false,"cctv":false,"managerTel":"0636439541","source":"public","category":"public"},{"id":"202547610000100137","name":"임실치즈테마파크1","lat":35.633126,"lng":127.301225,"roadAddr":"전북특별자치도 임실군 성수면 도인2길 50","jibunAddr":"전북특별자치도 임실군 성수면 도인2길 50","openHours":"24시간","maleToilets":5,"femaleToilets":8,"disabled":true,"diaperTable":true,"emergencyBell":true,"cctv":true,"managerTel":"0636439541","source":"public","category":"public"},{"id":"202547610000100141","name":"임실치즈테마파크5","lat":35.633126,"lng":127.301225,"roadAddr":"전북특별자치도 임실군 성수면 도인2길 50","jibunAddr":"전북특별자치도 임실군 성수면 도인2길 50","openHours":"09:00~17:00","maleToilets":8,"femaleToilets":5,"disabled":true,"diaperTable":false,"emergencyBell":true,"cctv":false,"managerTel":"0636439541","source":"public","category":"public"},{"id":"202547610000100174","name":"임역주유소","lat":35.634173,"lng":127.28653,"roadAddr":"전북특별자치도 임실군 임실읍 춘향로 2963","jibunAddr":"전북특별자치도 임실군 임실읍 춘향로 2963","openHours":"09시~21시","maleToilets":2,"femaleToilets":2,"disabled":false,"diaperTable":false,"emergencyBell":false,"cctv":false,"source":"public","category":"public"},{"id":"202547610000100176","name":"금강주유소","lat":35.618461,"lng":127.283655,"roadAddr":"전북특별자치도 임실군 임실읍 봉황로 213","jibunAddr":"전북특별자치도 임실군 임실읍 봉황로 213","openHours":"09시~21시","maleToilets":1,"femaleToilets":0,"disabled":false,"diaperTable":false,"emergencyBell":false,"cctv":false,"source":"public","category":"public"},{"id":"202547610000100088","name":"임실소방서 본서 1층","lat":35.610621,"lng":127.288925,"roadAddr":"전북특별자치도 임실군 임실읍 감천로 33","jibunAddr":"전북특별자치도 임실군 임실읍 감천로 33","openHours":"24시간","maleToilets":5,"femaleToilets":2,"disabled":true,"diaperTable":false,"emergencyBell":false,"cctv":false,"managerTel":"0637782213","source":"public","category":"public"},{"id":"202547610000100083","name":"임실 119 안전센터1층 화장실","lat":35.610621,"lng":127.288925,"roadAddr":"전북특별자치도 임실군 임실읍 감천로 33","jibunAddr":"전북특별자치도 임실군 임실읍 감천로 33","openHours":"24시간","maleToilets":5,"femaleToilets":2,"disabled":false,"diaperTable":false,"emergencyBell":false,"cctv":false,"managerTel":"0637782272","source":"public","category":"public"},{"id":"202547610000100008","name":"시설사업소1번화장실","lat":35.60983,"lng":127.282671,"roadAddr":"전북특별자치도 임실군 임실읍 호국로1640","jibunAddr":"전북특별자치도 임실군 임실읍 호국로1640","openHours":"06:00~24:00","maleToilets":8,"femaleToilets":7,"disabled":true,"diaperTable":false,"emergencyBell":true,"cctv":true,"managerTel":"0636402901","source":"public","category":"public"},{"id":"202547610000100012","name":"시설사업소5번놀이터화장실","lat":35.60983,"lng":127.282671,"roadAddr":"전북특별자치도 임실군 임실읍 호국로1640","jibunAddr":"전북특별자치도 임실군 임실읍 호국로1640","openHours":"06:00~24:00","maleToilets":8,"femaleToilets":4,"disabled":true,"diaperTable":true,"emergencyBell":true,"cctv":true,"managerTel":"0636402901","source":"public","category":"public"},{"id":"202547610000100125","name":"중부농기계임대사업소","lat":35.63,"lng":127.289965,"roadAddr":"전북특별자치도 임실군 임실읍 봉황로 371","jibunAddr":"전북특별자치도 임실군 임실읍 봉황로 371","openHours":"09:00~18:00","maleToilets":4,"femaleToilets":2,"disabled":false,"diaperTable":false,"emergencyBell":false,"cctv":false,"managerTel":"0636404510","source":"public","category":"public"},{"id":"202547610000100016","name":"시설사업소예비군중대화장실","lat":35.60983,"lng":127.282671,"roadAddr":"전북특별자치도 임실군 임실읍 호국로1640","jibunAddr":"전북특별자치도 임실군 임실읍 호국로1640","openHours":"06:00~22:00","maleToilets":7,"femaleToilets":4,"disabled":false,"diaperTable":false,"emergencyBell":false,"cctv":true,"managerTel":"0636402901","source":"public","category":"public"},{"id":"202547610000100157","name":"제일주유소","lat":35.627632,"lng":127.303916,"roadAddr":"전북특별자치도 임실군 성수면 춘향로 2785","jibunAddr":"전북특별자치도 임실군 성수면 춘향로 2785","openHours":"09시~21시","maleToilets":5,"femaleToilets":3,"disabled":false,"diaperTable":false,"emergencyBell":false,"cctv":false,"source":"public","category":"public"},{"id":"202547610000100033","name":"임실군보건의료원","lat":35.612611,"lng":127.287077,"roadAddr":"전북특별자치도 임실군 임실읍 호국로 1680","jibunAddr":"전북특별자치도 임실군 임실읍 호국로 1680","openHours":"09:00~18:00","maleToilets":19,"femaleToilets":15,"disabled":false,"diaperTable":false,"emergencyBell":true,"cctv":false,"managerTel":"0636403106","source":"public","category":"public"},{"id":"202547610000100011","name":"시설사업소4번실외화장실","lat":35.60983,"lng":127.282671,"roadAddr":"전북특별자치도 임실군 임실읍 호국로1640","jibunAddr":"전북특별자치도 임실군 임실읍 호국로1640","openHours":"06:00~2400","maleToilets":8,"femaleToilets":4,"disabled":true,"diaperTable":true,"emergencyBell":true,"cctv":true,"managerTel":"0636402901","source":"public","category":"public"},{"id":"202547610000100013","name":"시설사업소6번족구장화장실","lat":35.60983,"lng":127.282671,"roadAddr":"전북특별자치도 임실군 임실읍 호국로1640","jibunAddr":"전북특별자치도 임실군 임실읍 호국로1640","openHours":"06:00~24:00","maleToilets":4,"femaleToilets":3,"disabled":true,"diaperTable":false,"emergencyBell":false,"cctv":false,"managerTel":"0636402901","source":"public","category":"public"},{"id":"202547610000100051","name":"임실문화원 1층 화장실(공연장)","lat":35.612696,"lng":127.277529,"roadAddr":"전북특별자치도 임실군 임실읍 봉황로 131","jibunAddr":"전북특별자치도 임실군 임실읍 봉황로 131","openHours":"09:00~18:00","maleToilets":5,"femaleToilets":5,"disabled":true,"diaperTable":true,"emergencyBell":true,"cctv":false,"managerTel":"0636422211","source":"public","category":"public"},{"id":"202547610000100063","name":"임실","lat":35.633128,"lng":127.289316,"roadAddr":"전북특별자치도 임실군 임실읍 춘향로 2932","jibunAddr":"전북특별자치도 임실군 임실읍 춘향로 2932","openHours":"06:30~익00:30","maleToilets":3,"femaleToilets":4,"disabled":true,"diaperTable":true,"emergencyBell":true,"cctv":false,"managerTel":"15447788","source":"public","category":"public"},{"id":"202547610000100046","name":"임실군청소년문화의 집 1층","lat":35.614272,"lng":127.28647,"roadAddr":"전북특별자치도 임실군 임실읍 운수로 33-50","jibunAddr":"전북특별자치도 임실군 임실읍 운수로 33-50","openHours":"09:00~21:00","maleToilets":8,"femaleToilets":5,"disabled":true,"diaperTable":false,"emergencyBell":true,"cctv":false,"managerTel":"0636403022","source":"public","category":"public"},{"id":"202547610000100047","name":"임실군청소년문화의 집 2층","lat":35.614272,"lng":127.28647,"roadAddr":"전북특별자치도 임실군 임실읍 운수로 33-50","jibunAddr":"전북특별자치도 임실군 임실읍 운수로 33-50","openHours":"09:00~21:00","maleToilets":3,"femaleToilets":3,"disabled":true,"diaperTable":false,"emergencyBell":true,"cctv":false,"managerTel":"0636403022","source":"public","category":"public"},{"id":"202547610000100053","name":"임실군립도서관 화장실","lat":35.614657,"lng":127.286478,"roadAddr":"전북특별자치도 임실군 임실읍 호국로 1701","jibunAddr":"전북특별자치도 임실군 임실읍 호국로 1701","openHours":"평일 09:00~22:00(월제외) / 주말 09:00~18:00","maleToilets":8,"femaleToilets":9,"disabled":true,"diaperTable":true,"emergencyBell":true,"cctv":true,"managerTel":"0636403041","source":"public","category":"public"},{"id":"202547610000100010","name":"시설사업소3번실외화장실","lat":35.60983,"lng":127.282671,"roadAddr":"전북특별자치도 임실군 임실읍 호국로1640","jibunAddr":"전북특별자치도 임실군 임실읍 호국로1640","openHours":"06:00~24:00","maleToilets":9,"femaleToilets":6,"disabled":true,"diaperTable":true,"emergencyBell":true,"cctv":true,"managerTel":"0636402901","source":"public","category":"public"},{"id":"202547610000100175","name":"두꺼비주유소","lat":35.63094,"lng":127.290458,"roadAddr":"전북특별자치도 임실군 임실읍 봉황로 391","jibunAddr":"전북특별자치도 임실군 임실읍 봉황로 391","openHours":"09시~21시","maleToilets":2,"femaleToilets":1,"disabled":false,"diaperTable":false,"emergencyBell":false,"cctv":false,"source":"public","category":"public"},{"id":"202547610000100017","name":"임실국민체육센터 화장실","lat":35.608179,"lng":127.281315,"roadAddr":"전북특별자치도 임실읍 호국로 1628","jibunAddr":"전북특별자치도 임실읍 호국로 1628","openHours":"(평일) 06:00~21:00, (토요일) 06:00~18:00, 법정공휴일 미개방","maleToilets":10,"femaleToilets":6,"disabled":true,"diaperTable":false,"emergencyBell":true,"cctv":false,"managerTel":"0636404453","source":"public","category":"public"},{"id":"202547610000100035","name":"임실군보건의료원장례식장","lat":35.612611,"lng":127.287077,"roadAddr":"전북특별자치도 임실군 임실읍 호국로 1680","jibunAddr":"전북특별자치도 임실군 임실읍 호국로 1680","openHours":"09:00~18:00","maleToilets":7,"femaleToilets":3,"disabled":true,"diaperTable":true,"emergencyBell":true,"cctv":false,"managerTel":"0636403190","source":"public","category":"public"},{"id":"202547610000100042","name":"임실읍 행복누리원 1층","lat":35.613482,"lng":127.279549,"roadAddr":"전북특별자치도 임실군 임실읍 봉황로 144","jibunAddr":"전북특별자치도 임실군 임실읍 봉황로 144","openHours":"24시간","maleToilets":6,"femaleToilets":5,"disabled":true,"diaperTable":false,"emergencyBell":true,"cctv":false,"managerTel":"0636404001","source":"public","category":"public"},{"id":"202547610000100009","name":"시설사업소2번화장실","lat":35.60983,"lng":127.282671,"roadAddr":"전북특별자치도 임실군 임실읍 호국로1640","jibunAddr":"전북특별자치도 임실군 임실읍 호국로1640","openHours":"06:00~24:00","maleToilets":11,"femaleToilets":7,"disabled":true,"diaperTable":true,"emergencyBell":true,"cctv":true,"managerTel":"0636402901","source":"public","category":"public"},{"id":"202547610000100177","name":"신안주유소","lat":35.613068,"lng":127.282897,"roadAddr":"전북특별자치도 임실군 임실읍 중동로 49","jibunAddr":"전북특별자치도 임실군 임실읍 중동로 49","openHours":"09시~21시","maleToilets":1,"femaleToilets":0,"disabled":false,"diaperTable":false,"emergencyBell":false,"cctv":false,"source":"public","category":"public"},{"id":"202547610000100044","name":"임실읍 행복누리원 3층","lat":35.613482,"lng":127.279549,"roadAddr":"전북특별자치도 임실군 임실읍 봉황로 144","jibunAddr":"전북특별자치도 임실군 임실읍 봉황로 144","openHours":"24시간","maleToilets":4,"femaleToilets":5,"disabled":true,"diaperTable":false,"emergencyBell":true,"cctv":false,"managerTel":"0636404001","source":"public","category":"public"},{"id":"202547610000100040","name":"국립농산물품질관리원","lat":35.605854,"lng":127.275007,"roadAddr":"전북특별자치도 임실군 임실읍 호국로 1556-10","jibunAddr":"전북특별자치도 임실군 임실읍 호국로 1556-10","openHours":"09:00~18:00","maleToilets":3,"femaleToilets":1,"disabled":true,"diaperTable":false,"emergencyBell":false,"cctv":false,"managerTel":"0636436061","source":"public","category":"public"},{"id":"202547610000100043","name":"임실읍 행복누리원 2층","lat":35.613482,"lng":127.279549,"roadAddr":"전북특별자치도 임실군 임실읍 봉황로 144","jibunAddr":"전북특별자치도 임실군 임실읍 봉황로 144","openHours":"09:00~18:00","maleToilets":6,"femaleToilets":5,"disabled":true,"diaperTable":false,"emergencyBell":true,"cctv":false,"managerTel":"0636404636","source":"public","category":"public"},{"id":"202547610000100021","name":"임실군선거관리위원회 화장실","lat":35.616942,"lng":127.287229,"roadAddr":"전북특별자치도 임실군 임실읍 봉황11길 116-8","jibunAddr":"전북특별자치도 임실군 임실읍 봉황11길 116-8","openHours":"09:00~18:00","maleToilets":8,"femaleToilets":5,"disabled":true,"diaperTable":false,"emergencyBell":true,"cctv":false,"managerTel":"0636441390","source":"public","category":"public"},{"id":"202547610000100054","name":"임실문화원 2층 화장실","lat":35.612696,"lng":127.277529,"roadAddr":"전북특별자치도 임실군 임실읍 봉황로 131","jibunAddr":"전북특별자치도 임실군 임실읍 봉황로 131","openHours":"09:00~18:00","maleToilets":3,"femaleToilets":3,"disabled":false,"diaperTable":true,"emergencyBell":true,"cctv":false,"managerTel":"0636422211","source":"public","category":"public"},{"id":"202547610000100094","name":"임실우체국","lat":35.61389,"lng":127.283066,"roadAddr":"전북특별자치도 임실군 임실읍 봉황8길 27","jibunAddr":"전북특별자치도 임실군 임실읍 봉황8길 27","openHours":"09:00~18:00","maleToilets":4,"femaleToilets":5,"disabled":true,"diaperTable":false,"emergencyBell":false,"cctv":true,"managerTel":"0636403733","source":"public","category":"public"}]