[{"id":"202547510000100279","name":"평지마을 숲","lat":35.678499,"lng":127.588913,"roadAddr":"전북특별자치도 장수군 계남면 가곡리 724-22","openHours":"상시","maleToilets":2,"femaleToilets":1,"disabled":false,"diaperTable":false,"emergencyBell":false,"cctv":false,"managerTel":"0633502538","source":"public","category":"public"},{"id":"202547510000100425","name":"무룡고개(번암)화장실","lat":35.641281,"lng":127.614842,"roadAddr":"전북특별자치도 장수군 번암면 지지로 1794","openHours":"상시","maleToilets":5,"femaleToilets":5,"disabled":true,"diaperTable":true,"emergencyBell":true,"cctv":false,"managerTel":"0633502473","source":"public","category":"public"},{"id":"202547510000100274","name":"장안리 지소골","lat":35.646221,"lng":127.587976,"roadAddr":"전북특별자치도 장수군 계남면 장안리 산 55","openHours":"상시","maleToilets":2,"femaleToilets":1,"disabled":false,"diaperTable":false,"emergencyBell":false,"cctv":false,"managerTel":"0633502538","source":"public","category":"public"},{"id":"202547510000100382","name":"무룡고개(장계)화장실","lat":35.64399,"lng":127.616212,"roadAddr":"전북특별자치도 장수군 장계면 의암로 19","openHours":"상시","maleToilets":3,"femaleToilets":5,"disabled":true,"diaperTable":true,"emergencyBell":true,"cctv":false,"managerTel":"0633502473","source":"public","category":"public"},{"id":"202547510000100277","name":"가곡리 곡리 강남정","lat":35.680782,"lng":127.588139,"roadAddr":"전북특별자치도 장수군 계남면 궁양리 887-15","openHours":"상시","maleToilets":2,"femaleToilets":1,"disabled":false,"diaperTable":false,"emergencyBell":false,"cctv":false,"managerTel":"0633502538","source":"public","category":"public"},{"id":"202547510000100275","name":"장안리 괴목동","lat":35.649806,"lng":127.602369,"roadAddr":"전북특별자치도 장수군 계남면 장안리 산 114","openHours":"상시","maleToilets":2,"femaleToilets":1,"disabled":false,"diaperTable":false,"emergencyBell":false,"cctv":false,"managerTel":"0633502538","source":"public","category":"public"}]