[{"id":"202547510000100395","name":"물빛공원 화장실","lat":35.540611,"lng":127.542557,"roadAddr":"전북특별자치도 장수군 번암면 지지로 97-21","openHours":"상시","maleToilets":9,"femaleToilets":8,"disabled":true,"diaperTable":false,"emergencyBell":false,"cctv":false,"managerTel":"0633502881","source":"public","category":"public"},{"id":"202547510000100364","name":"번암종합복지관","lat":35.53075,"lng":127.544024,"roadAddr":"전북특별자치도 장수군 번암면 장수로 480 (노단리1186, 번암종합복지관)","openHours":"09:00~18:00","maleToilets":19,"femaleToilets":10,"disabled":false,"diaperTable":false,"emergencyBell":false,"cctv":false,"managerTel":"0633501311","source":"public","category":"public"},{"id":"202547510000100405","name":"봉화산 주차장 화장실","lat":35.527889,"lng":127.563498,"roadAddr":"전북특별자치도 장수군 번암면 봉화산로 349","openHours":"상시","maleToilets":6,"femaleToilets":4,"disabled":false,"diaperTable":false,"emergencyBell":false,"cctv":false,"managerTel":"0633502472","source":"public","category":"public"},{"id":"202547510000100363","name":"번암면사무소 화장실","lat":35.532003,"lng":127.543806,"roadAddr":"전북특별자치도 장수군 번암면 장수로 485 (노단리, 번암면사무소)","openHours":"09:00~18:00","maleToilets":5,"femaleToilets":2,"disabled":false,"diaperTable":false,"emergencyBell":false,"cctv":false,"managerTel":"0633502273","source":"public","category":"public"},{"id":"202547510000100260","name":"봉화산 철쭉단지","lat":35.527028,"lng":127.563035,"roadAddr":"전북특별자치도 장수군 번암면 노단리 125-6","openHours":"상시","maleToilets":2,"femaleToilets":1,"disabled":false,"diaperTable":false,"emergencyBell":false,"cctv":false,"managerTel":"0633502538","source":"public","category":"public"},{"id":"202547510000100252","name":"동화댐 망향정","lat":35.548514,"lng":127.531259,"roadAddr":"전북특별자치도 장수군 번암면 죽림리 산47-3","openHours":"상시","maleToilets":2,"femaleToilets":1,"disabled":false,"diaperTable":false,"emergencyBell":false,"cctv":false,"managerTel":"0633502538","source":"public","category":"public"},{"id":"202547510000100259","name":"봉화산 봉화정","lat":35.524127,"lng":127.55944,"roadAddr":"전북특별자치도 장수군 번암면 노단리 산 37-7","openHours":"상시","maleToilets":2,"femaleToilets":1,"disabled":false,"diaperTable":false,"emergencyBell":false,"cctv":false,"managerTel":"0633502538","source":"public","category":"public"},{"id":"202547510000100390","name":"시동강공원 화장실(번암시장)","lat":35.533341,"lng":127.545451,"roadAddr":"전북특별자치도 장수군 번암면 신평로 319","openHours":"평일 07:00~21:00, 토요일 09:00~18:00","maleToilets":8,"femaleToilets":4,"disabled":false,"diaperTable":false,"emergencyBell":false,"cctv":false,"managerTel":"0633502182","source":"public","category":"public"},{"id":"202547510000100370","name":"번암보건지소 화장실","lat":35.533341,"lng":127.545451,"roadAddr":"전북특별자치도 장수군 번암면 신평로 319 (노단리1038, 번암면보건지소)","openHours":"상시","maleToilets":3,"femaleToilets":1,"disabled":false,"diaperTable":false,"emergencyBell":false,"cctv":false,"managerTel":"0633534606","source":"public","category":"public"}]