[{"id":"202547310000100027","name":"백운보건지소","lat":35.692906,"lng":127.397899,"roadAddr":"전북특별자치도 진안군 백운면 임진로 1346","openHours":"09:00∼18:00","maleToilets":2,"femaleToilets":1,"disabled":true,"diaperTable":false,"emergencyBell":true,"cctv":false,"managerTel":"0634308842","source":"public","category":"public"},{"id":"202547310000100137","name":"평가마을","lat":35.709336,"lng":127.406369,"roadAddr":"전북특별자치도 진안군 백운면 임진로 1554-7","openHours":"상시","maleToilets":2,"femaleToilets":1,"disabled":false,"diaperTable":false,"emergencyBell":false,"cctv":false,"managerTel":"0634308297","source":"public","category":"public"},{"id":"202547310000100127","name":"백운면 흰구름문화센터","lat":35.692561,"lng":127.397867,"roadAddr":"전북특별자치도 진안군 백운면 임진로 1342","openHours":"09:00∼18:00","maleToilets":4,"femaleToilets":2,"disabled":true,"diaperTable":false,"emergencyBell":false,"cctv":false,"managerTel":"0634308297","source":"public","category":"public"},{"id":"202547310000100036","name":"평장보건진료소","lat":35.711939,"lng":127.411638,"roadAddr":"전북특별자치도 진안군 백운면 평노길 55-5","openHours":"09:00∼18:00","maleToilets":0,"femaleToilets":0,"disabled":false,"diaperTable":false,"emergencyBell":false,"cctv":false,"managerTel":"0634308977","source":"public","category":"public"},{"id":"202547310000100210","name":"매사냥체험홍보관","lat":35.692561,"lng":127.397867,"roadAddr":"전북특별자치도 진안군 백운면 임진로 1342","jibunAddr":"전북특별자치도 진안군 백운면 백암리 674-3","openHours":"09:00∼18:00","maleToilets":2,"femaleToilets":1,"disabled":false,"diaperTable":false,"emergencyBell":false,"cctv":false,"managerTel":"0634302382","source":"public","category":"public"},{"id":"202547310000100135","name":"백운면 행정복지센터","lat":35.692561,"lng":127.397867,"roadAddr":"전북특별자치도 진안군 백운면 임진로 1342 백운면사무소","openHours":"09:00∼18:00","maleToilets":8,"femaleToilets":6,"disabled":true,"diaperTable":true,"emergencyBell":true,"cctv":false,"managerTel":"0634308297","source":"public","category":"public"},{"id":"202547310000100138","name":"영모정","lat":35.711878,"lng":127.416773,"roadAddr":"전북특별자치도 진안군 백운면 노촌리 672","openHours":"상시","maleToilets":2,"femaleToilets":1,"disabled":false,"diaperTable":false,"emergencyBell":false,"cctv":false,"managerTel":"0634308297","source":"public","category":"public"},{"id":"202547310000100131","name":"미룡정","lat":35.712068,"lng":127.420172,"roadAddr":"전북특별자치도 진안군 백운면 노촌리 702-1","openHours":"상시","maleToilets":2,"femaleToilets":2,"disabled":false,"diaperTable":false,"emergencyBell":false,"cctv":false,"managerTel":"0634308297","source":"public","category":"public"},{"id":"202547310000100136","name":"상백마을","lat":35.686727,"lng":127.414633,"roadAddr":"전북특별자치도 진안군 백운면 백암리 389(백암교)","openHours":"상시","maleToilets":2,"femaleToilets":1,"disabled":false,"diaperTable":false,"emergencyBell":false,"cctv":false,"managerTel":"0634308297","source":"public","category":"public"}]