[{"id":"202547310000100119","name":"체련공원2","lat":35.727776,"lng":127.296905,"roadAddr":"전북특별자치도 진안군 성수면 용포로 425-32","openHours":"상시","maleToilets":2,"femaleToilets":1,"disabled":false,"diaperTable":false,"emergencyBell":false,"cctv":false,"managerTel":"0634308314","source":"public","category":"public"},{"id":"202547310000100123","name":"냉천1(입구)","lat":35.732011,"lng":127.301692,"roadAddr":"전북특별자치도 진안군 성수면 관마로 836-20","openHours":"상시","maleToilets":2,"femaleToilets":1,"disabled":false,"diaperTable":false,"emergencyBell":true,"cctv":false,"managerTel":"0634308310","source":"public","category":"public"},{"id":"202547310000100121","name":"냉천2(안쪽)","lat":35.731214,"lng":127.298285,"roadAddr":"전북특별자치도 진안군 성수면 관마로 836-57","openHours":"상시","maleToilets":4,"femaleToilets":2,"disabled":false,"diaperTable":false,"emergencyBell":true,"cctv":false,"managerTel":"0634308312","source":"public","category":"public"},{"id":"202547310000100118","name":"체련공원1","lat":35.727776,"lng":127.296905,"roadAddr":"전북특별자치도 진안군 성수면 용포로 425-32","openHours":"상시","maleToilets":2,"femaleToilets":1,"disabled":false,"diaperTable":false,"emergencyBell":true,"cctv":false,"managerTel":"0634308315","source":"public","category":"public"},{"id":"202547310000100124","name":"양산교","lat":35.727973,"lng":127.296464,"roadAddr":"전북특별자치도 진안군 성수면 좌포리 1480-9","openHours":"상시","maleToilets":3,"femaleToilets":1,"disabled":false,"diaperTable":false,"emergencyBell":false,"cctv":false,"managerTel":"0634308309","source":"public","category":"public"},{"id":"202547310000100126","name":"좌포교","lat":35.730125,"lng":127.298326,"roadAddr":"전북특별자치도 진안군 성수면 좌포리 1493-4","openHours":"상시","maleToilets":1,"femaleToilets":1,"disabled":false,"diaperTable":false,"emergencyBell":false,"cctv":false,"managerTel":"0634308307","source":"public","category":"public"}]