[{"id":"202547510000100352","name":"용광주유소 화장실","lat":35.750748,"lng":127.542611,"roadAddr":"전북특별자치도 장수군 천천면 진장로 1522(용광리 169), 용광주유소","openHours":"상시","maleToilets":1,"femaleToilets":1,"disabled":false,"diaperTable":false,"emergencyBell":false,"cctv":false,"managerTel":"0633534186","source":"public","category":"public"},{"id":"202547510000100272","name":"침곡리 무농교 옆","lat":35.742043,"lng":127.567388,"roadAddr":"전북특별자치도 장수군 계남면 침곡리 산 25-2","openHours":"상시","maleToilets":2,"femaleToilets":1,"disabled":false,"diaperTable":false,"emergencyBell":false,"cctv":false,"managerTel":"0633502538","source":"public","category":"public"},{"id":"202547510000100356","name":"천천면사무소 화장실","lat":35.73345,"lng":127.532627,"roadAddr":"전북특별자치도 장수군 천천면 장천로 1186 (봉덕리, 천천면사무소)","openHours":"정시","maleToilets":13,"femaleToilets":9,"disabled":false,"diaperTable":false,"emergencyBell":false,"cctv":false,"managerTel":"0633501412","source":"public","category":"public"},{"id":"202547510000100226","name":"천천면 체육공원","lat":35.731745,"lng":127.531715,"roadAddr":"전북특별자치도 장수군 천천면 장천로 1166 (봉덕리, 천천실내체육관)","openHours":"상시","maleToilets":2,"femaleToilets":1,"disabled":false,"diaperTable":false,"emergencyBell":false,"cctv":false,"managerTel":"0633502538","source":"public","category":"public"},{"id":"202547510000100229","name":"천천1교","lat":35.76159,"lng":127.540967,"roadAddr":"전북특별자치도 장수군 천천면 용광리 603","openHours":"상시","maleToilets":2,"femaleToilets":1,"disabled":false,"diaperTable":false,"emergencyBell":false,"cctv":false,"managerTel":"0633502538","source":"public","category":"public"}]