[{"id":"202547310000100080","name":"금당사 화장실","lat":35.757009,"lng":127.398307,"roadAddr":"전북특별자치도 진안군 마령면 동촌리 52-1","openHours":"상시","maleToilets":4,"femaleToilets":3,"disabled":true,"diaperTable":false,"emergencyBell":true,"cctv":false,"managerTel":"0634308752","source":"public","category":"public"},{"id":"202547310000100066","name":"테마공원 화장실","lat":35.771004,"lng":127.414367,"roadAddr":"전북특별자치도 진안군 진안읍 단양리 810","openHours":"상시","maleToilets":3,"femaleToilets":3,"disabled":true,"diaperTable":true,"emergencyBell":true,"cctv":false,"managerTel":"0634308752","source":"public","category":"public"},{"id":"202547310000100081","name":"합미산성 화장실","lat":35.74329,"lng":127.398961,"roadAddr":"전북특별자치도 진안군 마령면 동촌리 131-1","openHours":"상시","maleToilets":2,"femaleToilets":1,"disabled":false,"diaperTable":false,"emergencyBell":true,"cctv":false,"managerTel":"0634308329","source":"public","category":"public"},{"id":"202547310000100162","name":"진안군 농업기술센터","lat":35.762871,"lng":127.437233,"roadAddr":"전북특별자치도 진안군 진무로 702-30","jibunAddr":"전북특별자치도 진안군 진안읍 반월리 1032-1","openHours":"09:00∼18:00","maleToilets":22,"femaleToilets":15,"disabled":true,"diaperTable":false,"emergencyBell":true,"cctv":false,"managerTel":"0634308613","source":"public","category":"public"},{"id":"202547310000100072","name":"연인의길 화장실","lat":35.763217,"lng":127.416092,"roadAddr":"전북특별자치도 진안군 진안읍 단양리 산127-2","openHours":"상시","maleToilets":2,"femaleToilets":2,"disabled":false,"diaperTable":false,"emergencyBell":false,"cctv":false,"managerTel":"0634308752","source":"public","category":"public"},{"id":"202547310000100086","name":"화금화장실","lat":35.74329,"lng":127.398961,"roadAddr":"전북특별자치도 진안군 마령면 동촌리 131-1","openHours":"상시","maleToilets":7,"femaleToilets":4,"disabled":false,"diaperTable":false,"emergencyBell":false,"cctv":false,"managerTel":"0634308329","source":"public","category":"public"},{"id":"202547310000100077","name":"남부 은수사","lat":35.759106,"lng":127.413328,"roadAddr":"전북특별자치도 진안군 마령면 동촌리 5-1","openHours":"상시","maleToilets":4,"femaleToilets":4,"disabled":false,"diaperTable":false,"emergencyBell":true,"cctv":false,"managerTel":"0634308752","source":"public","category":"public"},{"id":"202547310000100079","name":"남부 부부시비","lat":35.756695,"lng":127.403523,"roadAddr":"전북특별자치도 진안군 마령면 동촌리 546-15","openHours":"상시","maleToilets":5,"femaleToilets":5,"disabled":true,"diaperTable":true,"emergencyBell":true,"cctv":false,"managerTel":"0634308752","source":"public","category":"public"},{"id":"202547310000100207","name":"진안군가위박물관","lat":35.765921,"lng":127.415002,"roadAddr":"전북특별자치도 진안군 진안읍 마이산로 258","openHours":"09:00∼18:00","maleToilets":3,"femaleToilets":2,"disabled":true,"diaperTable":false,"emergencyBell":true,"cctv":true,"managerTel":"0634302324","source":"public","category":"public"},{"id":"202547310000100070","name":"남부 탑사 화장실","lat":35.757789,"lng":127.409872,"roadAddr":"전북특별자치도 진안군 마령면 동촌리 11-1","openHours":"상시","maleToilets":2,"femaleToilets":10,"disabled":true,"diaperTable":true,"emergencyBell":true,"cctv":false,"managerTel":"0634308752","source":"public","category":"public"},{"id":"202547310000100069","name":"북부 제2화장실(바그다드 커피샵 옆)","lat":35.767009,"lng":127.413176,"roadAddr":"전북특별자치도 진안군 진안읍 단양리 687-30","openHours":"상시","maleToilets":8,"femaleToilets":6,"disabled":true,"diaperTable":true,"emergencyBell":true,"cctv":false,"managerTel":"0634308752","source":"public","category":"public"},{"id":"202547310000100071","name":"남부 제4주차장 화장실","lat":35.748969,"lng":127.398118,"roadAddr":"전북특별자치도 진안군 진안읍 가림리 1656-1","openHours":"상시","maleToilets":3,"femaleToilets":6,"disabled":true,"diaperTable":true,"emergencyBell":true,"cctv":false,"managerTel":"0634308752","source":"public","category":"public"},{"id":"202547310000100068","name":"북부 제1화장실(구관리사무소 앞)","lat":35.766223,"lng":127.414798,"roadAddr":"전북특별자치도 진안군 진안읍 단양리 690","openHours":"상시","maleToilets":9,"femaleToilets":10,"disabled":true,"diaperTable":true,"emergencyBell":true,"cctv":false,"managerTel":"0634308752","source":"public","category":"public"}]