[{"id":"202554600000100262","name":"함양휴게소(상)","lat":35.550529,"lng":127.759241,"roadAddr":"경상남도 함양군 지곡면 효산길 23-31","jibunAddr":"경상남도 함양군 지곡면 보산리 285-5","openHours":"상시","maleToilets":16,"femaleToilets":20,"disabled":true,"diaperTable":true,"emergencyBell":true,"cctv":true,"source":"public","category":"public"},{"id":"202554600000100181","name":"백천주유소","lat":35.526039,"lng":127.767469,"roadAddr":"경상남도 함양군 함양읍 고운로 453","jibunAddr":"경상남도 함양군 함양읍 백천리 1105-4","openHours":"영업시간","maleToilets":3,"femaleToilets":1,"disabled":false,"diaperTable":false,"emergencyBell":false,"cctv":false,"source":"public","category":"public"},{"id":"202554600000100197","name":"수동정류장","lat":35.521518,"lng":127.784609,"roadAddr":"경상남도 함양군 수동면 수동1길 171","jibunAddr":"경상남도 함양군 수동면 화산리 1186-4","openHours":"상시","maleToilets":3,"femaleToilets":3,"disabled":true,"diaperTable":false,"emergencyBell":true,"cctv":false,"source":"public","category":"public"},{"id":"202554600000100253","name":"함양IC주유소","lat":35.526429,"lng":127.756958,"roadAddr":"경상남도 함양군 함양읍 고운로 341","jibunAddr":"경상남도 함양군 함양읍 백천리 1596","openHours":"영업시간","maleToilets":4,"femaleToilets":4,"disabled":false,"diaperTable":false,"emergencyBell":false,"cctv":false,"source":"public","category":"public"},{"id":"202554600000100251","name":"함양(상)주유소","lat":35.550529,"lng":127.759241,"roadAddr":"경상남도 함양군 지곡면 효산길 23-31","jibunAddr":"경상남도 함양군 지곡면 보산리 287-6","openHours":"영업시간","maleToilets":2,"femaleToilets":2,"disabled":false,"diaperTable":false,"emergencyBell":false,"cctv":false,"source":"public","category":"public"},{"id":"202554600000100160","name":"동산주유소","lat":35.522917,"lng":127.77783,"roadAddr":"경상남도 함양군 함양읍 고운로 570","jibunAddr":"경상남도 함양군 함양읍 백천리 909-5","openHours":"영업시간","maleToilets":2,"femaleToilets":1,"disabled":false,"diaperTable":false,"emergencyBell":false,"cctv":false,"source":"public","category":"public"},{"id":"202554600000100198","name":"수동체육공원","lat":35.517412,"lng":127.789724,"jibunAddr":"경상남도 함양군 수동면 화산리 1166-1","openHours":"상시","maleToilets":4,"femaleToilets":4,"disabled":false,"diaperTable":false,"emergencyBell":false,"cctv":false,"source":"public","category":"public"}]