[{"id":"202454700000100015","name":"산수입구화장실","lat":35.769731,"lng":127.767729,"roadAddr":"경상남도 거창군 북상면 산수리 산51","jibunAddr":"경상남도 거창군 북상면 산수리 산51","openHours":"상시","maleToilets":2,"femaleToilets":2,"disabled":false,"diaperTable":false,"emergencyBell":false,"cctv":false,"managerTel":"0559407532","source":"public","category":"public"},{"id":"202454700000100026","name":"하창선화장실","lat":35.769545,"lng":127.783159,"roadAddr":"경상남도 거창군 북상면 창선리 217-1","jibunAddr":"경상남도 거창군 북상면 창선리 217-1","openHours":"상시","maleToilets":2,"femaleToilets":2,"disabled":false,"diaperTable":false,"emergencyBell":false,"cctv":false,"managerTel":"0559407532","source":"public","category":"public"},{"id":"202454700000100023","name":"분설담화장실","lat":35.76326,"lng":127.769819,"roadAddr":"경상남도 거창군 북상면 창선리 268-1","jibunAddr":"경상남도 거창군 북상면 창선리 268-1","openHours":"상시","maleToilets":3,"femaleToilets":2,"disabled":false,"diaperTable":false,"emergencyBell":false,"cctv":false,"managerTel":"0559407532","source":"public","category":"public"},{"id":"202454700000100027","name":"상창선화장실","lat":35.765294,"lng":127.778523,"roadAddr":"경상남도 거창군 북상면 창선리 290-3","jibunAddr":"경상남도 거창군 북상면 창선리 290-3","openHours":"상시","maleToilets":3,"femaleToilets":2,"disabled":false,"diaperTable":false,"emergencyBell":false,"cctv":false,"managerTel":"0559407532","source":"public","category":"public"},{"id":"202454700000100031","name":"심동입구화장실","lat":35.765199,"lng":127.759917,"roadAddr":"경상남도 거창군 북상면 월성리 42-3","jibunAddr":"경상남도 거창군 북상면 월성리 42-3","openHours":"상시","maleToilets":2,"femaleToilets":2,"disabled":false,"diaperTable":false,"emergencyBell":false,"cctv":false,"managerTel":"0559407532","source":"public","category":"public"},{"id":"202454700000100106","name":"분설담 아래 화장실","lat":35.765233,"lng":127.772195,"roadAddr":"경상남도 거창군 북상면 창선리 272","jibunAddr":"경상남도 거창군 북상면 창선리 272","openHours":"상시","maleToilets":2,"femaleToilets":2,"disabled":false,"diaperTable":false,"emergencyBell":false,"cctv":false,"managerTel":"0559407532","source":"public","category":"public"},{"id":"202454700000100019","name":"월성숲 아래 화장실","lat":35.764201,"lng":127.753471,"roadAddr":"경상남도 거창군 북상면 월성리 1858","jibunAddr":"경상남도 거창군 북상면 월성리 1858","openHours":"상시","maleToilets":2,"femaleToilets":1,"disabled":false,"diaperTable":false,"emergencyBell":false,"cctv":false,"managerTel":"0559407532","source":"public","category":"public"}]