[{"id":"202454700000100137","name":"제2주차장","lat":35.760923,"lng":127.833677,"roadAddr":"경상남도 거창군 위천면 은하리길 2","jibunAddr":"경상남도 거창군 위천면 은하리길 2","openHours":"상시","maleToilets":10,"femaleToilets":5,"disabled":false,"diaperTable":false,"emergencyBell":true,"cctv":false,"managerTel":"0559408530","source":"public","category":"public"},{"id":"202454700000100139","name":"오토캠핑장","lat":35.760923,"lng":127.833677,"roadAddr":"경상남도 거창군 위천면 은하리길 2","jibunAddr":"경상남도 거창군 위천면 은하리길 2","openHours":"상시","maleToilets":4,"femaleToilets":4,"disabled":false,"diaperTable":false,"emergencyBell":true,"cctv":false,"managerTel":"0559408530","source":"public","category":"public"},{"id":"202454700000100234","name":"위천119안전센터 화장실","lat":35.749241,"lng":127.832688,"roadAddr":"경상남도 거창군 위천면 원학길321","jibunAddr":"경남 거창군 위천면 장기리 509","openHours":"09:00~18:00","maleToilets":3,"femaleToilets":1,"disabled":true,"diaperTable":false,"emergencyBell":false,"cctv":false,"managerTel":"0559409225","source":"public","category":"public"},{"id":"202454700000100142","name":"썰매장","lat":35.758776,"lng":127.831636,"roadAddr":"경상남도 거창군 위천면 은하리길 43-101","jibunAddr":"경상남도 거창군 위천면 은하리길 43-101","openHours":"상시","maleToilets":2,"femaleToilets":2,"disabled":false,"diaperTable":false,"emergencyBell":false,"cctv":false,"managerTel":"0559408530","source":"public","category":"public"},{"id":"202454700000100141","name":"야영장","lat":35.758776,"lng":127.831636,"roadAddr":"경상남도 거창군 위천면 은하리길 43-101","jibunAddr":"경상남도 거창군 위천면 은하리길 43-101","openHours":"상시","maleToilets":9,"femaleToilets":7,"disabled":false,"diaperTable":false,"emergencyBell":true,"cctv":false,"managerTel":"0559408530","source":"public","category":"public"},{"id":"202454700000100098","name":"서덕들 화장실","lat":35.739853,"lng":127.819137,"roadAddr":"경상남도 거창군 위천면 상천리 527","jibunAddr":"경상남도 거창군 위천면 상천리 527","openHours":"상시","maleToilets":2,"femaleToilets":2,"disabled":false,"diaperTable":false,"emergencyBell":false,"cctv":false,"managerTel":"0559407582","source":"public","category":"public"},{"id":"202454700000100269","name":"중앙주유소화장실","lat":35.748492,"lng":127.834416,"roadAddr":"경상남도 거창군 위천면 원학길 294","jibunAddr":"경상남도 거창군 위천면 원학길 294","openHours":"상시","maleToilets":3,"femaleToilets":3,"disabled":false,"diaperTable":false,"emergencyBell":false,"cctv":true,"managerTel":"0559438883","source":"public","category":"public"},{"id":"202454700000100121","name":"강정화장실","lat":35.767064,"lng":127.822081,"roadAddr":"경상남도 거창군 북상면 용문들길 103-22","jibunAddr":"경상남도 거창군 북상면 용문들길 103-22","openHours":"상시","maleToilets":3,"femaleToilets":2,"disabled":true,"diaperTable":false,"emergencyBell":true,"cctv":false,"managerTel":"0559407532","source":"public","category":"public"},{"id":"202454700000100029","name":"금원산계곡화장실","lat":35.73367,"lng":127.803079,"roadAddr":"경상남도 거창군 위천면 상천리 산7-17","jibunAddr":"경상남도 거창군 위천면 상천리 산7-17","openHours":"상시","maleToilets":2,"femaleToilets":1,"disabled":false,"diaperTable":false,"emergencyBell":false,"cctv":false,"managerTel":"0559407582","source":"public","category":"public"},{"id":"202454700000100136","name":"연극제앞","lat":35.760923,"lng":127.833677,"roadAddr":"경상남도 거창군 위천면 은하리길 2","jibunAddr":"경상남도 거창군 위천면 은하리길 2","openHours":"상시","maleToilets":14,"femaleToilets":9,"disabled":false,"diaperTable":false,"emergencyBell":true,"cctv":false,"managerTel":"0559408530","source":"public","category":"public"},{"id":"202454700000100133","name":"강동화장실","lat":35.754719,"lng":127.828322,"roadAddr":"경상남도 거창군 위천면 강천리 156-1","jibunAddr":"경상남도 거창군 위천면 강천리 156-1","openHours":"상시","maleToilets":4,"femaleToilets":3,"disabled":true,"diaperTable":false,"emergencyBell":false,"cctv":false,"managerTel":"0559407582","source":"public","category":"public"},{"id":"202454700000100135","name":"관리사무소","lat":35.760923,"lng":127.833677,"roadAddr":"경상남도 거창군 위천면 은하리길 2","jibunAddr":"경상남도 거창군 위천면 은하리길 2","openHours":"상시","maleToilets":8,"femaleToilets":8,"disabled":false,"diaperTable":false,"emergencyBell":true,"cctv":false,"managerTel":"0559408530","source":"public","category":"public"},{"id":"202454700000100143","name":"제1주차장","lat":35.760923,"lng":127.833677,"roadAddr":"경상남도 거창군 위천면 은하리길 2","jibunAddr":"경상남도 거창군 위천면 은하리길 2","openHours":"상시","maleToilets":7,"femaleToilets":6,"disabled":false,"diaperTable":false,"emergencyBell":true,"cctv":false,"managerTel":"0559408530","source":"public","category":"public"},{"id":"202454700000100140","name":"요수정옆","lat":35.758776,"lng":127.831636,"roadAddr":"경상남도 거창군 위천면 은하리길 43-101","jibunAddr":"경상남도 거창군 위천면 은하리길 43-101","openHours":"상시","maleToilets":2,"femaleToilets":2,"disabled":false,"diaperTable":false,"emergencyBell":true,"cctv":false,"managerTel":"0559408530","source":"public","category":"public"},{"id":"202454700000100033","name":"척수대화장실","lat":35.755719,"lng":127.833246,"roadAddr":"경상남도 거창군 위천면 장기리 390","jibunAddr":"경상남도 거창군 위천면 장기리 390","openHours":"상시","maleToilets":3,"femaleToilets":3,"disabled":true,"diaperTable":false,"emergencyBell":true,"cctv":false,"managerTel":"0559407582","source":"public","category":"public"},{"id":"202454700000100247","name":"위천면사무소","lat":35.749619,"lng":127.83313,"roadAddr":"경상남도 거창군 위천면 원학길 324","jibunAddr":"경상남도 거창군 위천면 장기리 511-2","openHours":"09:00~18:00","maleToilets":7,"femaleToilets":3,"disabled":true,"diaperTable":false,"emergencyBell":false,"cctv":false,"managerTel":"0559407560","source":"public","category":"public"},{"id":"202454700000100034","name":"위천천 그라운드골프장 화장실","lat":35.753616,"lng":127.83301,"roadAddr":"경상남도 거창군 위천면 장기리 611-4","jibunAddr":"경상남도 거창군 위천면 장기리 611-4","openHours":"상시","maleToilets":2,"femaleToilets":2,"disabled":false,"diaperTable":false,"emergencyBell":false,"cctv":false,"managerTel":"0559407582","source":"public","category":"public"},{"id":"202454700000100132","name":"가섭암지화장실","lat":35.73407,"lng":127.804208,"roadAddr":"경상남도 거창군 위천면 상천리 산65","jibunAddr":"경상남도 거창군 위천면 상천리 산65","openHours":"상시","maleToilets":2,"femaleToilets":1,"disabled":false,"diaperTable":false,"emergencyBell":false,"cctv":false,"managerTel":"0559407582","source":"public","category":"public"},{"id":"202454700000100282","name":"동계 종택","lat":35.755423,"lng":127.828748,"roadAddr":"경상남도 위천면 강동1길 13","jibunAddr":"경상남도 위천면 강동1길 13","openHours":"영업시간내","maleToilets":2,"femaleToilets":1,"disabled":false,"diaperTable":false,"emergencyBell":false,"cctv":false,"managerTel":"0559403505","source":"public","category":"public"},{"id":"202454700000100008","name":"용암정화장실","lat":35.768867,"lng":127.821303,"roadAddr":"경상남도 거창군 북상면 갈계리 1503-5","jibunAddr":"경상남도 거창군 북상면 갈계리 1503-5","openHours":"상시","maleToilets":3,"femaleToilets":2,"disabled":false,"diaperTable":false,"emergencyBell":false,"cctv":false,"managerTel":"0559407532","source":"public","category":"public"},{"id":"202454700000100233","name":"위천면보건지소 화장실","lat":35.749298,"lng":127.832272,"roadAddr":"경상남도 거창군 위천면 원학길 325, 위천면 보건지소","jibunAddr":"경상남도 거창군 위천면 장기리 509-2 위천면 보건지소","openHours":"09:00~18:00","maleToilets":2,"femaleToilets":1,"disabled":true,"diaperTable":false,"emergencyBell":false,"cctv":false,"managerTel":"0559408592","source":"public","category":"public"},{"id":"202454700000100138","name":"제2주차장 이동식","lat":35.760923,"lng":127.833677,"roadAddr":"경상남도 거창군 위천면 은하리길 2","jibunAddr":"경상남도 거창군 위천면 은하리길 2","openHours":"상시","maleToilets":3,"femaleToilets":3,"disabled":false,"diaperTable":false,"emergencyBell":true,"cctv":false,"managerTel":"0559408530","source":"public","category":"public"}]