[{"id":"202454700000100122","name":"행기숲화장실","lat":35.772714,"lng":127.818287,"roadAddr":"경상남도 거창군 북상면 농산리 9-4","jibunAddr":"경상남도 거창군 북상면 농산리 9-4","openHours":"상시","maleToilets":2,"femaleToilets":2,"disabled":false,"diaperTable":false,"emergencyBell":false,"cctv":false,"managerTel":"0559407532","source":"public","category":"public"},{"id":"202454700000100260","name":"갈계숲화장실","lat":35.778369,"lng":127.817242,"roadAddr":"경상남도 거창군 북상면 송계로 721-58","jibunAddr":"경상남도 거창군 북상면 갈계리 1465-2","openHours":"상시","maleToilets":3,"femaleToilets":2,"disabled":true,"diaperTable":true,"emergencyBell":false,"cctv":false,"managerTel":"0559407532","source":"public","category":"public"},{"id":"202454700000100217","name":"북상면보건지소 화장실","lat":35.777628,"lng":127.818289,"roadAddr":"경상남도 거창군 북상면 덕유월성로 2313, 북상면보건지소","jibunAddr":"경상남도 거창군 북상면 갈계리 1433-4 북상면보건지소","openHours":"정시","maleToilets":2,"femaleToilets":1,"disabled":true,"diaperTable":false,"emergencyBell":false,"cctv":false,"managerTel":"0559408582","source":"public","category":"public"},{"id":"202454700000100219","name":"북상면사무소 화장실","lat":35.777629,"lng":127.818658,"roadAddr":"경상남도 거창군 북상면 덕유월성로 2315","jibunAddr":"경상남도 거창군 북상면 갈계리 1391-5","openHours":"정시","maleToilets":5,"femaleToilets":2,"disabled":true,"diaperTable":false,"emergencyBell":false,"cctv":false,"managerTel":"0559407514","source":"public","category":"public"},{"id":"202454700000100120","name":"강선대마을 화장실","lat":35.773018,"lng":127.806714,"roadAddr":"경상남도 거창군 북상면 농산리 496-1","jibunAddr":"경상남도 거창군 북상면 농산리 496-1","openHours":"상시","maleToilets":2,"femaleToilets":1,"disabled":false,"diaperTable":false,"emergencyBell":false,"cctv":false,"managerTel":"0559407532","source":"public","category":"public"},{"id":"202454700000100119","name":"중산마을 화장실","lat":35.798143,"lng":127.815214,"roadAddr":"경상남도 거창군 북상면 갈계리 산78-1","jibunAddr":"경상남도 거창군 북상면 갈계리 산78-1","openHours":"상시","maleToilets":2,"femaleToilets":2,"disabled":false,"diaperTable":false,"emergencyBell":false,"cctv":false,"managerTel":"0559407532","source":"public","category":"public"},{"id":"202454700000100021","name":"강선대화장실","lat":35.774797,"lng":127.804838,"roadAddr":"경상남도 거창군 북상면 농산리 710-3","jibunAddr":"경상남도 거창군 북상면 농산리 710-3","openHours":"상시","maleToilets":4,"femaleToilets":2,"disabled":false,"diaperTable":false,"emergencyBell":true,"cctv":false,"managerTel":"0559407532","source":"public","category":"public"},{"id":"202454700000100012","name":"기원들화장실","lat":35.775064,"lng":127.812508,"roadAddr":"경상남도 거창군 북상면 농산리 5-2","jibunAddr":"경상남도 거창군 북상면 농산리 5-2","openHours":"상시","maleToilets":2,"femaleToilets":2,"disabled":false,"diaperTable":false,"emergencyBell":false,"cctv":false,"managerTel":"0559407532","source":"public","category":"public"},{"id":"202454700000100009","name":"병곡입구화장실","lat":35.778349,"lng":127.800718,"roadAddr":"경상남도 거창군 북상면 농산리 598-2","jibunAddr":"경상남도 거창군 북상면 농산리 598-2","openHours":"상시","maleToilets":2,"femaleToilets":2,"disabled":false,"diaperTable":false,"emergencyBell":false,"cctv":false,"managerTel":"0559407532","source":"public","category":"public"},{"id":"202454700000100011","name":"병곡숲화장실","lat":35.78633,"lng":127.795004,"roadAddr":"경상남도 거창군 북상면 병곡리 27-3","jibunAddr":"경상남도 거창군 북상면 병곡리 27-3","openHours":"상시","maleToilets":3,"femaleToilets":2,"disabled":false,"diaperTable":false,"emergencyBell":false,"cctv":false,"managerTel":"0559407532","source":"public","category":"public"},{"id":"202454700000100250","name":"환승형차고지 화장실","lat":35.777114,"lng":127.818464,"roadAddr":"경상남도 거창군 북상면 갈계리 1488-2","jibunAddr":"경상남도 거창군 북상면 갈계리 1488-2","openHours":"상시","maleToilets":3,"femaleToilets":2,"disabled":true,"diaperTable":true,"emergencyBell":false,"cctv":true,"managerTel":"0559407532","source":"public","category":"public"}]