[{"id":"202447410000100298","name":"공정보건지소 앞 간이","lat":35.857446,"lng":127.678725,"jibunAddr":"전북특별자치도 무주군 안성면  공정리 2432","openHours":"상시","maleToilets":1,"femaleToilets":1,"disabled":false,"diaperTable":false,"emergencyBell":false,"cctv":false,"managerTel":"0633205943","source":"public","category":"public"},{"id":"202447410000100360","name":"솔내음산촌마을","lat":35.839271,"lng":127.688871,"roadAddr":"전북특별자치도 무주군 안성면 칠연로 504","openHours":"상시","maleToilets":2,"femaleToilets":1,"disabled":false,"diaperTable":false,"emergencyBell":false,"cctv":false,"managerTel":"0633202336","source":"public","category":"public"},{"id":"202447410000100301","name":"용추계곡 정각 옆 공용 이동식화장실","lat":35.842188,"lng":127.682694,"jibunAddr":"전북특별자치도 무주군 안성면  공정리 1223-3","openHours":"상시","maleToilets":1,"femaleToilets":1,"disabled":false,"diaperTable":false,"emergencyBell":false,"cctv":false,"managerTel":"0633205943","source":"public","category":"public"},{"id":"202447410000100322","name":"통안마을입구 소나무 옆 간이 이동식화장실","lat":35.836628,"lng":127.669278,"jibunAddr":"전북특별자치도 무주군 안성면  죽천리 2050","openHours":"상시","maleToilets":1,"femaleToilets":1,"disabled":false,"diaperTable":false,"emergencyBell":false,"cctv":false,"managerTel":"0633205943","source":"public","category":"public"},{"id":"202447410000100380","name":"안성면 공정보건진료소 화장실","lat":35.849285,"lng":127.676361,"roadAddr":"전북특별자치도 무주군 안성면 칠연로 338","openHours":"정시","maleToilets":3,"femaleToilets":1,"disabled":false,"diaperTable":false,"emergencyBell":false,"cctv":false,"managerTel":"0633230299","source":"public","category":"public"},{"id":"202447410000100302","name":"용추계곡 다리건너 공용 이동식화장실","lat":35.844986,"lng":127.681769,"jibunAddr":"전북특별자치도 무주군 안성면  공정리 2430","openHours":"상시","maleToilets":1,"femaleToilets":1,"disabled":false,"diaperTable":false,"emergencyBell":false,"cctv":false,"managerTel":"0633205943","source":"public","category":"public"}]