[{"id":"202454700000100077","name":"병곡마을 입구화장실","lat":35.809517,"lng":127.777005,"roadAddr":"경상남도 거창군 북상면 병곡리 744-5","jibunAddr":"경상남도 거창군 북상면 병곡리 744-5","openHours":"상시","maleToilets":2,"femaleToilets":2,"disabled":false,"diaperTable":false,"emergencyBell":false,"cctv":false,"managerTel":"0559407532","source":"public","category":"public"},{"id":"202454700000100221","name":"하창선숲 화장실","lat":35.771892,"lng":127.787313,"roadAddr":"경상남도 거창군 북상면 창선리 34","jibunAddr":"경상남도 거창군 북상면 창선리 34","openHours":"00:00~24:00","maleToilets":2,"femaleToilets":1,"disabled":false,"diaperTable":false,"emergencyBell":false,"cctv":false,"managerTel":"0559407513","source":"public","category":"public"},{"id":"202454700000100111","name":"노동마을 화장실","lat":35.782873,"lng":127.768168,"roadAddr":"경상남도 거창군 북상면 산수리 1428","jibunAddr":"경상남도 거창군 북상면 산수리 1428","openHours":"상시","maleToilets":2,"femaleToilets":1,"disabled":false,"diaperTable":false,"emergencyBell":false,"cctv":false,"managerTel":"0559407532","source":"public","category":"public"},{"id":"202454700000100013","name":"산수가든 위","lat":35.791508,"lng":127.758981,"roadAddr":"경상남도 거창군 북상면 산수리 874-1","jibunAddr":"경상남도 거창군 북상면 산수리 874-1","openHours":"상시","maleToilets":2,"femaleToilets":1,"disabled":false,"diaperTable":false,"emergencyBell":false,"cctv":false,"managerTel":"0559407532","source":"public","category":"public"},{"id":"202454700000100010","name":"병곡횟집앞화장실","lat":35.81401,"lng":127.771771,"roadAddr":"경상남도 거창군 북상면 병곡리 1009-1","jibunAddr":"경상남도 거창군 북상면 병곡리 1009-1","openHours":"상시","maleToilets":2,"femaleToilets":1,"disabled":false,"diaperTable":false,"emergencyBell":false,"cctv":false,"managerTel":"0559407532","source":"public","category":"public"},{"id":"202454700000100014","name":"회암대화장실","lat":35.779373,"lng":127.768565,"roadAddr":"경상남도 거창군 북상면 산수리 178-4","jibunAddr":"경상남도 거창군 북상면 산수리 178-4","openHours":"상시","maleToilets":2,"femaleToilets":2,"disabled":false,"diaperTable":false,"emergencyBell":false,"cctv":false,"managerTel":"0559407532","source":"public","category":"public"}]