[{"id":"202454700000100198","name":"고제면사무소 화장실","lat":35.814657,"lng":127.871628,"roadAddr":"경상남도 거창군 고제면 입석1길 14 (농산리, 고제면사무소)","jibunAddr":"경상남도 거창군 고제면 농산리 754-3","openHours":"09:00~18:00","maleToilets":5,"femaleToilets":2,"disabled":true,"diaperTable":false,"emergencyBell":false,"cctv":false,"managerTel":"0559407462","source":"public","category":"public"},{"id":"202454700000100202","name":"북부농협 고제지점 화장실","lat":35.814235,"lng":127.871869,"roadAddr":"경상남도 거창군 고제면 입석1길 7 (농산리, 북부농협)","jibunAddr":"경상남도 거창군 고제면 농산리 753-3","openHours":"09:00~18:00","maleToilets":4,"femaleToilets":2,"disabled":false,"diaperTable":false,"emergencyBell":false,"cctv":false,"managerTel":"0559427541","source":"public","category":"public"},{"id":"202454700000100200","name":"고제면보건지소 화장실","lat":35.814793,"lng":127.871819,"roadAddr":"경상남도 거창군 고제면 입석1길 6, 고제면보건소","jibunAddr":"경상남도 거창군 고제면 농산리 754-1","openHours":"09:00~18:00","maleToilets":5,"femaleToilets":2,"disabled":true,"diaperTable":false,"emergencyBell":false,"cctv":false,"managerTel":"0559408573","source":"public","category":"public"},{"id":"202454700000100283","name":"덕유산주유소화장실","lat":35.803324,"lng":127.875784,"roadAddr":"경상남도 거창군 주상면 빼재로 1224","jibunAddr":"경남 거창군 주상면 완대리 626-1","openHours":"09:00~18:00","maleToilets":3,"femaleToilets":1,"disabled":false,"diaperTable":false,"emergencyBell":false,"cctv":false,"managerTel":"0559427143","source":"public","category":"public"},{"id":"202454700000100255","name":"게이트볼장 화장실","lat":35.814919,"lng":127.87218,"roadAddr":"경상남도 거창군 고제면 고제로 72","jibunAddr":"경상남도 거창군 고제면 농산리 196-1","openHours":"상시","maleToilets":2,"femaleToilets":2,"disabled":false,"diaperTable":false,"emergencyBell":false,"cctv":false,"managerTel":"0559407482","source":"public","category":"public"},{"id":"202454700000100201","name":"고제면 보건지소 화장실","lat":35.814793,"lng":127.871819,"roadAddr":"경상남도 거창군 고제면 입석1길 6 (농산리, 고제면보건소)","jibunAddr":"경상남도 거창군 고제면 농산리 754-1","openHours":"09:00~18:00","maleToilets":5,"femaleToilets":3,"disabled":true,"diaperTable":false,"emergencyBell":false,"cctv":false,"managerTel":"0559408573","source":"public","category":"public"},{"id":"202454700000100199","name":"고제면 복지회관 화장실","lat":35.814657,"lng":127.871628,"roadAddr":"경상남도 거창군 고제면 입석1길 14 (농산리, 고제면사무소)","jibunAddr":"경상남도 거창군 고제면 농산리 754-3","openHours":"09:00~18:00","maleToilets":2,"femaleToilets":1,"disabled":false,"diaperTable":false,"emergencyBell":false,"cctv":false,"managerTel":"0559407462","source":"public","category":"public"},{"id":"202454700000100203","name":"고제우체국 화장실","lat":35.814074,"lng":127.871979,"roadAddr":"경상남도 거창군 고제면 입석2길 8 (농산리, 고제우체국)","jibunAddr":"경상남도 거창군 고제면 농산리 753-5","openHours":"09:00~18:00","maleToilets":2,"femaleToilets":1,"disabled":false,"diaperTable":false,"emergencyBell":false,"cctv":false,"managerTel":"0559427001","source":"public","category":"public"},{"id":"202454700000100232","name":"모동보건진료소 화장실","lat":35.775116,"lng":127.865557,"roadAddr":"경상남도 거창군 위천면 빼재로 881 (모동리, 모동보건진료소)","jibunAddr":"경남 거창군 위천면 모동리 287-2","openHours":"09:00~18:00","maleToilets":2,"femaleToilets":1,"disabled":true,"diaperTable":false,"emergencyBell":false,"cctv":false,"managerTel":"0559408667","source":"public","category":"public"}]