[{"id":"202546710000100479","name":"청암산(회현)화장실","lat":35.921366,"lng":126.748448,"jibunAddr":"전북특별자치도 군산시 회현면 세장리 465","openHours":"상시","maleToilets":6,"femaleToilets":5,"disabled":true,"diaperTable":false,"emergencyBell":true,"cctv":false,"source":"public","category":"public"},{"id":"202546710000100185","name":"회현우체국 1층 화장실","lat":35.912155,"lng":126.75529,"roadAddr":"전북특별자치도 군산시 회현면 대정리 69-1 대위로 431","openHours":"09:00~18:00","maleToilets":0,"femaleToilets":0,"disabled":false,"diaperTable":false,"emergencyBell":false,"cctv":false,"source":"public","category":"public"},{"id":"202546710000100566","name":"기타","lat":35.931147,"lng":126.760029,"roadAddr":"전북특별자치도 군산시 회현면 고사리 산88","openHours":"상시","maleToilets":4,"femaleToilets":4,"disabled":false,"diaperTable":true,"emergencyBell":false,"cctv":false,"managerTel":"0634544252","source":"public","category":"public"},{"id":"202546710000100361","name":"공원","lat":35.921366,"lng":126.748448,"jibunAddr":"전북특별자치도 군산시 회현면 세장리 465","openHours":"상시","maleToilets":4,"femaleToilets":3,"disabled":false,"diaperTable":true,"emergencyBell":true,"cctv":false,"source":"public","category":"public"},{"id":"202546710000100362","name":"공원","lat":35.936726,"lng":126.746899,"roadAddr":"전북특별자치도 군산시 옥산면 옥산신성길 53","jibunAddr":"전북특별자치도 군산시 옥산면 옥산리 683-1","openHours":"상시","maleToilets":6,"femaleToilets":5,"disabled":false,"diaperTable":false,"emergencyBell":true,"cctv":false,"source":"public","category":"public"},{"id":"202546710000100411","name":"옥산면사무소","lat":35.939464,"lng":126.748375,"roadAddr":"전북특별자치도 군산시 옥산면 산성로 200","jibunAddr":"전북특별자치도 군산시 옥산면 옥산리 23-39","openHours":"평일 09:00~18:00","maleToilets":3,"femaleToilets":2,"disabled":true,"diaperTable":false,"emergencyBell":false,"cctv":false,"managerTel":"0634547045","source":"public","category":"public"},{"id":"202546710000100304","name":"강서주유소","lat":35.914146,"lng":126.754023,"roadAddr":"전북특별자치도 군산시 회현면 회현로 155","openHours":"상시","maleToilets":0,"femaleToilets":0,"disabled":false,"diaperTable":false,"emergencyBell":false,"cctv":false,"managerTel":"0634668283","source":"public","category":"public"},{"id":"202546710000100480","name":"청암산(회현)화장실","lat":35.913478,"lng":126.756956,"roadAddr":"전북특별자치도 군산시 회현면 회현로 181 회현면사무소","jibunAddr":"전북특별자치도 군산시 회현면 대정리 23","openHours":"9시간","maleToilets":3,"femaleToilets":2,"disabled":true,"diaperTable":false,"emergencyBell":false,"cctv":false,"managerTel":"0634547070","source":"public","category":"public"},{"id":"202546710000100240","name":"옥산농협주유소","lat":35.941445,"lng":126.749165,"roadAddr":"전북특별자치도 군산시 옥산면 산성로 222","openHours":"상시","maleToilets":0,"femaleToilets":0,"disabled":false,"diaperTable":false,"emergencyBell":false,"cctv":false,"managerTel":"0634647473","source":"public","category":"public"}]