[{"id":"202546710000100252","name":"군산IC주유소","lat":35.982644,"lng":126.788051,"roadAddr":"전북특별자치도 군산시 성산면 군익로 111","openHours":"상시","maleToilets":0,"femaleToilets":0,"disabled":false,"diaperTable":false,"emergencyBell":false,"cctv":false,"managerTel":"0634535184","source":"public","category":"public"},{"id":"202546710000100255","name":"은성주유소","lat":35.989458,"lng":126.791238,"roadAddr":"전북특별자치도 군산시 성산면 동군산로 93","openHours":"상시","maleToilets":0,"femaleToilets":0,"disabled":false,"diaperTable":false,"emergencyBell":false,"cctv":false,"managerTel":"0634539111","source":"public","category":"public"},{"id":"202546710000100279","name":"그린주유소","lat":35.956089,"lng":126.792142,"roadAddr":"전북특별자치도 군산시 개정면 번영로 692","openHours":"상시","maleToilets":0,"femaleToilets":0,"disabled":false,"diaperTable":false,"emergencyBell":false,"cctv":false,"managerTel":"0634526344","source":"public","category":"public"},{"id":"202546710000100202","name":"군산ICLPG충전소","lat":35.982644,"lng":126.788051,"roadAddr":"전북특별자치도 군산시 성산면 군익로 111","openHours":"상시","maleToilets":0,"femaleToilets":0,"disabled":false,"diaperTable":false,"emergencyBell":false,"cctv":false,"managerTel":"0634535185","source":"public","category":"public"},{"id":"202546710000100393","name":"성산작은도서관","lat":35.989635,"lng":126.786008,"roadAddr":"전북특별자치도 군산시 성산면 송호로 222","jibunAddr":"전북특별자치도 군산시 성산면 고봉리 283-2","openHours":"8시간","maleToilets":2,"femaleToilets":1,"disabled":false,"diaperTable":false,"emergencyBell":false,"cctv":false,"managerTel":"0634545666","source":"public","category":"public"},{"id":"202546710000100189","name":"대야우체국 1층 정문화장실","lat":35.947305,"lng":126.809577,"roadAddr":"전북특별자치도 군산시 대야면 지경리 766-15 번영로 883","openHours":"09:00~18:00","maleToilets":4,"femaleToilets":2,"disabled":false,"diaperTable":false,"emergencyBell":false,"cctv":false,"source":"public","category":"public"},{"id":"202546710000100486","name":"개정면사무소","lat":35.958088,"lng":126.79656,"roadAddr":"전북특별자치도 군산시 개정면 바르메길 42","jibunAddr":"전북특별자치도 군산시 개정면 발산리 86-9","openHours":"9시간","maleToilets":3,"femaleToilets":1,"disabled":true,"diaperTable":false,"emergencyBell":false,"cctv":false,"managerTel":"0634547199","source":"public","category":"public"},{"id":"202546710000100295","name":"동영주유소","lat":35.984349,"lng":126.825667,"roadAddr":"전북특별자치도 군산시 성산면 동군산로 467","openHours":"상시","maleToilets":0,"femaleToilets":0,"disabled":false,"diaperTable":false,"emergencyBell":false,"cctv":false,"managerTel":"0634535134","source":"public","category":"public"},{"id":"202546710000100260","name":"성진주유소(군산)","lat":35.948138,"lng":126.805427,"roadAddr":"전북특별자치도 군산시 개정면 번영로 846","openHours":"상시","maleToilets":0,"femaleToilets":0,"disabled":false,"diaperTable":false,"emergencyBell":false,"cctv":false,"managerTel":"0634513151","source":"public","category":"public"}]