[{"id":"202246810000100129","name":"보석박물관","lat":35.990641,"lng":127.102539,"roadAddr":"전북특별자치도 익산시 왕궁면 호반로 8, 보석박물관","jibunAddr":"전북특별자치도 익산시 왕궁면 동용리 544-5번지","openHours":"보석박물관 전시실 (10~18시), 야외화장실 (24시)","maleToilets":41,"femaleToilets":18,"disabled":true,"diaperTable":true,"emergencyBell":true,"cctv":false,"managerTel":"0638594774","source":"public","category":"public"},{"id":"202246810000100262","name":"용남보건지소","lat":35.990988,"lng":127.099276,"roadAddr":"전북특별자치도 익산시 왕궁면 호반로 21-6","jibunAddr":"전북특별자치도 익산시 왕궁면 동용리 673-4번지","openHours":"(09:00~18:00)","maleToilets":0,"femaleToilets":0,"disabled":false,"diaperTable":false,"emergencyBell":false,"cctv":false,"managerTel":"0638324604","source":"public","category":"public"},{"id":"202246810000100256","name":"왕궁농공단지전시관","lat":35.988959,"lng":127.094649,"roadAddr":"전북특별자치도 익산시 왕궁면 왕궁농공단지길 7-39","jibunAddr":"전북특별자치도 익산시 왕궁면 광암리 1367번지","openHours":"(09:00~18:00)","maleToilets":2,"femaleToilets":2,"disabled":false,"diaperTable":false,"emergencyBell":false,"cctv":false,"managerTel":"0638352505","source":"public","category":"public"},{"id":"202246810000100299","name":"익산산림항공관리소","lat":35.95449,"lng":127.103131,"roadAddr":"전북특별자치도 익산시 왕궁면 우주로 433-9","jibunAddr":"전북특별자치도 익산시 왕궁면 흥암리 966","openHours":"9시간","maleToilets":12,"femaleToilets":2,"disabled":true,"diaperTable":false,"emergencyBell":false,"cctv":false,"managerTel":"0638604502","source":"public","category":"public"},{"id":"202447210000100137","name":"완주과학단지 우체국 화장실","lat":35.964576,"lng":127.127438,"roadAddr":"전북특별자치도 완주군 봉동읍 둔산3로 102, 전주우편집중국","jibunAddr":"전북특별자치도 완주군 봉동읍 둔산리 855-4 전주우편집중국","openHours":"정시","maleToilets":2,"femaleToilets":1,"disabled":false,"diaperTable":false,"emergencyBell":false,"cctv":false,"source":"public","category":"public"},{"id":"202447210000100066","name":"둔산공원-2","lat":35.962362,"lng":127.128728,"jibunAddr":"전북특별자치도 완주군 봉동읍 둔산리 881","openHours":"상시","maleToilets":2,"femaleToilets":1,"disabled":true,"diaperTable":false,"emergencyBell":true,"cctv":true,"source":"public","category":"public"},{"id":"202447210000100058","name":"완주군립 둔산영어도서관","lat":35.960905,"lng":127.123481,"roadAddr":"전북특별자치도 완주군 봉동읍 둔산2로 62","jibunAddr":"전북특별자치도 완주군 봉동읍 둔산리 898-1","openHours":"정시","maleToilets":10,"femaleToilets":10,"disabled":true,"diaperTable":false,"emergencyBell":false,"cctv":true,"source":"public","category":"public"},{"id":"202147210000100233","name":"삼봉주유소","lat":35.959823,"lng":127.133445,"roadAddr":"완주군 봉동읍 봉동로 551","openHours":"정시","maleToilets":3,"femaleToilets":1,"disabled":false,"diaperTable":false,"emergencyBell":false,"cctv":false,"source":"public","category":"public"},{"id":"202447210000100092","name":"완주군 반려동물 놀이터","lat":35.954293,"lng":127.115297,"jibunAddr":"전북특별자치도 완주군 봉동읍 둔산리 729-25","openHours":"상시","maleToilets":2,"femaleToilets":2,"disabled":false,"diaperTable":false,"emergencyBell":false,"cctv":false,"source":"public","category":"public"},{"id":"202147210000100173","name":"둔산공원-1","lat":35.960914,"lng":127.128404,"roadAddr":"완주군 봉동읍 둔산3로 94","openHours":"상시","maleToilets":3,"femaleToilets":3,"disabled":true,"diaperTable":false,"emergencyBell":false,"cctv":false,"source":"public","category":"public"},{"id":"202147210000100237","name":"봉실주유소","lat":35.96671,"lng":127.128916,"roadAddr":"완주군 봉동읍 봉동로 640","openHours":"정시","maleToilets":3,"femaleToilets":1,"disabled":false,"diaperTable":false,"emergencyBell":false,"cctv":false,"source":"public","category":"public"},{"id":"202447210000100138","name":"완주우편집중국 장애인화장실","lat":35.964576,"lng":127.127438,"roadAddr":"전북특별자치도 완주군 봉동읍 둔산3로 102, 전주우편집중국","jibunAddr":"전북특별자치도 완주군 봉동읍 둔산리 855-4 전주우편집중국","openHours":"정시","maleToilets":0,"femaleToilets":0,"disabled":true,"diaperTable":false,"emergencyBell":false,"cctv":false,"source":"public","category":"public"},{"id":"202147210000100229","name":"비전주유소","lat":35.977187,"lng":127.122169,"roadAddr":"완주군 봉동읍 봉동로 774","openHours":"상시","maleToilets":1,"femaleToilets":1,"disabled":false,"diaperTable":false,"emergencyBell":false,"cctv":false,"source":"public","category":"public"},{"id":"202147210000100172","name":"우동공원","lat":35.960905,"lng":127.123481,"roadAddr":"완주군 봉동읍 둔산2로 62","openHours":"상시","maleToilets":5,"femaleToilets":2,"disabled":true,"diaperTable":false,"emergencyBell":true,"cctv":false,"source":"public","category":"public"}]