[{"id":"202246810000100258","name":"왕궁리유적","lat":35.971561,"lng":127.055809,"roadAddr":"전북특별자치도 익산시 왕궁면 궁성로 666","jibunAddr":"전북특별자치도 익산시 왕궁면 왕궁리 562번지","openHours":"(09:00~18:00)","maleToilets":15,"femaleToilets":10,"disabled":true,"diaperTable":false,"emergencyBell":false,"cctv":false,"managerTel":"0638594631","source":"public","category":"public"},{"id":"202246810000100041","name":"금마터미널","lat":35.989832,"lng":127.053325,"roadAddr":"전북특별자치도 익산시 금마면 미륵사지로1길 35","jibunAddr":"전북특별자치도 익산시 금마면 동고도리 825-1","openHours":"(09:00~18:00)","maleToilets":2,"femaleToilets":2,"disabled":false,"diaperTable":false,"emergencyBell":false,"cctv":false,"source":"public","category":"public"},{"id":"202246810000100259","name":"왕궁면 행정복지센터","lat":35.966289,"lng":127.087521,"roadAddr":"전북특별자치도 익산시 왕궁면 흥암1길 14","jibunAddr":"전북특별자치도 익산시 왕궁면 흥암리 502-1","openHours":"(09:00~18:00)","maleToilets":6,"femaleToilets":3,"disabled":false,"diaperTable":false,"emergencyBell":false,"cctv":false,"managerTel":"0638324007","source":"public","category":"public"},{"id":"202346810000100003","name":"클러스터진흥원 본관1층 화장실","lat":35.98018,"lng":127.083244,"roadAddr":"전북특별자치도 익산시 왕궁면 국가식품로 100, 한국식품산업클러스터진흥원","jibunAddr":"전북특별자치도 익산시 왕궁면 광암리 1409 한국식품산업클러스터진흥원","openHours":"정시(09:00~18:00)","maleToilets":8,"femaleToilets":8,"disabled":false,"diaperTable":true,"emergencyBell":false,"cctv":true,"managerTel":"0637200537","source":"public","category":"public"},{"id":"202346810000100010","name":"국가식품클러스터2호공원 화장실","lat":35.985178,"lng":127.085888,"jibunAddr":"전북특별자치도 익산시 왕궁면 광암리 1472","openHours":"24시간","maleToilets":0,"femaleToilets":0,"disabled":true,"diaperTable":true,"emergencyBell":true,"cctv":false,"managerTel":"0638597294","source":"public","category":"public"},{"id":"202246810000100421","name":"흥암주유소","lat":35.963178,"lng":127.088309,"roadAddr":"전북특별자치도 익산시 왕궁로 494","jibunAddr":"전북특별자치도 익산시 왕궁면 흥암리 139-3번지","openHours":"(09:00~18:00)","maleToilets":2,"femaleToilets":1,"disabled":false,"diaperTable":false,"emergencyBell":false,"cctv":false,"managerTel":"0638324617","source":"public","category":"public"},{"id":"202346810000100004","name":"클러스터진흥원 장애인화장실","lat":35.98018,"lng":127.083244,"roadAddr":"전북특별자치도 익산시 왕궁면 국가식품로 100, 한국식품산업클러스터진흥원","jibunAddr":"전북특별자치도 익산시 왕궁면 광암리 1409 한국식품산업클러스터진흥원","openHours":"정시(09:00~18:00)","maleToilets":1,"femaleToilets":1,"disabled":false,"diaperTable":false,"emergencyBell":true,"cctv":false,"managerTel":"0637200537","source":"public","category":"public"},{"id":"202246810000100155","name":"상발보건지소","lat":35.952608,"lng":127.064119,"roadAddr":"전북특별자치도 익산시 왕궁면 발산길 107","jibunAddr":"전북특별자치도 익산시 왕궁면 발산리 248-1번지","openHours":"(09:00~18:00)","maleToilets":0,"femaleToilets":0,"disabled":false,"diaperTable":false,"emergencyBell":false,"cctv":false,"managerTel":"0638324874","source":"public","category":"public"},{"id":"202246810000100261","name":"왕궁파출소","lat":35.966809,"lng":127.089267,"roadAddr":"전북특별자치도 익산시 왕궁면 왕궁로 537","jibunAddr":"전북특별자치도 익산시 왕궁면 흥암리 507-2","openHours":"24시간","maleToilets":3,"femaleToilets":2,"disabled":true,"diaperTable":false,"emergencyBell":false,"cctv":false,"source":"public","category":"public"},{"id":"202246810000100260","name":"왕궁보건지소","lat":35.96631,"lng":127.087299,"roadAddr":"전북특별자치도 익산시 왕궁면 흥암1길 18","jibunAddr":"전북특별자치도 익산시 왕궁면 흥암리 416-1","openHours":"(09:00~18:00)","maleToilets":3,"femaleToilets":1,"disabled":true,"diaperTable":false,"emergencyBell":false,"cctv":false,"managerTel":"0638594262","source":"public","category":"public"},{"id":"202346810000100009","name":"국가식품클러스터1호공원 화장실","lat":35.979003,"lng":127.082969,"roadAddr":"전북특별자치도 익산시 왕궁면 푸드폴리스로6길 14","jibunAddr":"전북특별자치도 익산시 왕궁면 광암리 1474","openHours":"24시간","maleToilets":2,"femaleToilets":1,"disabled":true,"diaperTable":true,"emergencyBell":true,"cctv":false,"managerTel":"0638597294","source":"public","category":"public"}]