[{"id":"202546410000100021","name":"화정공원","lat":35.872642,"lng":127.137337,"roadAddr":"전북특별자치도 전주시 덕진구 백석로 40 (송천동2가)","jibunAddr":"전북특별자치도 전주시 덕진구 송천동2가1356","openHours":"상시","maleToilets":3,"femaleToilets":2,"disabled":true,"diaperTable":true,"emergencyBell":true,"cctv":false,"managerTel":"0632706319","source":"public","category":"public"},{"id":"202546410000100210","name":"호성동주민센터","lat":35.863683,"lng":127.149617,"roadAddr":"전북특별자치도 전주시  덕진구 동부대로 869","openHours":"정시","maleToilets":23,"femaleToilets":10,"disabled":true,"diaperTable":false,"emergencyBell":true,"cctv":false,"managerTel":"0632797304","source":"public","category":"public"},{"id":"202546410000100164","name":"차량등록과 화장실","lat":35.867447,"lng":127.147534,"roadAddr":"전북특별자치도 전주시 덕진구 완주로 6","jibunAddr":"전북특별자치도 전주시 덕진구 호성동2가 631-12","openHours":"정시","maleToilets":4,"femaleToilets":1,"disabled":true,"diaperTable":true,"emergencyBell":false,"cctv":false,"managerTel":"0632508822","source":"public","category":"public"},{"id":"202546410000100020","name":"건지산(강씨제각)","lat":35.85966,"lng":127.146474,"roadAddr":"전북특별자치도 전주시 덕진구 호성로 97","jibunAddr":"전북특별자치도 전주시 덕진구 호성동1가산29-1","openHours":"상시","maleToilets":4,"femaleToilets":4,"disabled":true,"diaperTable":false,"emergencyBell":true,"cctv":false,"managerTel":"0632706319","source":"public","category":"public"},{"id":"202147210000100213","name":"(주)완주아이씨주유소","lat":35.889053,"lng":127.156686,"roadAddr":"완주군 용진읍 완주로 268","openHours":"상시","maleToilets":2,"femaleToilets":1,"disabled":false,"diaperTable":false,"emergencyBell":false,"cctv":false,"source":"public","category":"public"},{"id":"202447210000100007","name":"용진읍 행정복지센터","lat":35.883564,"lng":127.156939,"roadAddr":"전북특별자치도 완주군 용진읍 완주로 210","jibunAddr":"전북특별자치도 완주군 용진읍 용흥리 819","openHours":"정시","maleToilets":12,"femaleToilets":21,"disabled":true,"diaperTable":false,"emergencyBell":false,"cctv":false,"source":"public","category":"public"},{"id":"202447210000100033","name":"고향주유소","lat":35.861948,"lng":127.174556,"roadAddr":"전북특별자치도 완주군 용진읍 하이1길 1","jibunAddr":"전북특별자치도 완주군 용진읍 구억리 184-1","openHours":"정시","maleToilets":2,"femaleToilets":2,"disabled":false,"diaperTable":false,"emergencyBell":false,"cctv":false,"source":"public","category":"public"},{"id":"202447210000100041","name":"용진에너지","lat":35.878163,"lng":127.155762,"roadAddr":"전북특별자치도 완주군 용진읍 초포다리로 259","jibunAddr":"전북특별자치도 완주군 용진읍 상운리 41-5","openHours":"상시","maleToilets":2,"femaleToilets":1,"disabled":false,"diaperTable":false,"emergencyBell":false,"cctv":false,"source":"public","category":"public"},{"id":"202447210000100098","name":"용진 카풀주차장","lat":35.883564,"lng":127.156939,"jibunAddr":"전북특별자치도 완주군 용진읍 용흥리 842","openHours":"상시","maleToilets":2,"femaleToilets":2,"disabled":false,"diaperTable":false,"emergencyBell":true,"cctv":false,"source":"public","category":"public"},{"id":"202447210000100097","name":"운곡지구 공원","lat":35.903167,"lng":127.161246,"jibunAddr":"전북특별자치도 완주군 용진읍 운곡리 1180","openHours":"상시","maleToilets":2,"femaleToilets":2,"disabled":true,"diaperTable":true,"emergencyBell":true,"cctv":false,"source":"public","category":"public"},{"id":"202147210000100240","name":"탄탄대로주유소","lat":35.902631,"lng":127.157155,"roadAddr":"완주군 봉동읍 완주로 420","openHours":"정시","maleToilets":2,"femaleToilets":1,"disabled":false,"diaperTable":false,"emergencyBell":false,"cctv":false,"source":"public","category":"public"},{"id":"202447210000100024","name":"용진주유소","lat":35.87815,"lng":127.15684,"roadAddr":"전북특별자치도 완주군 용진읍 초포다리로 258","jibunAddr":"전북특별자치도 완주군 용진읍 구억리 787-1","openHours":"상시","maleToilets":2,"femaleToilets":2,"disabled":false,"diaperTable":false,"emergencyBell":false,"cctv":false,"source":"public","category":"public"}]