[{"id":"202147210000100228","name":"믿음주유소","lat":35.908501,"lng":127.093166,"roadAddr":"완주군 삼례읍 삼례나들목로 162","openHours":"상시","maleToilets":2,"femaleToilets":1,"disabled":false,"diaperTable":false,"emergencyBell":false,"cctv":false,"source":"public","category":"public"},{"id":"202447210000100063","name":"중앙공원-2","lat":35.943081,"lng":127.126841,"jibunAddr":"전북특별자치도 완주군 봉동읍 용암리 823","openHours":"상시","maleToilets":5,"femaleToilets":6,"disabled":true,"diaperTable":false,"emergencyBell":true,"cctv":true,"source":"public","category":"public"},{"id":"202447210000100134","name":"완주군산업단지사무소","lat":35.945174,"lng":127.126443,"roadAddr":"전북특별자치도 완주군 봉동읍 과학로 850-15, 완주산업단지사무소","jibunAddr":"전북특별자치도 완주군 봉동읍 용암리 808 완주산업단지사무소","openHours":"정시","maleToilets":14,"femaleToilets":6,"disabled":false,"diaperTable":false,"emergencyBell":false,"cctv":false,"source":"public","category":"public"},{"id":"202447210000100065","name":"다복공원","lat":35.939555,"lng":127.13192,"jibunAddr":"전북특별자치도 완주군 봉동읍 용암리 840","openHours":"상시","maleToilets":8,"femaleToilets":6,"disabled":true,"diaperTable":false,"emergencyBell":false,"cctv":false,"source":"public","category":"public"},{"id":"202447210000100056","name":"완주향토예술문화회관","lat":35.9199,"lng":127.093377,"roadAddr":"전북특별자치도 완주군 삼례읍 삼봉로 215, 문화체육센터,향토문화예술회관","jibunAddr":"전북특별자치도 완주군 삼례읍 신금리 416-3 문화체육센터,향토문화예술회관","openHours":"미개방","maleToilets":12,"femaleToilets":6,"disabled":false,"diaperTable":false,"emergencyBell":false,"cctv":false,"source":"public","category":"public"},{"id":"202447210000100060","name":"완주군립삼례도서관","lat":35.9199,"lng":127.093377,"roadAddr":"전북특별자치도 완주군 삼례읍 삼봉로 215-12, 완주군립삼례도서관","jibunAddr":"전북특별자치도 완주군 삼례읍 신금리 산 71-1 완주군립삼례도서관","openHours":"정시","maleToilets":7,"femaleToilets":3,"disabled":true,"diaperTable":false,"emergencyBell":false,"cctv":true,"source":"public","category":"public"},{"id":"202347210000100008","name":"완주소방서 1층 화장실","lat":35.926373,"lng":127.124157,"roadAddr":"전북특별자치도 완주군 삼례읍 삼봉로 518, 완주소방서","jibunAddr":"전북특별자치도 완주군 삼례읍 수계리 325-1 완주소방서","openHours":"상시","maleToilets":7,"femaleToilets":4,"disabled":true,"diaperTable":true,"emergencyBell":false,"cctv":false,"managerTel":"0632900221","source":"public","category":"public"},{"id":"202447210000100002","name":"완주군 보건소","lat":35.92195,"lng":127.122039,"roadAddr":"전북특별자치도 완주군 삼례읍 삼봉8로 10-10","jibunAddr":"전북특별자치도 완주군 삼례읍 수계리 1242-1","openHours":"정시","maleToilets":14,"femaleToilets":14,"disabled":true,"diaperTable":true,"emergencyBell":false,"cctv":false,"source":"public","category":"public"},{"id":"202447210000100062","name":"중앙공원-1","lat":35.943081,"lng":127.126841,"jibunAddr":"전북특별자치도 완주군 봉동읍 용암리 823","openHours":"상시","maleToilets":5,"femaleToilets":3,"disabled":true,"diaperTable":false,"emergencyBell":false,"cctv":false,"source":"public","category":"public"},{"id":"202447210000100075","name":"삼례 근린공원 5호(감돌숲공원)","lat":35.918735,"lng":127.114775,"roadAddr":"전북특별자치도 완주군 삼례읍 신기길 29","jibunAddr":"전북특별자치도 완주군 삼례읍 수계리 1345","openHours":"상시","maleToilets":5,"femaleToilets":8,"disabled":false,"diaperTable":true,"emergencyBell":true,"cctv":true,"source":"public","category":"public"},{"id":"202147210000100234","name":"현대3공단주유소","lat":35.944187,"lng":127.125708,"roadAddr":"완주군 봉동읍 과학로 842","openHours":"상시","maleToilets":4,"femaleToilets":2,"disabled":false,"diaperTable":false,"emergencyBell":false,"cctv":false,"source":"public","category":"public"},{"id":"202247210000100007","name":"만경강 산책로 공중화장실","lat":35.90903,"lng":127.130689,"jibunAddr":"전북특별자치도 완주군 삼례읍 신탁리 121-1","openHours":"상시","maleToilets":2,"femaleToilets":2,"disabled":false,"diaperTable":false,"emergencyBell":true,"cctv":false,"managerTel":"0632902606","source":"public","category":"public"},{"id":"202447210000100020","name":"완주 졸음쉼터(익산방향)","lat":35.928055,"lng":127.101189,"jibunAddr":"전북특별자치도 완주군 삼례읍 석전리 80-16","openHours":"상시","maleToilets":2,"femaleToilets":2,"disabled":false,"diaperTable":false,"emergencyBell":false,"cctv":false,"source":"public","category":"public"},{"id":"202647210000100001","name":"고운삼봉도서관","lat":35.921578,"lng":127.11926,"roadAddr":"전북특별자치도 완주군 삼례읍 삼봉중앙로 55, 고운삼봉도서관","jibunAddr":"전북특별자치도 완주군 삼례읍 수계리 1229-2 고운삼봉도서관","openHours":"상시","maleToilets":15,"femaleToilets":18,"disabled":true,"diaperTable":true,"emergencyBell":true,"cctv":false,"managerTel":"0632902285","source":"public","category":"public"},{"id":"202147210000100239","name":"유한회사 고려유업","lat":35.93596,"lng":127.12489,"roadAddr":"완주군 봉동읍 과학로 755","openHours":"정시","maleToilets":6,"femaleToilets":1,"disabled":false,"diaperTable":false,"emergencyBell":false,"cctv":false,"source":"public","category":"public"},{"id":"202447210000100021","name":"완주 졸음쉼터(장수방향)","lat":35.928388,"lng":127.100781,"jibunAddr":"전북특별자치도 완주군 삼례읍 석전리 80-14","openHours":"상시","maleToilets":2,"femaleToilets":2,"disabled":false,"diaperTable":false,"emergencyBell":false,"cctv":false,"source":"public","category":"public"},{"id":"202147210000100171","name":"명동자연공원","lat":35.944683,"lng":127.118155,"roadAddr":"완주군 봉동읍 용암리 818","openHours":"상시","maleToilets":9,"femaleToilets":6,"disabled":true,"diaperTable":false,"emergencyBell":true,"cctv":false,"source":"public","category":"public"},{"id":"202147210000100226","name":"참조은주유소","lat":35.912022,"lng":127.125506,"roadAddr":"완주군 삼례읍 과학로 488","openHours":"상시","maleToilets":2,"femaleToilets":0,"disabled":false,"diaperTable":false,"emergencyBell":false,"cctv":false,"source":"public","category":"public"}]