[{"id":"202546410000100224","name":"여의동주민센터(쪽구름 도서관 내)","lat":35.871398,"lng":127.075621,"roadAddr":"전북특별자치도 전주시 덕진구 여암2길 9","openHours":"09:00-18:00","maleToilets":32,"femaleToilets":22,"disabled":true,"diaperTable":true,"emergencyBell":false,"cctv":false,"managerTel":"0632816522","source":"public","category":"public"},{"id":"202546410000100029","name":"나들목가족공원(2)","lat":35.875982,"lng":127.056407,"roadAddr":"전북특별자치도 전주시 덕진구 번영로 455","jibunAddr":"전북특별자치도 전주시 덕진구 용정동124-82","openHours":"상시","maleToilets":3,"femaleToilets":2,"disabled":false,"diaperTable":false,"emergencyBell":true,"cctv":false,"managerTel":"0632706319","source":"public","category":"public"},{"id":"202546410000100238","name":"월드컵경기장 동남쪽 야외화장실","lat":35.868089,"lng":127.064478,"roadAddr":"전북특별자치도 전주시 덕진구 기린대로 1055","jibunAddr":"전북특별자치도 전주시 덕진구 반월동 763-1","openHours":"상시","maleToilets":8,"femaleToilets":6,"disabled":true,"diaperTable":true,"emergencyBell":true,"cctv":false,"managerTel":"0632632673","source":"public","category":"public"},{"id":"202546410000100124","name":"쪽구름도서관 화장실","lat":35.871398,"lng":127.075621,"roadAddr":"전북특별자치도 전주시 덕진구 여암2길 9","openHours":"09:00-18:00","maleToilets":8,"femaleToilets":9,"disabled":true,"diaperTable":true,"emergencyBell":true,"cctv":false,"managerTel":"0632816522","source":"public","category":"public"},{"id":"202546410000100204","name":"조촌동주민센터 화장실","lat":35.874524,"lng":127.069172,"roadAddr":"전북특별자치도 전주시 덕진구 쪽구름로 150","jibunAddr":"전북특별자치도 전주시 덕진구 반월동 394","openHours":"09:00-18:00","maleToilets":10,"femaleToilets":6,"disabled":true,"diaperTable":false,"emergencyBell":true,"cctv":false,"managerTel":"0632706614","source":"public","category":"public"},{"id":"202546410000100237","name":"월드컵경기장 남쪽 야외화장실","lat":35.868089,"lng":127.064478,"roadAddr":"전북특별자치도 전주시 덕진구 기린대로 1055","jibunAddr":"전북특별자치도 전주시 덕진구 반월동 763-1","openHours":"상시","maleToilets":6,"femaleToilets":4,"disabled":true,"diaperTable":true,"emergencyBell":true,"cctv":false,"managerTel":"0632632673","source":"public","category":"public"},{"id":"202546410000100028","name":"나들목가족공원(1)","lat":35.875982,"lng":127.056407,"roadAddr":"전북특별자치도 전주시 덕진구 번영로 455","jibunAddr":"전북특별자치도 전주시 덕진구 용정동124-82","openHours":"상시","maleToilets":3,"femaleToilets":3,"disabled":true,"diaperTable":false,"emergencyBell":true,"cctv":false,"managerTel":"0632706319","source":"public","category":"public"},{"id":"202546410000100239","name":"월드컵경기장 동쪽 야외화장실","lat":35.868089,"lng":127.064478,"roadAddr":"전북특별자치도 전주시 덕진구 기린대로 1055","jibunAddr":"전북특별자치도 전주시 덕진구 반월동 763-1","openHours":"상시","maleToilets":9,"femaleToilets":4,"disabled":true,"diaperTable":true,"emergencyBell":true,"cctv":false,"managerTel":"0632632673","source":"public","category":"public"},{"id":"202447210000100074","name":"비비정 상생 도시숲","lat":35.900444,"lng":127.069445,"jibunAddr":"전북특별자치도 완주군 삼례읍 후정리 123-146","openHours":"상시","maleToilets":1,"femaleToilets":1,"disabled":true,"diaperTable":false,"emergencyBell":true,"cctv":true,"source":"public","category":"public"},{"id":"202447210000100018","name":"삼례 졸음쉼터","lat":35.902278,"lng":127.05755,"jibunAddr":"전북특별자치도 완주군 삼례읍 해전리 4-20","openHours":"상시","maleToilets":2,"femaleToilets":2,"disabled":false,"diaperTable":false,"emergencyBell":false,"cctv":false,"source":"public","category":"public"},{"id":"202447210000100080","name":"금와습지 생태공원","lat":35.902942,"lng":127.062294,"jibunAddr":"전북특별자치도 완주군 삼례읍 후정리 161-1","openHours":"상시","maleToilets":3,"femaleToilets":3,"disabled":false,"diaperTable":false,"emergencyBell":false,"cctv":false,"source":"public","category":"public"}]