[{"id":"202445400000100066","name":"마산1리 공원","lat":36.127974,"lng":127.10205,"roadAddr":"충청남도 논산시 연무읍 득안대로 647","openHours":"상시","maleToilets":3,"femaleToilets":3,"disabled":false,"diaperTable":false,"emergencyBell":false,"cctv":false,"source":"public","category":"public"},{"id":"202445400000100007","name":"연무금호고속터미널","lat":36.133955,"lng":127.099685,"roadAddr":"충청남도 논산시 연무읍 안심로 143","openHours":"정시","maleToilets":4,"femaleToilets":4,"disabled":false,"diaperTable":false,"emergencyBell":false,"cctv":false,"source":"public","category":"public"},{"id":"202445400000100055","name":"쌈지숲공원","lat":36.133149,"lng":127.100791,"roadAddr":"충청남도 논산시 연무읍 안심로 144","openHours":"상시","maleToilets":3,"femaleToilets":3,"disabled":true,"diaperTable":false,"emergencyBell":false,"cctv":false,"source":"public","category":"public"},{"id":"202445400000100050","name":"안심시장E","lat":36.130217,"lng":127.097991,"roadAddr":"충청남도 논산시 연무읍 연무로166번길 7-17","openHours":"상시","maleToilets":4,"femaleToilets":3,"disabled":false,"diaperTable":false,"emergencyBell":false,"cctv":false,"source":"public","category":"public"},{"id":"202445400000100051","name":"연무안심시장 공설장옥","lat":36.129806,"lng":127.097888,"roadAddr":"충청남도 논산시 연무읍 연무로166번길 7-19, 연무안심시장","jibunAddr":"충청남도 논산시 연무읍 안심리 14-8 연무안심시장","openHours":"상시","maleToilets":8,"femaleToilets":4,"disabled":true,"diaperTable":false,"emergencyBell":false,"cctv":false,"source":"public","category":"public"},{"id":"202445400000100053","name":"안심시장 주차장","lat":36.128839,"lng":127.098819,"roadAddr":"충청남도 논산시 연무읍 안심리 19-38","openHours":"상시","maleToilets":4,"femaleToilets":3,"disabled":true,"diaperTable":false,"emergencyBell":false,"cctv":false,"source":"public","category":"public"},{"id":"202445400000100052","name":"안심시장B","lat":36.129806,"lng":127.097888,"roadAddr":"충청남도 논산시 연무읍 연무로166번길 7-19","openHours":"상시","maleToilets":6,"femaleToilets":3,"disabled":true,"diaperTable":false,"emergencyBell":false,"cctv":false,"source":"public","category":"public"},{"id":"202445400000100006","name":"행복가득주유소","lat":36.133761,"lng":127.107232,"roadAddr":"충청남도 논산시 연무읍 득안대로 730","openHours":"정시","maleToilets":4,"femaleToilets":2,"disabled":false,"diaperTable":false,"emergencyBell":false,"cctv":false,"source":"public","category":"public"}]