[{"id":"202346810000100012","name":"용동체육공원 게이트볼장 화장실","lat":36.109377,"lng":126.993327,"roadAddr":"전북특별자치도 익산시 용동면 용동1길 80-12, 게이트볼장","jibunAddr":"전북특별자치도 익산시 용동면 대조리 821-3 게이트볼장","openHours":"상시","maleToilets":2,"femaleToilets":2,"disabled":false,"diaperTable":false,"emergencyBell":true,"cctv":false,"source":"public","category":"public"},{"id":"202246810000100347","name":"차량등록사업소","lat":36.082476,"lng":126.966692,"roadAddr":"전북특별자치도 익산시 익산대로 1841","jibunAddr":"전북특별자치도 익산시 함열읍 와리 294-126번지","openHours":"(09:00~18:00)","maleToilets":8,"femaleToilets":4,"disabled":true,"diaperTable":false,"emergencyBell":false,"cctv":false,"managerTel":"0638594652","source":"public","category":"public"},{"id":"202246810000100218","name":"양촌보건지소","lat":36.093769,"lng":126.995913,"roadAddr":"전북특별자치도 익산시 용동면 화왕로 190","jibunAddr":"전북특별자치도 익산시 용동면 화실리 23-1번지","openHours":"(09:00~18:00)","maleToilets":0,"femaleToilets":0,"disabled":false,"diaperTable":false,"emergencyBell":false,"cctv":false,"managerTel":"0638624061","source":"public","category":"public"},{"id":"202246810000100151","name":"삼세오충열사","lat":36.119062,"lng":126.96112,"roadAddr":"전북특별자치도 익산시 용안면 현내로 448-29","jibunAddr":"전북특별자치도 익산시 용안면 중신리 131-5","openHours":"상시개방","maleToilets":9,"femaleToilets":4,"disabled":false,"diaperTable":false,"emergencyBell":false,"cctv":false,"source":"public","category":"public"},{"id":"202246810000100400","name":"함열동지산공원 화장실","lat":36.084239,"lng":126.958088,"roadAddr":"전북특별자치도 익산시 함열읍 함열3길 87-50","jibunAddr":"전북특별자치도 익산시 함열읍 와리 532-6","openHours":"24시간","maleToilets":2,"femaleToilets":2,"disabled":false,"diaperTable":false,"emergencyBell":true,"cctv":false,"managerTel":"0638597294","source":"public","category":"public"},{"id":"202246810000100263","name":"용동보건지소","lat":36.110054,"lng":126.992739,"roadAddr":"전북특별자치도 익산시 용동면 용동1길 80-29","jibunAddr":"전북특별자치도 익산시 용동면 대조리 817-1번지","openHours":"(09:00~18:00)","maleToilets":2,"femaleToilets":2,"disabled":true,"diaperTable":false,"emergencyBell":false,"cctv":false,"managerTel":"0638594265","source":"public","category":"public"},{"id":"202246810000100265","name":"용동파출소","lat":36.109911,"lng":126.992469,"roadAddr":"전북특별자치도 익산시 용동면 용동1길 80-27","jibunAddr":"전북특별자치도 익산시 용동면 대조리 816-4","openHours":"24시간","maleToilets":2,"femaleToilets":1,"disabled":true,"diaperTable":false,"emergencyBell":false,"cctv":false,"source":"public","category":"public"}]