[{"id":"202445400000100028","name":"충령탑","lat":36.19044,"lng":127.077647,"roadAddr":"충청남도 논산시 강산동 499-3","openHours":"상시","maleToilets":3,"femaleToilets":2,"disabled":false,"diaperTable":true,"emergencyBell":false,"cctv":false,"source":"public","category":"public"},{"id":"202445400000100038","name":"오거리시민공원","lat":36.202051,"lng":127.086235,"roadAddr":"충청남도 논산시 취암동 621-59","openHours":"상시","maleToilets":3,"femaleToilets":2,"disabled":false,"diaperTable":false,"emergencyBell":false,"cctv":false,"source":"public","category":"public"},{"id":"202445400000100020","name":"화지시장(건축형)","lat":36.207693,"lng":127.084485,"roadAddr":"충청남도 논산시 대화로70번길 7-3","openHours":"상시","maleToilets":6,"femaleToilets":5,"disabled":true,"diaperTable":false,"emergencyBell":false,"cctv":false,"source":"public","category":"public"},{"id":"202445400000100077","name":"논산대교","lat":36.208374,"lng":127.078813,"roadAddr":"충청남도 논산시 대교동 319","openHours":"상시","maleToilets":4,"femaleToilets":2,"disabled":true,"diaperTable":false,"emergencyBell":false,"cctv":false,"source":"public","category":"public"},{"id":"202445400000100021","name":"화지시장 첨단간이","lat":36.206623,"lng":127.084315,"roadAddr":"충청남도 논산시 중앙로 486","openHours":"상시","maleToilets":4,"femaleToilets":4,"disabled":true,"diaperTable":false,"emergencyBell":false,"cctv":false,"source":"public","category":"public"},{"id":"202445400000100003","name":"강산대로","lat":36.188286,"lng":127.087944,"roadAddr":"충청남도 논산시 강산동 666","openHours":"상시","maleToilets":3,"femaleToilets":2,"disabled":true,"diaperTable":false,"emergencyBell":false,"cctv":false,"source":"public","category":"public"},{"id":"202445400000100014","name":"야화리","lat":36.167923,"lng":127.065994,"roadAddr":"충청남도 논산시 채운면 야화리 86-1","openHours":"상시","maleToilets":3,"femaleToilets":3,"disabled":true,"diaperTable":false,"emergencyBell":false,"cctv":false,"source":"public","category":"public"},{"id":"202445400000100019","name":"화지시장 제1주차장","lat":36.208359,"lng":127.086037,"roadAddr":"충청남도 논산시 화지동 41-119","openHours":"상시","maleToilets":6,"femaleToilets":9,"disabled":true,"diaperTable":false,"emergencyBell":false,"cctv":false,"source":"public","category":"public"},{"id":"202445400000100002","name":"2호 공원","lat":36.209919,"lng":127.088651,"roadAddr":"충청남도 대교동 250-22","openHours":"상시","maleToilets":4,"femaleToilets":3,"disabled":true,"diaperTable":true,"emergencyBell":false,"cctv":false,"source":"public","category":"public"},{"id":"202445400000100107","name":"13호 공원","lat":36.19231,"lng":127.089656,"roadAddr":"충청남도 논산시 시민로307번길 18","openHours":"상시","maleToilets":2,"femaleToilets":2,"disabled":false,"diaperTable":false,"emergencyBell":false,"cctv":false,"source":"public","category":"public"},{"id":"202445400000100108","name":"12호 공원","lat":36.193268,"lng":127.086171,"roadAddr":"충청남도 논산시 구르뫼1길 30-22","openHours":"상시","maleToilets":3,"femaleToilets":3,"disabled":true,"diaperTable":false,"emergencyBell":false,"cctv":false,"source":"public","category":"public"},{"id":"202445400000100027","name":"취암동행정복지센터 화장실","lat":36.199625,"lng":127.087049,"roadAddr":"충청남도 논산시 시민로 389","openHours":"정시","maleToilets":12,"femaleToilets":5,"disabled":true,"diaperTable":false,"emergencyBell":false,"cctv":false,"source":"public","category":"public"},{"id":"202445400000100109","name":"11호 공원","lat":36.194598,"lng":127.087693,"roadAddr":"충청남도 논산시 강산동 560","openHours":"상시","maleToilets":3,"femaleToilets":2,"disabled":true,"diaperTable":false,"emergencyBell":false,"cctv":false,"source":"public","category":"public"},{"id":"202445400000100110","name":"10호 공원","lat":36.199946,"lng":127.08976,"roadAddr":"충청남도 논산시 중앙로398번길 4-3","openHours":"상시","maleToilets":3,"femaleToilets":2,"disabled":true,"diaperTable":false,"emergencyBell":false,"cctv":false,"source":"public","category":"public"},{"id":"202445400000100091","name":"공설시장A","lat":36.20747,"lng":127.084271,"roadAddr":"충청남도 논산시 대화로70번길 10-1","openHours":"상시","maleToilets":4,"femaleToilets":5,"disabled":false,"diaperTable":false,"emergencyBell":false,"cctv":false,"source":"public","category":"public"}]