[{"id":"202445400000100099","name":"8호 공원","lat":36.205726,"lng":127.093924,"roadAddr":"충청남도 논산시 취암동 1034-1","openHours":"상시","maleToilets":0,"femaleToilets":0,"disabled":false,"diaperTable":false,"emergencyBell":false,"cctv":false,"source":"public","category":"public"},{"id":"202445400000100103","name":"17호 공원","lat":36.186645,"lng":127.103216,"roadAddr":"충청남도 논산시 중앙로198번길 5-6","openHours":"상시","maleToilets":3,"femaleToilets":3,"disabled":true,"diaperTable":false,"emergencyBell":false,"cctv":false,"source":"public","category":"public"},{"id":"202445400000100016","name":"복음자리주택지구 놀이터","lat":36.178536,"lng":127.104404,"roadAddr":"충청남도 논산시 내동 1110","openHours":"상시","maleToilets":3,"femaleToilets":3,"disabled":true,"diaperTable":true,"emergencyBell":false,"cctv":false,"source":"public","category":"public"},{"id":"202445400000100102","name":"20호 공원","lat":36.191354,"lng":127.097024,"roadAddr":"충청남도 논산시 내동 272-3","openHours":"상시","maleToilets":4,"femaleToilets":4,"disabled":false,"diaperTable":false,"emergencyBell":false,"cctv":false,"source":"public","category":"public"},{"id":"202445400000100078","name":"내동근린공원","lat":36.181771,"lng":127.105611,"roadAddr":"충청남도 논산시 내동 1115","openHours":"상시","maleToilets":6,"femaleToilets":6,"disabled":true,"diaperTable":true,"emergencyBell":false,"cctv":false,"source":"public","category":"public"},{"id":"202445400000100057","name":"시민공원(물레방아)","lat":36.194989,"lng":127.10725,"roadAddr":"충청남도 논산시 관촉동 314","openHours":"상시","maleToilets":6,"femaleToilets":6,"disabled":true,"diaperTable":false,"emergencyBell":false,"cctv":false,"source":"public","category":"public"},{"id":"202445400000100090","name":"공설운동장(상)","lat":36.194987,"lng":127.101922,"roadAddr":"충청남도 논산시 체육로 110","openHours":"상시","maleToilets":8,"femaleToilets":12,"disabled":true,"diaperTable":false,"emergencyBell":false,"cctv":false,"source":"public","category":"public"},{"id":"202445400000100104","name":"16호 공원","lat":36.184317,"lng":127.099378,"roadAddr":"충청남도 논산시 내동 916","openHours":"상시","maleToilets":5,"femaleToilets":2,"disabled":false,"diaperTable":false,"emergencyBell":false,"cctv":false,"source":"public","category":"public"},{"id":"202445400000100056","name":"시민공원(잠자리)","lat":36.194989,"lng":127.10725,"roadAddr":"충청남도 논산시 관촉동 314","openHours":"상시","maleToilets":3,"femaleToilets":3,"disabled":false,"diaperTable":false,"emergencyBell":false,"cctv":false,"source":"public","category":"public"},{"id":"202445400000100058","name":"시민공원(건축형)","lat":36.194989,"lng":127.10725,"roadAddr":"충청남도 논산시 관촉동 314","openHours":"상시","maleToilets":7,"femaleToilets":7,"disabled":false,"diaperTable":true,"emergencyBell":false,"cctv":false,"source":"public","category":"public"},{"id":"202445400000100105","name":"제15호 공원","lat":36.187464,"lng":127.100052,"roadAddr":"충청남도 논산시 시민로210번길 37-11","openHours":"상시","maleToilets":2,"femaleToilets":3,"disabled":true,"diaperTable":false,"emergencyBell":true,"cctv":false,"source":"public","category":"public"},{"id":"202445400000100089","name":"공설운동장(하)","lat":36.194987,"lng":127.101922,"roadAddr":"충청남도 논산시 체육로 110","openHours":"상시","maleToilets":6,"femaleToilets":9,"disabled":true,"diaperTable":false,"emergencyBell":false,"cctv":false,"source":"public","category":"public"},{"id":"202445400000100098","name":"9호 공원","lat":36.202481,"lng":127.091107,"roadAddr":"충청남도 논산시 관촉로277번길 23-15","openHours":"상시","maleToilets":0,"femaleToilets":0,"disabled":false,"diaperTable":false,"emergencyBell":false,"cctv":false,"source":"public","category":"public"},{"id":"202445400000100059","name":"시내버스터미널","lat":36.209157,"lng":127.0934,"roadAddr":"충청남도 논산시 화지동 24-33","openHours":"상시","maleToilets":4,"femaleToilets":4,"disabled":true,"diaperTable":false,"emergencyBell":false,"cctv":false,"source":"public","category":"public"},{"id":"202445400000100076","name":"논산문화예술회관 공중화장실","lat":36.190954,"lng":127.095144,"roadAddr":"충청남도 논산시 시민로 270","openHours":"정시","maleToilets":14,"femaleToilets":8,"disabled":true,"diaperTable":false,"emergencyBell":false,"cctv":false,"source":"public","category":"public"},{"id":"202445400000100100","name":"7호  공원","lat":36.201591,"lng":127.096514,"roadAddr":"충청남도 논산시 취암동 1086-3","openHours":"상시","maleToilets":0,"femaleToilets":0,"disabled":false,"diaperTable":false,"emergencyBell":false,"cctv":false,"source":"public","category":"public"},{"id":"202445400000100088","name":"반야산(하)","lat":36.191868,"lng":127.113909,"roadAddr":"충청남도 논산시 관촉동 231-2","openHours":"상시","maleToilets":4,"femaleToilets":3,"disabled":true,"diaperTable":false,"emergencyBell":false,"cctv":false,"source":"public","category":"public"},{"id":"202445400000100101","name":"21호 공원","lat":36.198979,"lng":127.092563,"roadAddr":"충청남도 논산시 번영로17번길 10-4","openHours":"상시","maleToilets":4,"femaleToilets":5,"disabled":true,"diaperTable":false,"emergencyBell":false,"cctv":false,"source":"public","category":"public"},{"id":"202445400000100065","name":"반야산(상)","lat":36.187426,"lng":127.111822,"roadAddr":"충청남도 논산시 대학로 163-61","openHours":"상시","maleToilets":5,"femaleToilets":4,"disabled":true,"diaperTable":false,"emergencyBell":false,"cctv":false,"source":"public","category":"public"}]