[{"id":"202246810000100110","name":"물결공원 화장실","lat":36.042651,"lng":127.00315,"jibunAddr":"전북특별자치도 익산시 삼기면 연동리 922","openHours":"24시간","maleToilets":5,"femaleToilets":5,"disabled":true,"diaperTable":true,"emergencyBell":true,"cctv":false,"managerTel":"0638597294","source":"public","category":"public"},{"id":"202246810000100027","name":"국립종자원 서부지원","lat":36.077348,"lng":127.033503,"roadAddr":"전북특별자치도 익산시 낭산면 함낭로 1177","jibunAddr":"전북특별자치도 익산시 낭산면 석천리 1095-47","openHours":"9시간","maleToilets":3,"femaleToilets":2,"disabled":false,"diaperTable":false,"emergencyBell":false,"cctv":false,"managerTel":"0638612594","source":"public","category":"public"},{"id":"202246810000100052","name":"낭산파출소","lat":36.07825,"lng":127.010691,"roadAddr":"전북특별자치도 익산시 낭산면 함낭로 957","jibunAddr":"전북특별자치도 익산시 낭산면 삼담리 554-36","openHours":"24시간","maleToilets":3,"femaleToilets":2,"disabled":true,"diaperTable":false,"emergencyBell":false,"cctv":false,"source":"public","category":"public"},{"id":"202246810000100325","name":"장암보건지소","lat":36.044526,"lng":127.04082,"roadAddr":"전북특별자치도 익산시 낭산면 남천로 223","jibunAddr":"전북특별자치도 익산시 낭산면 낭산리 104번지","openHours":"(09:00~18:00)","maleToilets":0,"femaleToilets":0,"disabled":false,"diaperTable":false,"emergencyBell":false,"cctv":false,"managerTel":"0638594071","source":"public","category":"public"},{"id":"202246810000100197","name":"신동보건진료소","lat":36.067973,"lng":127.013187,"roadAddr":"전북특별자치도 익산시 낭산면 호암신동길 35","jibunAddr":"전북특별자치도 익산시 낭산면 호암리 350-1번지","openHours":"(09:00~18:00)","maleToilets":0,"femaleToilets":0,"disabled":false,"diaperTable":false,"emergencyBell":false,"cctv":false,"managerTel":"0638615023","source":"public","category":"public"},{"id":"202246810000100050","name":"낭산면 행정복지센터","lat":36.078074,"lng":127.009863,"roadAddr":"전북특별자치도 익산시 낭산면 함낭로 949","jibunAddr":"전북특별자치도 익산시 낭산면 삼담리 554-4번지","openHours":"(09:00~18:00)","maleToilets":5,"femaleToilets":1,"disabled":true,"diaperTable":false,"emergencyBell":false,"cctv":false,"managerTel":"0638615720","source":"public","category":"public"},{"id":"202246810000100051","name":"낭산보건지소","lat":36.077645,"lng":127.008899,"roadAddr":"전북특별자치도 익산시 낭산면 함낭로 939","jibunAddr":"전북특별자치도 익산시 낭산면 삼담리 556-10번지","openHours":"(09:00~18:00)","maleToilets":3,"femaleToilets":2,"disabled":false,"diaperTable":false,"emergencyBell":false,"cctv":false,"managerTel":"0638615442","source":"public","category":"public"}]