[{"id":"202246810000100266","name":"용안면 행정복지센터","lat":36.119649,"lng":126.95243,"roadAddr":"전북특별자치도 익산시 용안면 용안교동1길 21, 용안면 행정복지센터","jibunAddr":"전북특별자치도 익산시 용안면 교동리 253-1 용안면 행정복지센터","openHours":"9시간","maleToilets":9,"femaleToilets":3,"disabled":true,"diaperTable":false,"emergencyBell":false,"cctv":true,"managerTel":"0638593135","source":"public","category":"public"},{"id":"202246810000100191","name":"숭림사입구","lat":36.081667,"lng":126.915604,"roadAddr":"전북특별자치도 익산시 웅포면 송천리 5번지","openHours":"(09:00~18:00)","maleToilets":9,"femaleToilets":5,"disabled":false,"diaperTable":false,"emergencyBell":false,"cctv":false,"managerTel":"0638626394","source":"public","category":"public"},{"id":"202246810000100087","name":"두동보건진료소","lat":36.103388,"lng":126.92156,"roadAddr":"전북특별자치도 익산시 성당면 두동길 13-11","jibunAddr":"전북특별자치도 익산시 성당면 두동리 378-3번지","openHours":"(09:00~18:00)","maleToilets":0,"femaleToilets":0,"disabled":false,"diaperTable":false,"emergencyBell":false,"cctv":false,"managerTel":"0638612459","source":"public","category":"public"},{"id":"202246810000100175","name":"성당면 행정복지센터","lat":36.08832,"lng":126.934992,"roadAddr":"전북특별자치도 익산시 성당면 황성로 727","jibunAddr":"전북특별자치도 익산시 성당면 장선리 261-8","openHours":"(09:00~18:00)","maleToilets":4,"femaleToilets":1,"disabled":true,"diaperTable":false,"emergencyBell":false,"cctv":false,"managerTel":"0638593616","source":"public","category":"public"},{"id":"202246810000100107","name":"무학근린공원 화장실","lat":36.122207,"lng":126.95393,"jibunAddr":"전북특별자치도 익산시 용안면 교동리 산 30","openHours":"24시간","maleToilets":3,"femaleToilets":1,"disabled":false,"diaperTable":false,"emergencyBell":true,"cctv":false,"managerTel":"0638597294","source":"public","category":"public"},{"id":"202246810000100267","name":"용안보건지소","lat":36.115557,"lng":126.954203,"roadAddr":"전북특별자치도 익산시 용안면 현내1로 65","jibunAddr":"전북특별자치도 익산시 용안면 교동리 415-2번지","openHours":"(09:00~18:00)","maleToilets":3,"femaleToilets":2,"disabled":false,"diaperTable":false,"emergencyBell":false,"cctv":false,"managerTel":"0638594257","source":"public","category":"public"},{"id":"202246810000100269","name":"용안파출소","lat":36.117483,"lng":126.953962,"roadAddr":"전북특별자치도 익산시 용안면 현내1로 88","jibunAddr":"전북특별자치도 익산시 용안면 교동리 423-1","openHours":"24시간","maleToilets":2,"femaleToilets":1,"disabled":true,"diaperTable":false,"emergencyBell":false,"cctv":false,"source":"public","category":"public"},{"id":"202246810000100174","name":"성당힐링공원 화장실","lat":36.089091,"lng":126.930711,"jibunAddr":"전북특별자치도 익산시 성당면 갈산리 405-11","openHours":"24시간","maleToilets":2,"femaleToilets":2,"disabled":false,"diaperTable":false,"emergencyBell":true,"cctv":false,"managerTel":"0638597294","source":"public","category":"public"}]