[{"id":"202445400000100045","name":"양촌면보건지소","lat":36.138544,"lng":127.232653,"roadAddr":"충청남도 논산시 양촌면 매죽헌로 1665번길 28","openHours":"정시","maleToilets":3,"femaleToilets":2,"disabled":true,"diaperTable":false,"emergencyBell":false,"cctv":false,"source":"public","category":"public"},{"id":"202445400000100033","name":"창대주유소","lat":36.13095,"lng":127.250705,"roadAddr":"충청남도 논산시 양촌면 황산벌로 301","openHours":"정시","maleToilets":2,"femaleToilets":1,"disabled":false,"diaperTable":false,"emergencyBell":false,"cctv":false,"source":"public","category":"public"},{"id":"202445400000100042","name":"양촌휴양림","lat":36.15726,"lng":127.246485,"roadAddr":"충청남도 논산시 양촌면 매죽헌로1723번길 176-23","openHours":"상시","maleToilets":3,"femaleToilets":2,"disabled":false,"diaperTable":false,"emergencyBell":false,"cctv":false,"source":"public","category":"public"},{"id":"202445400000100069","name":"도정마을 공중화장실","lat":36.13454,"lng":127.243873,"roadAddr":"충청남도 논산시 양촌면 인천리 214","openHours":"상시","maleToilets":3,"femaleToilets":2,"disabled":false,"diaperTable":false,"emergencyBell":false,"cctv":false,"source":"public","category":"public"},{"id":"202445400000100054","name":"안산보 공중화장실","lat":36.133491,"lng":127.241914,"roadAddr":"충청남도 논산시 양촌면 인천리 202-10","openHours":"상시","maleToilets":2,"femaleToilets":1,"disabled":false,"diaperTable":false,"emergencyBell":false,"cctv":false,"source":"public","category":"public"},{"id":"202445400000100044","name":"양촌면사무소","lat":36.138544,"lng":127.232653,"roadAddr":"충청남도 논산시 양촌면 매죽헌로 1665번길 28","openHours":"정시","maleToilets":4,"femaleToilets":3,"disabled":true,"diaperTable":false,"emergencyBell":false,"cctv":false,"source":"public","category":"public"},{"id":"202445400000100047","name":"양촌 우체국","lat":36.13761,"lng":127.23379,"roadAddr":"충청남도 논산시 양촌면 매죽헌로1665번길 14-1","openHours":"정시","maleToilets":3,"femaleToilets":2,"disabled":false,"diaperTable":false,"emergencyBell":false,"cctv":false,"source":"public","category":"public"},{"id":"202445400000100046","name":"양촌농협","lat":36.136009,"lng":127.23945,"roadAddr":"충청남도 논산시 양촌면 황산벌로 424-2","openHours":"정시","maleToilets":2,"femaleToilets":2,"disabled":false,"diaperTable":false,"emergencyBell":false,"cctv":false,"source":"public","category":"public"}]