[{"id":"202445900000100021","name":"청남면사무소","lat":36.352366,"lng":126.952157,"roadAddr":"충청남도 청양군 청남면 명덕로 183","jibunAddr":"충청남도 청양군 청남면 청소리 184","openHours":"09:00~21:00","maleToilets":5,"femaleToilets":3,"disabled":true,"diaperTable":false,"emergencyBell":false,"cctv":false,"managerTel":"0419404253","source":"public","category":"public"},{"id":"202345900000100041","name":"미당시장","lat":36.371833,"lng":126.934547,"roadAddr":"충청남도 청양군 장평면 미당큰길 50-21","jibunAddr":"충청남도 청양군 장평면 미당리 22-2","openHours":"상시","maleToilets":2,"femaleToilets":0,"disabled":true,"diaperTable":false,"emergencyBell":true,"cctv":false,"managerTel":"0419404301","source":"public","category":"public"},{"id":"202345900000100042","name":"청남시장","lat":36.353595,"lng":126.95207,"roadAddr":"충청남도 청양군 청남면 명덕로 197-3","jibunAddr":"충청남도 청양군 청남면 청소리 208","openHours":"상시","maleToilets":4,"femaleToilets":2,"disabled":false,"diaperTable":false,"emergencyBell":true,"cctv":false,"managerTel":"0419404265","source":"public","category":"public"},{"id":"202445900000100020","name":"청남초 정류장","lat":36.355579,"lng":126.952158,"roadAddr":"충청남도 청양군 청남면 명덕로 220-1","jibunAddr":"충청남도 청양군 청남면 청소리 230-1","openHours":"상시","maleToilets":2,"femaleToilets":2,"disabled":false,"diaperTable":false,"emergencyBell":true,"cctv":false,"managerTel":"0419404265","source":"public","category":"public"},{"id":"202445900000100047","name":"청남보건지소","lat":36.354276,"lng":126.952617,"roadAddr":"충청남도 청양군 청남면 명덕로 204","openHours":"정시(08:30~17:30)","maleToilets":2,"femaleToilets":1,"disabled":true,"diaperTable":false,"emergencyBell":false,"cctv":false,"managerTel":"0419404635","source":"public","category":"public"}]