[{"id":"202456900000101403","name":"세종MVG","lat":36.48973,"lng":127.258386,"roadAddr":"세종특별자치시 나성북로 15, MVG (나성동)","jibunAddr":"세종특별자치시 나성동 799 MVG","openHours":"상시","maleToilets":40,"femaleToilets":31,"disabled":true,"diaperTable":false,"emergencyBell":true,"cctv":true,"managerTel":"0448641503","source":"public","category":"public"},{"id":"202456900000101705","name":"한솔프라자","lat":36.480199,"lng":127.254154,"roadAddr":"세종특별자치시 노을3로 100, 한솔프라자 (한솔동)","jibunAddr":"세종특별자치시 한솔동 928 한솔프라자","openHours":"정시","maleToilets":4,"femaleToilets":2,"disabled":false,"diaperTable":false,"emergencyBell":false,"cctv":false,"source":"public","category":"public"},{"id":"202456900000101179","name":"KT&G세종타워A","lat":36.501132,"lng":127.258851,"roadAddr":"세종특별자치시 한누리대로 411, KT&G세종타워A (어진동)","jibunAddr":"세종특별자치시 어진동 539 KT&amp;G세종타워A","openHours":"상시","maleToilets":9,"femaleToilets":11,"disabled":true,"diaperTable":true,"emergencyBell":true,"cctv":false,"managerTel":"0449605119","source":"public","category":"public"},{"id":"202456900000101857","name":"세종스타타워","lat":36.490104,"lng":127.257755,"roadAddr":"세종특별자치시 나성로 125-16, 스타타워 (나성동)","jibunAddr":"세종특별자치시 나성동 795 스타타워","openHours":"상시","maleToilets":36,"femaleToilets":27,"disabled":true,"diaperTable":false,"emergencyBell":false,"cctv":true,"managerTel":"0448650288","source":"public","category":"public"},{"id":"202456900000101177","name":"JM빌딩","lat":36.513202,"lng":127.258239,"roadAddr":"세종특별자치시 보듬3로 8-11, 세종JM빌딩 (도담동)","jibunAddr":"세종특별자치시 도담동 669 세종JM빌딩","openHours":"정시","maleToilets":4,"femaleToilets":2,"disabled":false,"diaperTable":false,"emergencyBell":false,"cctv":false,"source":"public","category":"public"},{"id":"202456900000101641","name":"종촌종합복지센터","lat":36.502766,"lng":127.246501,"roadAddr":"세종특별자치시 도움1로 116, 종촌종합복지센터 (종촌동)","jibunAddr":"세종특별자치시 종촌동 674 종촌종합복지센터","openHours":"정시","maleToilets":24,"femaleToilets":31,"disabled":true,"diaperTable":true,"emergencyBell":true,"cctv":true,"managerTel":"0443013545","source":"public","category":"public"},{"id":"202456900000101428","name":"세종센터빌딩B동","lat":36.479925,"lng":127.253094,"roadAddr":"세종특별자치시 누리로 110 (한솔동)","jibunAddr":"세종특별자치시 한솔동 969","openHours":"정시","maleToilets":3,"femaleToilets":2,"disabled":true,"diaperTable":false,"emergencyBell":false,"cctv":false,"source":"public","category":"public"},{"id":"202456900000101749","name":"형성프라자","lat":36.488805,"lng":127.256376,"roadAddr":"세종특별자치시 한누리대로 275, 형성프라자 (나성동)","jibunAddr":"세종특별자치시 나성동 740 형성프라자","openHours":"상시","maleToilets":6,"femaleToilets":3,"disabled":true,"diaperTable":false,"emergencyBell":false,"cctv":false,"managerTel":"0448635660","source":"public","category":"public"},{"id":"202456900000101191","name":"가득뜰근린공원","lat":36.486246,"lng":127.254254,"roadAddr":"세종특별자치시 새롬로 19 (새롬동)","jibunAddr":"세종특별자치시 새롬동 571","openHours":"상시","maleToilets":5,"femaleToilets":6,"disabled":true,"diaperTable":true,"emergencyBell":true,"cctv":false,"managerTel":"0443013634","source":"public","category":"public"},{"id":"202456900000101298","name":"도담동복합커뮤니티센터","lat":36.515242,"lng":127.261671,"roadAddr":"세종특별자치시 보람로 77 (도담동, 도담동주민센터)","jibunAddr":"세종특별자치시 도담동 645","openHours":"정시","maleToilets":19,"femaleToilets":22,"disabled":true,"diaperTable":false,"emergencyBell":false,"cctv":false,"managerTel":"0443016219","source":"public","category":"public"},{"id":"202456900000101397","name":"성운프라자(1층)","lat":36.504105,"lng":127.249387,"roadAddr":"세종특별자치시 도움3로 105-10, 성운프라자 (종촌동)","jibunAddr":"세종특별자치시 종촌동 663 성운프라자","openHours":"정시","maleToilets":3,"femaleToilets":3,"disabled":true,"diaperTable":false,"emergencyBell":false,"cctv":true,"source":"public","category":"public"},{"id":"202456900000101435","name":"세종시립도서관","lat":36.510512,"lng":127.240561,"roadAddr":"세종특별자치시 세종로 1207, 세종시립도서관 (고운동)","jibunAddr":"세종특별자치시 고운동 2103 세종시립도서관","openHours":"정시","maleToilets":5,"femaleToilets":7,"disabled":true,"diaperTable":true,"emergencyBell":true,"cctv":false,"managerTel":"0443014316","source":"public","category":"public"},{"id":"202456900000101691","name":"한국해양교통안전공단","lat":36.514507,"lng":127.242883,"roadAddr":"세종특별자치시 아름서길 27, 한국해양교통안전공단 (아름동)","jibunAddr":"세종특별자치시 아름동 1305 한국해양교통안전공단","openHours":"정시","maleToilets":4,"femaleToilets":2,"disabled":true,"diaperTable":false,"emergencyBell":false,"cctv":false,"managerTel":"0443302230","source":"public","category":"public"},{"id":"202456900000101319","name":"마드리드A","lat":36.511342,"lng":127.24258,"roadAddr":"세종특별자치시 아름서1길 13-5, 마드리드A (아름동)","jibunAddr":"세종특별자치시 아름동 1328 마드리드A","openHours":"상시","maleToilets":34,"femaleToilets":32,"disabled":true,"diaperTable":false,"emergencyBell":false,"cctv":true,"managerTel":"0448657487","source":"public","category":"public"},{"id":"202456900000101308","name":"디펠리체","lat":36.491088,"lng":127.258769,"roadAddr":"세종특별자치시 나성북1로 22, 디펠리체 (나성동)","jibunAddr":"세종특별자치시 나성동 790번지 디펠리체","openHours":"상시","maleToilets":40,"femaleToilets":30,"disabled":true,"diaperTable":false,"emergencyBell":false,"cctv":false,"managerTel":"0448636827","source":"public","category":"public"},{"id":"202456900000101699","name":"한솔뜰근린공원","lat":36.480463,"lng":127.256425,"jibunAddr":"세종특별자치시 한솔동 937","openHours":"상시","maleToilets":2,"femaleToilets":1,"disabled":true,"diaperTable":true,"emergencyBell":true,"cctv":false,"managerTel":"0443013634","source":"public","category":"public"},{"id":"202456900000101543","name":"에이스프라자","lat":36.511661,"lng":127.240095,"roadAddr":"세종특별자치시 만남로 140, 에이스프라자 (고운동)","jibunAddr":"세종특별자치시 고운동 2099 에이스프라자","openHours":"정시","maleToilets":4,"femaleToilets":4,"disabled":true,"diaperTable":false,"emergencyBell":false,"cctv":false,"source":"public","category":"public"},{"id":"202456900000101387","name":"새롬동복합커뮤니티센터","lat":36.48523,"lng":127.251876,"roadAddr":"세종특별자치시 새롬중앙로 44, 새롬동복합커뮤니티센터 (새롬동)","jibunAddr":"세종특별자치시 새롬동 575 새롬동복합커뮤니티센터","openHours":"정시","maleToilets":23,"femaleToilets":24,"disabled":true,"diaperTable":true,"emergencyBell":true,"cctv":false,"managerTel":"0443016819","source":"public","category":"public"},{"id":"202456900000101815","name":"국민연금공단 세종사옥","lat":36.514396,"lng":127.242079,"roadAddr":"세종특별자치시 세종로 1250, 국민연금공단 세종사옥 (아름동)","jibunAddr":"세종특별자치시 아름동 1304 국민연금공단 세종사옥","openHours":"정시","maleToilets":18,"femaleToilets":25,"disabled":true,"diaperTable":false,"emergencyBell":true,"cctv":false,"managerTel":"0447151822","source":"public","category":"public"},{"id":"202456900000101508","name":"신목빌딩(1층)","lat":36.504339,"lng":127.249223,"roadAddr":"세종특별자치시 도움3로 105-8, 신목빌딩 (종촌동)","jibunAddr":"세종특별자치시 종촌동 662 신목빌딩","openHours":"정시","maleToilets":4,"femaleToilets":3,"disabled":true,"diaperTable":false,"emergencyBell":false,"cctv":false,"source":"public","category":"public"},{"id":"202456900000101560","name":"영광프라자","lat":36.486641,"lng":127.251001,"roadAddr":"세종특별자치시 새롬중앙로 64, 세종영광프라자 (새롬동)","jibunAddr":"세종특별자치시 새롬동 578 세종영광프라자","openHours":"정시","maleToilets":0,"femaleToilets":0,"disabled":true,"diaperTable":false,"emergencyBell":false,"cctv":true,"source":"public","category":"public"},{"id":"202456900000101281","name":"다정동복합커뮤니티센터","lat":36.494516,"lng":127.250397,"roadAddr":"세종특별자치시 다정남3로 10, 다정동 복합커뮤니티센터 (다정동)","jibunAddr":"세종특별자치시 다정동 929 다정동 복합커뮤니티센터","openHours":"정시","maleToilets":34,"femaleToilets":32,"disabled":true,"diaperTable":true,"emergencyBell":true,"cctv":false,"managerTel":"0443017131","source":"public","category":"public"},{"id":"202456900000101616","name":"정부청사터미널정류소","lat":36.504197,"lng":127.2615,"roadAddr":"세종특별자치시 한누리대로 456, 정부세종청사 고속시외버스정류장 (어진동)","jibunAddr":"세종특별자치시 어진동 561번지 1호 정부세종청사 고속시외버스정류장","openHours":"정시","maleToilets":4,"femaleToilets":4,"disabled":true,"diaperTable":false,"emergencyBell":false,"cctv":false,"managerTel":"0448627746","source":"public","category":"public"},{"id":"202456900000101431","name":"세종송담교회","lat":36.510489,"lng":127.245988,"roadAddr":"세종특별자치시 달빛1로 125, 기독교한국침례회 송담교회 (아름동)","jibunAddr":"세종특별자치시 아름동 1345번지 기독교한국침례회 송담교회","openHours":"상시","maleToilets":4,"femaleToilets":5,"disabled":true,"diaperTable":false,"emergencyBell":false,"cctv":false,"managerTel":"0448661004","source":"public","category":"public"},{"id":"202456900000101422","name":"세종보사업소","lat":36.476238,"lng":127.259466,"roadAddr":"세종특별자치시 나리로 82, 세종보관리사무소 (한솔동)","jibunAddr":"세종특별자치시 한솔동 1251 세종보관리사무소","openHours":"정시","maleToilets":2,"femaleToilets":1,"disabled":true,"diaperTable":false,"emergencyBell":false,"cctv":false,"managerTel":"0448613410","source":"public","category":"public"},{"id":"202456900000101518","name":"아름동공영주차장","lat":36.511397,"lng":127.247866,"roadAddr":"세종특별자치시 보듬3로 105, 아름동공영주차장 (아름동)","jibunAddr":"세종특별자치시 아름동 1352 아름동공영주차장","openHours":"상시","maleToilets":7,"femaleToilets":7,"disabled":true,"diaperTable":false,"emergencyBell":true,"cctv":false,"managerTel":"0448501307","source":"public","category":"public"},{"id":"202456900000101674","name":"페스티벌2","lat":36.495181,"lng":127.249257,"roadAddr":"세종특별자치시 다정중앙로 52, 페스티발2 (다정동)","jibunAddr":"세종특별자치시 다정동 933 페스티발2","openHours":"상시","maleToilets":6,"femaleToilets":6,"disabled":true,"diaperTable":false,"emergencyBell":false,"cctv":false,"managerTel":"0448679543","source":"public","category":"public"},{"id":"202456900000101851","name":"SM타워","lat":36.482813,"lng":127.261844,"roadAddr":"세종특별자치시 정부2청사로 10, 에스엠타워 (나성동)","jibunAddr":"세종특별자치시 나성동 779 에스엠타워","openHours":"상시","maleToilets":32,"femaleToilets":16,"disabled":true,"diaperTable":false,"emergencyBell":false,"cctv":true,"managerTel":"0448643837","source":"public","category":"public"},{"id":"202456900000101681","name":"포레뷰2차","lat":36.490209,"lng":127.256034,"roadAddr":"세종특별자치시 한누리대로 291, 포레뷰2차 (나성동)","jibunAddr":"세종특별자치시 나성동 737 포레뷰2차","openHours":"정시","maleToilets":5,"femaleToilets":3,"disabled":true,"diaperTable":false,"emergencyBell":false,"cctv":true,"source":"public","category":"public"},{"id":"202456900000101517","name":"아름119안전센터","lat":36.511444,"lng":127.246625,"roadAddr":"세종특별자치시 보듬3로 119, 119안전센터 (아름동)","jibunAddr":"세종특별자치시 아름동 1349 119안전센터","openHours":"정시","maleToilets":4,"femaleToilets":2,"disabled":true,"diaperTable":false,"emergencyBell":false,"cctv":false,"managerTel":"0443008422","source":"public","category":"public"},{"id":"202456900000101684","name":"품안뜰근린공원","lat":36.497312,"lng":127.252045,"jibunAddr":"세종특별자치시 다정동 921","openHours":"상시","maleToilets":2,"femaleToilets":5,"disabled":true,"diaperTable":true,"emergencyBell":true,"cctv":false,"managerTel":"0443013634","source":"public","category":"public"},{"id":"202456900000101299","name":"도담센트럴프라자","lat":36.515282,"lng":127.258483,"roadAddr":"세종특별자치시 한누리대로 583, 도담센트럴프라자 (도담동)","jibunAddr":"세종특별자치시 도담동 657 도담센트럴프라자","openHours":"정시","maleToilets":5,"femaleToilets":3,"disabled":true,"diaperTable":false,"emergencyBell":false,"cctv":false,"source":"public","category":"public"},{"id":"202456900000101279","name":"다올비즈니스센터","lat":36.511671,"lng":127.242604,"roadAddr":"세종특별자치시 아름서1길 13-9, 다올비즈니스센터 (아름동)","jibunAddr":"세종특별자치시 아름동 1329 다올비즈니스센터","openHours":"정시","maleToilets":3,"femaleToilets":2,"disabled":true,"diaperTable":false,"emergencyBell":false,"cctv":false,"source":"public","category":"public"},{"id":"202456900000101256","name":"나릿재마을4단지 상가","lat":36.491236,"lng":127.260789,"roadAddr":"세종특별자치시 나성북로 47 (나성동, 나릿재마을4단지)","jibunAddr":"세종특별자치시 나성동 831 나릿재마을4단지","openHours":"상시","maleToilets":23,"femaleToilets":31,"disabled":true,"diaperTable":false,"emergencyBell":false,"cctv":false,"managerTel":"0448657278","source":"public","category":"public"},{"id":"202456900000101448","name":"세종조이1","lat":36.510941,"lng":127.243596,"roadAddr":"세종특별자치시 아름서1길 23, 세종조이1 (아름동)","jibunAddr":"세종특별자치시 아름동 1333 세종조이1","openHours":"정시","maleToilets":5,"femaleToilets":3,"disabled":true,"diaperTable":false,"emergencyBell":false,"cctv":false,"source":"public","category":"public"},{"id":"202456900000101333","name":"밀레니엄","lat":36.490687,"lng":127.256904,"roadAddr":"세종특별자치시 한누리대로 296, 밀레니엄 (나성동)","jibunAddr":"세종특별자치시 나성동 762 밀레니엄","openHours":"상시","maleToilets":45,"femaleToilets":16,"disabled":true,"diaperTable":false,"emergencyBell":false,"cctv":false,"managerTel":"0448684522","source":"public","category":"public"},{"id":"202456900000101324","name":"메디케어빌딩(1층)","lat":36.504522,"lng":127.249648,"roadAddr":"세종특별자치시 도움3로 105-7, 메디케어빌딩 (종촌동)","jibunAddr":"세종특별자치시 종촌동 658 메디케어빌딩","openHours":"정시","maleToilets":2,"femaleToilets":1,"disabled":true,"diaperTable":false,"emergencyBell":false,"cctv":true,"source":"public","category":"public"},{"id":"202456900000101683","name":"푸드스퀘어 2동","lat":36.497742,"lng":127.2331,"roadAddr":"세종특별자치시 장군면 당암길 42","jibunAddr":"세종특별자치시 장군면 봉안리 38","openHours":"정시","maleToilets":5,"femaleToilets":3,"disabled":false,"diaperTable":false,"emergencyBell":false,"cctv":false,"source":"public","category":"public"},{"id":"202456900000101767","name":"더리치 세종의아침","lat":36.482382,"lng":127.261363,"roadAddr":"세종특별자치시 한누리대로 194, 세종의아침 (나성동)","jibunAddr":"세종특별자치시 나성동 775 세종의아침","openHours":"불규칙","maleToilets":19,"femaleToilets":22,"disabled":true,"diaperTable":false,"emergencyBell":false,"cctv":false,"managerTel":"0448687892","source":"public","category":"public"},{"id":"202456900000101727","name":"해피트리","lat":36.512289,"lng":127.242241,"roadAddr":"세종특별자치시 보듬3로 158","openHours":"상시","maleToilets":17,"femaleToilets":17,"disabled":true,"diaperTable":false,"emergencyBell":true,"cctv":false,"managerTel":"0425420532","source":"public","category":"public"},{"id":"202456900000101656","name":"청솔빌딩","lat":36.512276,"lng":127.249537,"roadAddr":"세종특별자치시 보듬3로 104-17, 청솔빌딩 (아름동)","jibunAddr":"세종특별자치시 아름동 1290 청솔빌딩","openHours":"정시","maleToilets":4,"femaleToilets":3,"disabled":true,"diaperTable":false,"emergencyBell":false,"cctv":false,"source":"public","category":"public"},{"id":"202456900000101704","name":"한솔퍼스티움","lat":36.479651,"lng":127.255169,"roadAddr":"세종특별자치시 노을3로 90, 한솔퍼스티움 (한솔동)","jibunAddr":"세종특별자치시 한솔동 931 한솔퍼스티움","openHours":"정시","maleToilets":5,"femaleToilets":3,"disabled":false,"diaperTable":false,"emergencyBell":false,"cctv":false,"source":"public","category":"public"},{"id":"202456900000101467","name":"세종파이낸스센터3","lat":36.497446,"lng":127.259874,"roadAddr":"세종특별자치시 가름로 180, 세종파이낸스센터3 (어진동)","jibunAddr":"세종특별자치시 어진동 666 세종파이낸스센터3","openHours":"상시","maleToilets":33,"femaleToilets":33,"disabled":true,"diaperTable":false,"emergencyBell":true,"cctv":false,"managerTel":"0448662648","source":"public","category":"public"},{"id":"202456900000101549","name":"엠브릿지빌딩(M2동)","lat":36.501979,"lng":127.257503,"roadAddr":"세종특별자치시 다솜1로 36, 엠브릿지 (어진동)","jibunAddr":"세종특별자치시 어진동 513 엠브릿지","openHours":"정시","maleToilets":28,"femaleToilets":28,"disabled":true,"diaperTable":false,"emergencyBell":true,"cctv":false,"managerTel":"0449951090","source":"public","category":"public"},{"id":"202456900000101391","name":"새롬주유소","lat":36.481958,"lng":127.25394,"roadAddr":"세종특별자치시 어울로 77 (새롬동)","jibunAddr":"세종특별자치시 새롬동 609","openHours":"정시","maleToilets":2,"femaleToilets":2,"disabled":false,"diaperTable":false,"emergencyBell":false,"cctv":false,"managerTel":"0448645188","source":"public","category":"public"},{"id":"202456900000101343","name":"백두산빌딩(1층)","lat":36.502485,"lng":127.250094,"roadAddr":"세종특별자치시 달빛로 41, 백두산빌딩 (종촌동)","jibunAddr":"세종특별자치시 종촌동 669 백두산빌딩","openHours":"정시","maleToilets":4,"femaleToilets":3,"disabled":false,"diaperTable":false,"emergencyBell":false,"cctv":false,"source":"public","category":"public"},{"id":"202456900000101321","name":"마들렌","lat":36.489554,"lng":127.257209,"roadAddr":"세종특별자치시 한누리대로 284, 마들렌 (나성동)","jibunAddr":"세종특별자치시 나성동 765 마들렌","openHours":"정시","maleToilets":5,"femaleToilets":3,"disabled":true,"diaperTable":false,"emergencyBell":false,"cctv":true,"source":"public","category":"public"},{"id":"202456900000101763","name":"세종중앙타워","lat":36.511635,"lng":127.241037,"roadAddr":"세종특별자치시 세종로 1219, 세종중앙타워 (고운동)","jibunAddr":"세종특별자치시 고운동 2094 세종중앙타워","openHours":"상시","maleToilets":28,"femaleToilets":21,"disabled":true,"diaperTable":false,"emergencyBell":false,"cctv":true,"managerTel":"0448627341","source":"public","category":"public"},{"id":"202456900000101540","name":"에셀프라자","lat":36.505044,"lng":127.234397,"roadAddr":"세종특별자치시 마음로 70, 에셀프라자 (고운동)","jibunAddr":"세종특별자치시 고운동 1720 에셀프라자","openHours":"정시","maleToilets":5,"femaleToilets":4,"disabled":true,"diaperTable":false,"emergencyBell":false,"cctv":true,"source":"public","category":"public"},{"id":"202456900000101494","name":"스마트빌딩","lat":36.50459,"lng":127.249052,"roadAddr":"세종특별자치시 도움3로 105-6, 스마트빌딩 (종촌동)","jibunAddr":"세종특별자치시 종촌동 661 스마트빌딩","openHours":"상시","maleToilets":12,"femaleToilets":15,"disabled":true,"diaperTable":false,"emergencyBell":false,"cctv":true,"managerTel":"0448658077","source":"public","category":"public"},{"id":"202456900000101745","name":"황금빌딩","lat":36.51347,"lng":127.258141,"roadAddr":"세종특별자치시 보듬3로 8-13, 황금빌딩 (도담동)","jibunAddr":"세종특별자치시 도담동 670 황금빌딩","openHours":"정시","maleToilets":4,"femaleToilets":2,"disabled":false,"diaperTable":false,"emergencyBell":false,"cctv":false,"source":"public","category":"public"},{"id":"202456900000101328","name":"몰리브상가","lat":36.502681,"lng":127.24763,"roadAddr":"세종특별자치시 도움1로 108, 몰리브(Mallive) (종촌동)","jibunAddr":"세종특별자치시 종촌동 673 몰리브(Mallive)","openHours":"정시","maleToilets":46,"femaleToilets":50,"disabled":true,"diaperTable":true,"emergencyBell":false,"cctv":true,"managerTel":"0442837019","source":"public","category":"public"},{"id":"202456900000101652","name":"첫마을6단지A상가","lat":36.475787,"lng":127.251519,"roadAddr":"세종특별자치시 누리로 27 (한솔동, 첫마을6단지)","jibunAddr":"세종특별자치시 한솔동 984 첫마을6단지","openHours":"정시","maleToilets":3,"femaleToilets":2,"disabled":false,"diaperTable":false,"emergencyBell":false,"cctv":false,"source":"public","category":"public"},{"id":"202456900000101258","name":"나성동복합커뮤니티센터","lat":36.489072,"lng":127.264261,"roadAddr":"세종특별자치시 갈매로 280 (나성동)","jibunAddr":"세종특별자치시 나성동 850","openHours":"정시","maleToilets":33,"femaleToilets":25,"disabled":true,"diaperTable":false,"emergencyBell":true,"cctv":false,"managerTel":"0443007631","source":"public","category":"public"},{"id":"202456900000101619","name":"제천뜰근린공원","lat":36.503596,"lng":127.247367,"jibunAddr":"세종특별자치시 종촌동 676","openHours":"상시","maleToilets":6,"femaleToilets":6,"disabled":true,"diaperTable":true,"emergencyBell":true,"cctv":false,"managerTel":"0443013614","source":"public","category":"public"},{"id":"202456900000101521","name":"아름스포츠센터","lat":36.512238,"lng":127.245709,"roadAddr":"세종특별자치시 보듬3로 126","jibunAddr":"세종특별자치시 아름동 1324","openHours":"정시","maleToilets":8,"femaleToilets":10,"disabled":true,"diaperTable":true,"emergencyBell":true,"cctv":false,"managerTel":"0443013316","source":"public","category":"public"},{"id":"202456900000101427","name":"세종센터빌딩A동","lat":36.479932,"lng":127.253413,"roadAddr":"세종특별자치시 노을3로 101, 공원빌딩 (한솔동)","jibunAddr":"세종특별자치시 한솔동 968 공원빌딩","openHours":"정시","maleToilets":3,"femaleToilets":2,"disabled":true,"diaperTable":false,"emergencyBell":false,"cctv":false,"source":"public","category":"public"},{"id":"202456900000101658","name":"축산물품질평가원","lat":36.513604,"lng":127.242779,"roadAddr":"세종특별자치시 아름서길 21, 축산물품질평가원 (아름동)","jibunAddr":"세종특별자치시 아름동 1307 축산물품질평가원","openHours":"정시","maleToilets":26,"femaleToilets":14,"disabled":true,"diaperTable":true,"emergencyBell":true,"cctv":false,"managerTel":"0444107223","source":"public","category":"public"},{"id":"202456900000101325","name":"명동프라자","lat":36.487823,"lng":127.25674,"roadAddr":"세종특별자치시 한누리대로 265, 명동프라자 (나성동)","jibunAddr":"세종특별자치시 나성동 743 명동프라자","openHours":"상시","maleToilets":48,"femaleToilets":24,"disabled":true,"diaperTable":false,"emergencyBell":true,"cctv":false,"managerTel":"0448635660","source":"public","category":"public"},{"id":"202456900000101575","name":"우빈가온","lat":36.48257,"lng":127.260145,"roadAddr":"세종특별자치시 한누리대로 201, 우빈가온 (나성동)","jibunAddr":"세종특별자치시 나성동 715번지 우빈가온","openHours":"상시","maleToilets":4,"femaleToilets":4,"disabled":true,"diaperTable":false,"emergencyBell":true,"cctv":false,"managerTel":"0448682885","source":"public","category":"public"},{"id":"202456900000101327","name":"모닝시티2","lat":36.492071,"lng":127.255837,"roadAddr":"세종특별자치시 한누리대로 311, 모닝시티2 (나성동)","jibunAddr":"세종특별자치시 나성동 732 모닝시티2","openHours":"정시","maleToilets":0,"femaleToilets":0,"disabled":true,"diaperTable":false,"emergencyBell":false,"cctv":true,"source":"public","category":"public"},{"id":"202456900000101310","name":"라온프라이빗시티(2차)","lat":36.512854,"lng":127.258941,"roadAddr":"세종특별자치시 보듬3로 6, 라온프라이빗시티Ⅱ (도담동)","jibunAddr":"세종특별자치시 도담동 667번지 라온프라이빗시티Ⅱ","openHours":"상시","maleToilets":7,"femaleToilets":4,"disabled":false,"diaperTable":false,"emergencyBell":false,"cctv":false,"managerTel":"0448686642","source":"public","category":"public"},{"id":"202456900000101342","name":"방축천음악분수","lat":36.49895,"lng":127.257464,"roadAddr":"세종특별자치시 가름로 153, 방축천 음악분수 공중화장실 (어진동)","jibunAddr":"세종특별자치시 어진동 542번지 방축천 음악분수 공중화장실","openHours":"상시","maleToilets":1,"femaleToilets":2,"disabled":true,"diaperTable":false,"emergencyBell":true,"cctv":false,"managerTel":"0443013622","source":"public","category":"public"},{"id":"202456900000101698","name":"한솔동우체국","lat":36.479645,"lng":127.254343,"roadAddr":"세종특별자치시 노을3로 93, 세종한솔동우체국 (한솔동)","jibunAddr":"세종특별자치시 한솔동 964-1 세종한솔동우체국","openHours":"정시","maleToilets":5,"femaleToilets":5,"disabled":true,"diaperTable":false,"emergencyBell":false,"cctv":true,"managerTel":"0448637005","source":"public","category":"public"},{"id":"202456900000101702","name":"한솔지구대","lat":36.480341,"lng":127.259122,"roadAddr":"세종특별자치시 노을3로 31, 한솔파출소 (한솔동)","jibunAddr":"세종특별자치시 한솔동 943 한솔파출소","openHours":"정시","maleToilets":2,"femaleToilets":2,"disabled":true,"diaperTable":false,"emergencyBell":false,"cctv":true,"managerTel":"0448640112","source":"public","category":"public"},{"id":"202456900000101722","name":"해피라움5","lat":36.513805,"lng":127.258064,"roadAddr":"세종특별자치시 보듬3로 8-15, 해피라움5 (도담동)","jibunAddr":"세종특별자치시 도담동 672 해피라움5","openHours":"정시","maleToilets":3,"femaleToilets":2,"disabled":true,"diaperTable":false,"emergencyBell":false,"cctv":false,"source":"public","category":"public"},{"id":"202456900000101639","name":"종촌 중앙프라자(1층)","lat":36.504738,"lng":127.249532,"roadAddr":"세종특별자치시 도움3로 105-5, 종촌 중앙프라자 (종촌동)","jibunAddr":"세종특별자치시 종촌동 657 종촌 중앙프라자","openHours":"정시","maleToilets":4,"femaleToilets":3,"disabled":true,"diaperTable":false,"emergencyBell":false,"cctv":false,"source":"public","category":"public"},{"id":"202456900000101761","name":"에스오일 세종셀프주유소","lat":36.494985,"lng":127.255028,"roadAddr":"세종특별자치시 다정북로 221 (다정동)","jibunAddr":"세종특별자치시 다정동 925","openHours":"상시","maleToilets":2,"femaleToilets":1,"disabled":false,"diaperTable":false,"emergencyBell":false,"cctv":true,"managerTel":"0448636273","source":"public","category":"public"},{"id":"202456900000101496","name":"스마트큐브 2차","lat":36.505536,"lng":127.233729,"roadAddr":"세종특별자치시 마음로 78, 세종 스마트큐브Ⅱ (고운동)","jibunAddr":"세종특별자치시 고운동 1718 세종 스마트큐브Ⅱ","openHours":"정시","maleToilets":6,"femaleToilets":4,"disabled":true,"diaperTable":true,"emergencyBell":false,"cctv":true,"source":"public","category":"public"},{"id":"202456900000101544","name":"에이스프라자2","lat":36.505941,"lng":127.234662,"roadAddr":"세종특별자치시 고운서길 16, 에이스프라자2 (고운동)","jibunAddr":"세종특별자치시 고운동 1715 에이스프라자2","openHours":"정시","maleToilets":5,"femaleToilets":3,"disabled":true,"diaperTable":true,"emergencyBell":false,"cctv":true,"source":"public","category":"public"},{"id":"202456900000101504","name":"스타플레이스","lat":36.512441,"lng":127.241052,"roadAddr":"세종특별자치시 세종로 1229, 스타플레이스 (고운동)","jibunAddr":"세종특별자치시 고운동 2092 스타플레이스","openHours":"정시","maleToilets":5,"femaleToilets":4,"disabled":true,"diaperTable":false,"emergencyBell":false,"cctv":false,"source":"public","category":"public"},{"id":"202456900000101485","name":"송원프라자","lat":36.479864,"lng":127.25254,"roadAddr":"세종특별자치시 누리로 106, 송원프라자 (한솔동)","jibunAddr":"세종특별자치시 한솔동 970 송원프라자","openHours":"정시","maleToilets":4,"femaleToilets":2,"disabled":true,"diaperTable":false,"emergencyBell":false,"cctv":false,"source":"public","category":"public"},{"id":"202456900000101251","name":"금화빌딩","lat":36.50574,"lng":127.234896,"roadAddr":"세종특별자치시 고운서길 14, 금화빌딩 (고운동)","jibunAddr":"세종특별자치시 고운동 1714 금화빌딩","openHours":"정시","maleToilets":5,"femaleToilets":4,"disabled":true,"diaperTable":false,"emergencyBell":false,"cctv":true,"source":"public","category":"public"},{"id":"202456900000101538","name":"어진동복합커뮤니티센터","lat":36.501909,"lng":127.256529,"roadAddr":"세종특별자치시 다솜1로 31, 어진동복합커뮤니티센터 (어진동)","jibunAddr":"세종특별자치시 어진동 518 어진동복합커뮤니티센터","openHours":"정시","maleToilets":39,"femaleToilets":32,"disabled":true,"diaperTable":false,"emergencyBell":true,"cctv":false,"managerTel":"0443017514","source":"public","category":"public"},{"id":"202456900000101654","name":"청사셀프주유소","lat":36.495961,"lng":127.257317,"roadAddr":"세종특별자치시 다솜로 38 (어진동)","jibunAddr":"세종특별자치시 어진동 685","openHours":"상시","maleToilets":2,"femaleToilets":1,"disabled":false,"diaperTable":false,"emergencyBell":false,"cctv":false,"managerTel":"0448815182","source":"public","category":"public"},{"id":"202456900000101203","name":"고운동 복합커뮤니티센터(남측)","lat":36.504974,"lng":127.235364,"roadAddr":"세종특별자치시 마음로 64, 고운동 복합커뮤니티센터(남측) (고운동)","jibunAddr":"세종특별자치시 고운동 1712 고운동 복합커뮤니티센터(남측)","openHours":"정시","maleToilets":27,"femaleToilets":32,"disabled":true,"diaperTable":true,"emergencyBell":true,"cctv":false,"managerTel":"0443017212","source":"public","category":"public"},{"id":"202456900000101524","name":"아름행복타워","lat":36.512256,"lng":127.243011,"roadAddr":"세종특별자치시 보듬3로 150, 아름 행복타워 (아름동)","jibunAddr":"세종특별자치시 아름동 1317 아름 행복타워","openHours":"상시","maleToilets":30,"femaleToilets":16,"disabled":true,"diaperTable":true,"emergencyBell":false,"cctv":false,"managerTel":"0448501036","source":"public","category":"public"},{"id":"202456900000101569","name":"온드림프라자","lat":36.512604,"lng":127.24223,"roadAddr":"세종특별자치시 세종로 1234-8, 온드림프라자 (아름동)","jibunAddr":"세종특별자치시 아름동 1312 온드림프라자","openHours":"정시","maleToilets":4,"femaleToilets":3,"disabled":true,"diaperTable":false,"emergencyBell":false,"cctv":false,"source":"public","category":"public"},{"id":"202456900000101785","name":"나릿재마을3단지 상가","lat":36.489854,"lng":127.262731,"roadAddr":"세종특별자치시 국세청로 45 (나성동, 나릿재마을3단지)","jibunAddr":"세종특별자치시 나성동 833 나릿재마을3단지","openHours":"상시","maleToilets":31,"femaleToilets":34,"disabled":true,"diaperTable":false,"emergencyBell":false,"cctv":true,"managerTel":"0448677378","source":"public","category":"public"},{"id":"202456900000101188","name":"The riverside(1층)","lat":36.502935,"lng":127.249962,"roadAddr":"세종특별자치시 달빛로 45, The Riverside (종촌동)","jibunAddr":"세종특별자치시 종촌동 667 The Riverside","openHours":"정시","maleToilets":4,"femaleToilets":2,"disabled":true,"diaperTable":false,"emergencyBell":false,"cctv":true,"source":"public","category":"public"},{"id":"202456900000101404","name":"세종NS타워2차","lat":36.490246,"lng":127.25889,"roadAddr":"세종특별자치시 나성로 125-4, 세종엔에스타워2 (나성동)","jibunAddr":"세종특별자치시 나성동 797 세종엔에스타워2","openHours":"상시","maleToilets":49,"femaleToilets":30,"disabled":true,"diaperTable":false,"emergencyBell":true,"cctv":true,"managerTel":"0448667240","source":"public","category":"public"},{"id":"202456900000101673","name":"페스티벌1","lat":36.495297,"lng":127.248543,"roadAddr":"세종특별자치시 다정중앙로 53, 페스티발1 (다정동)","jibunAddr":"세종특별자치시 다정동 944 페스티발1","openHours":"상시","maleToilets":25,"femaleToilets":19,"disabled":true,"diaperTable":false,"emergencyBell":false,"cctv":false,"managerTel":"0448645659","source":"public","category":"public"},{"id":"202456900000101291","name":"더센트럴","lat":36.487879,"lng":127.261003,"roadAddr":"세종특별자치시 나성로 96, 더센트럴 (나성동)","jibunAddr":"세종특별자치시 나성동 811 더센트럴","openHours":"상시","maleToilets":100,"femaleToilets":100,"disabled":true,"diaperTable":true,"emergencyBell":true,"cctv":true,"managerTel":"0448623325","source":"public","category":"public"},{"id":"202456900000101205","name":"고운동모두의놀이터","lat":36.512504,"lng":127.239115,"roadAddr":"세종특별자치시 만남로 151, 고운뜰공원 내 (고운동)","jibunAddr":"세종특별자치시 고운동 2105번지","openHours":"정시","maleToilets":2,"femaleToilets":2,"disabled":true,"diaperTable":true,"emergencyBell":true,"cctv":false,"managerTel":"0443016631","source":"public","category":"public"},{"id":"202456900000101731","name":"행복의아침","lat":36.490325,"lng":127.257031,"roadAddr":"세종특별자치시 한누리대로 292, 행복의아침 (나성동)","jibunAddr":"세종특별자치시 나성동 763 행복의아침","openHours":"정시","maleToilets":4,"femaleToilets":3,"disabled":true,"diaperTable":false,"emergencyBell":false,"cctv":true,"source":"public","category":"public"},{"id":"202456900000101653","name":"첫마을아파트2단지상가(201동)","lat":36.481642,"lng":127.25975,"roadAddr":"세종특별자치시 노을3로 19 (한솔동, 첫마을2단지)","jibunAddr":"세종특별자치시 한솔동 940 첫마을2단지","openHours":"정시","maleToilets":5,"femaleToilets":5,"disabled":true,"diaperTable":false,"emergencyBell":false,"cctv":true,"source":"public","category":"public"},{"id":"202456900000101692","name":"한국해양교통안전공단본부사옥","lat":36.514507,"lng":127.242883,"roadAddr":"세종특별자치시 아름서길 27, 한국해양교통안전공단 (아름동)","jibunAddr":"세종특별자치시 아름동 1305 한국해양교통안전공단","openHours":"정시","maleToilets":4,"femaleToilets":2,"disabled":true,"diaperTable":false,"emergencyBell":true,"cctv":false,"managerTel":"0443302234","source":"public","category":"public"},{"id":"202456900000101192","name":"가락마을 1단지 상가","lat":36.504821,"lng":127.232786,"roadAddr":"세종특별자치시 마음로 67 (고운동, 가락마을1단지)","jibunAddr":"세종특별자치시 고운동 1729 가락마을1단지","openHours":"정시","maleToilets":5,"femaleToilets":4,"disabled":true,"diaperTable":false,"emergencyBell":false,"cctv":false,"source":"public","category":"public"},{"id":"202456900000101523","name":"아름지구대","lat":36.511433,"lng":127.247061,"roadAddr":"세종특별자치시 보듬3로 113, 경찰지구대 (아름동)","jibunAddr":"세종특별자치시 아름동 1350 경찰지구대","openHours":"정시","maleToilets":5,"femaleToilets":3,"disabled":true,"diaperTable":true,"emergencyBell":false,"cctv":false,"managerTel":"0443208102","source":"public","category":"public"},{"id":"202456900000101213","name":"골드프라자","lat":36.505315,"lng":127.234748,"roadAddr":"세종특별자치시 고운서길 7, 골드프라자 (고운동)","jibunAddr":"세종특별자치시 고운동 1721 골드프라자","openHours":"정시","maleToilets":4,"femaleToilets":3,"disabled":true,"diaperTable":false,"emergencyBell":false,"cctv":true,"source":"public","category":"public"},{"id":"202456900000101470","name":"세종푸르지오시티","lat":36.496004,"lng":127.263926,"roadAddr":"세종특별자치시 갈매로 364, 세종시 푸르지오시티 (어진동)","jibunAddr":"세종특별자치시 어진동 656 세종시 푸르지오시티","openHours":"상시","maleToilets":4,"femaleToilets":4,"disabled":true,"diaperTable":false,"emergencyBell":false,"cctv":false,"managerTel":"0448689567","source":"public","category":"public"},{"id":"202456900000101680","name":"포레뷰1차","lat":36.489796,"lng":127.256157,"roadAddr":"세종특별자치시 한누리대로 287, 세종포레뷰1 (나성동)","jibunAddr":"세종특별자치시 나성동 738 세종포레뷰1","openHours":"정시","maleToilets":5,"femaleToilets":3,"disabled":true,"diaperTable":false,"emergencyBell":false,"cctv":true,"source":"public","category":"public"},{"id":"202456900000101781","name":"갤러리세종프라자","lat":36.485929,"lng":127.258864,"roadAddr":"세종특별자치시 국세청로 4, 갤러리 세종프라자 (나성동)","jibunAddr":"세종특별자치시 나성동 767 갤러리 세종프라자","openHours":"상시","maleToilets":48,"femaleToilets":34,"disabled":true,"diaperTable":false,"emergencyBell":false,"cctv":true,"managerTel":"0448659971","source":"public","category":"public"},{"id":"202456900000101347","name":"뱅크빌딩","lat":36.495427,"lng":127.25723,"roadAddr":"세종특별자치시 한누리대로 350, 뱅크빌딩 (어진동)","jibunAddr":"세종특별자치시 어진동 686 뱅크빌딩","openHours":"상시","maleToilets":47,"femaleToilets":50,"disabled":true,"diaperTable":false,"emergencyBell":true,"cctv":false,"managerTel":"0448662942","source":"public","category":"public"},{"id":"202456900000101682","name":"푸드스퀘어 1동","lat":36.497742,"lng":127.2331,"roadAddr":"세종특별자치시 장군면 당암길 42","jibunAddr":"세종특별자치시 장군면 봉안리 38","openHours":"정시","maleToilets":5,"femaleToilets":3,"disabled":false,"diaperTable":false,"emergencyBell":false,"cctv":false,"source":"public","category":"public"},{"id":"202456900000101847","name":"정부세종청사문화관(박연문화관)","lat":36.498547,"lng":127.26383,"roadAddr":"세종특별자치시 갈매로 387 (어진동)","jibunAddr":"세종특별자치시 어진동 593","openHours":"정시","maleToilets":28,"femaleToilets":39,"disabled":true,"diaperTable":true,"emergencyBell":true,"cctv":false,"managerTel":"0448500542","source":"public","category":"public"},{"id":"202456900000101384","name":"삼성프라자","lat":36.512332,"lng":127.240099,"roadAddr":"세종특별자치시 만남로 146, 삼성프라자 (고운동)","jibunAddr":"세종특별자치시 고운동 2088 삼성프라자","openHours":"정시","maleToilets":4,"femaleToilets":4,"disabled":true,"diaperTable":false,"emergencyBell":false,"cctv":false,"source":"public","category":"public"},{"id":"202456900000101657","name":"초려역사공원 내 갈산서원","lat":36.50221,"lng":127.255696,"roadAddr":"세종특별자치시 도움1로 40, 초려역사공원 (어진동)","jibunAddr":"세종특별자치시 어진동 517 초려역사공원","openHours":"정시","maleToilets":2,"femaleToilets":2,"disabled":true,"diaperTable":false,"emergencyBell":false,"cctv":false,"managerTel":"0443016565","source":"public","category":"public"},{"id":"202456900000101416","name":"세종마루2","lat":36.492482,"lng":127.256814,"roadAddr":"세종특별자치시 한누리대로 316, 세종마루2 (나성동)","jibunAddr":"세종특별자치시 나성동 757 세종마루2","openHours":"정시","maleToilets":0,"femaleToilets":0,"disabled":true,"diaperTable":false,"emergencyBell":false,"cctv":true,"source":"public","category":"public"},{"id":"202456900000101724","name":"해피라움7","lat":36.51593,"lng":127.258453,"roadAddr":"세종특별자치시 한누리대로 589, 해피라움7 (도담동)","jibunAddr":"세종특별자치시 도담동 655 해피라움7","openHours":"정시","maleToilets":6,"femaleToilets":3,"disabled":true,"diaperTable":false,"emergencyBell":false,"cctv":true,"source":"public","category":"public"},{"id":"202456900000101390","name":"새롬종합복지센터","lat":36.48608,"lng":127.256289,"roadAddr":"세종특별자치시 새롬로 14, 새롬종합복지센터 (새롬동)","jibunAddr":"세종특별자치시 새롬동 567 새롬종합복지센터","openHours":"정시","maleToilets":30,"femaleToilets":45,"disabled":true,"diaperTable":false,"emergencyBell":true,"cctv":false,"managerTel":"0448508196","source":"public","category":"public"},{"id":"202456900000101550","name":"여울목수변공원","lat":36.476646,"lng":127.259452,"roadAddr":"세종특별자치시 나리로 90 (한솔동)","jibunAddr":"세종특별자치시 한솔동 1250","openHours":"상시","maleToilets":3,"femaleToilets":4,"disabled":true,"diaperTable":true,"emergencyBell":true,"cctv":false,"managerTel":"0443013634","source":"public","category":"public"},{"id":"202456900000101375","name":"부엉뜰근린공원","lat":36.479014,"lng":127.245865,"jibunAddr":"세종특별자치시 가람동 765","openHours":"상시","maleToilets":2,"femaleToilets":1,"disabled":true,"diaperTable":false,"emergencyBell":true,"cctv":false,"managerTel":"0443013634","source":"public","category":"public"},{"id":"202456900000101190","name":"가득뜰근린공원2","lat":36.483379,"lng":127.255728,"roadAddr":"세종특별자치시 새롬동 610","jibunAddr":"세종특별자치시 새롬동 610","openHours":"상시","maleToilets":2,"femaleToilets":1,"disabled":false,"diaperTable":false,"emergencyBell":false,"cctv":false,"managerTel":"0443013634","source":"public","category":"public"},{"id":"202456900000101388","name":"새롬빌딩","lat":36.486072,"lng":127.250315,"roadAddr":"세종특별자치시 새롬중앙로 59, 새롬빌딩 (새롬동)","jibunAddr":"세종특별자치시 새롬동 583 새롬빌딩","openHours":"상시","maleToilets":21,"femaleToilets":17,"disabled":true,"diaperTable":false,"emergencyBell":false,"cctv":true,"source":"public","category":"public"},{"id":"202456900000101471","name":"세종한신휴시티","lat":36.514305,"lng":127.258602,"roadAddr":"세종특별자치시 보듬3로 8-20, 세종한신휴시티 (도담동)","jibunAddr":"세종특별자치시 도담동 660 세종한신휴시티","openHours":"정시","maleToilets":14,"femaleToilets":8,"disabled":true,"diaperTable":false,"emergencyBell":true,"cctv":false,"source":"public","category":"public"},{"id":"202456900000101737","name":"호만빌딩","lat":36.504242,"lng":127.249756,"roadAddr":"세종특별자치시 달빛로 59, 호만빌딩 (종촌동)","jibunAddr":"세종특별자치시 종촌동 659 호만빌딩","openHours":"상시","maleToilets":29,"femaleToilets":24,"disabled":true,"diaperTable":false,"emergencyBell":true,"cctv":true,"managerTel":"0448658077","source":"public","category":"public"},{"id":"202456900000101215","name":"종촌동공영주차장","lat":36.503748,"lng":127.249708,"roadAddr":"세종특별자치시 달빛로 53, 종촌동공영주차장 (종촌동)","jibunAddr":"세종특별자치시 종촌동 664 종촌동공영주차장","openHours":"상시","maleToilets":4,"femaleToilets":5,"disabled":true,"diaperTable":false,"emergencyBell":true,"cctv":false,"managerTel":"0448501307","source":"public","category":"public"},{"id":"202456900000101548","name":"엠브릿지빌딩(M1동)","lat":36.502895,"lng":127.258074,"roadAddr":"세종특별자치시 도움3로 19, 엠브릿지 (어진동)","jibunAddr":"세종특별자치시 어진동 510 엠브릿지","openHours":"정시","maleToilets":39,"femaleToilets":51,"disabled":true,"diaperTable":false,"emergencyBell":true,"cctv":false,"managerTel":"0449951090","source":"public","category":"public"},{"id":"202456900000101734","name":"행운빌딩","lat":36.485757,"lng":127.250341,"roadAddr":"세종특별자치시 새롬중앙로 55, 행운빌딩 (새롬동)","jibunAddr":"세종특별자치시 새롬동 584 행운빌딩","openHours":"상시","maleToilets":23,"femaleToilets":18,"disabled":true,"diaperTable":false,"emergencyBell":false,"cctv":false,"managerTel":"0449982253","source":"public","category":"public"},{"id":"202456900000101539","name":"어진프라자","lat":36.507639,"lng":127.2628,"roadAddr":"세종특별자치시 도움8로 11-11, 어진프라자 (어진동)","jibunAddr":"세종특별자치시 어진동 551번지 어진프라자","openHours":"상시","maleToilets":5,"femaleToilets":4,"disabled":true,"diaperTable":false,"emergencyBell":false,"cctv":false,"source":"public","category":"public"},{"id":"202456900000101695","name":"한솔동모두의놀이터","lat":36.480183,"lng":127.259831,"roadAddr":"세종특별자치시 한솔동 945","jibunAddr":"세종특별자치시 한솔동 945","openHours":"정시","maleToilets":3,"femaleToilets":3,"disabled":true,"diaperTable":true,"emergencyBell":true,"cctv":false,"managerTel":"0443016131","source":"public","category":"public"},{"id":"202456900000101547","name":"엘스빌딩","lat":36.51229,"lng":127.249218,"roadAddr":"세종특별자치시 보듬3로 104-15, 엘스빌딩 (아름동)","jibunAddr":"세종특별자치시 아름동 1289 엘스빌딩","openHours":"상시","maleToilets":8,"femaleToilets":6,"disabled":false,"diaperTable":false,"emergencyBell":true,"cctv":false,"source":"public","category":"public"},{"id":"202456900000101651","name":"첫마을6단지 B상가","lat":36.474971,"lng":127.254788,"roadAddr":"세종특별자치시 누리로 28 (한솔동, 첫마을6단지)","jibunAddr":"세종특별자치시 한솔동 974 첫마을6단지","openHours":"정시","maleToilets":4,"femaleToilets":3,"disabled":false,"diaperTable":false,"emergencyBell":false,"cctv":false,"source":"public","category":"public"},{"id":"202456900000101798","name":"GS칼텍스 세종청사주유소","lat":36.516726,"lng":127.258386,"roadAddr":"세종특별자치시 보듬5로 6 (도담동)","jibunAddr":"세종특별자치시 도담동 631","openHours":"정시","maleToilets":1,"femaleToilets":0,"disabled":false,"diaperTable":false,"emergencyBell":false,"cctv":true,"managerTel":"0448625117","source":"public","category":"public"},{"id":"202456900000101381","name":"빛가람근린공원","lat":36.49505,"lng":127.255428,"jibunAddr":"세종특별자치시 다정동 923","openHours":"상시","maleToilets":2,"femaleToilets":2,"disabled":true,"diaperTable":true,"emergencyBell":true,"cctv":false,"managerTel":"0443013634","source":"public","category":"public"},{"id":"202456900000101748","name":"세종조이타워","lat":36.490186,"lng":127.25831,"roadAddr":"세종특별자치시 나성로 125-10, 조이타워 (나성동)","jibunAddr":"세종특별자치시 나성동 796 조이타워","openHours":"상시","maleToilets":7,"femaleToilets":3,"disabled":true,"diaperTable":false,"emergencyBell":false,"cctv":false,"source":"public","category":"public"},{"id":"202456900000101520","name":"아름동우체국","lat":36.511427,"lng":127.247329,"roadAddr":"세종특별자치시 보듬3로 111, 세종아름동우체국 (아름동)","jibunAddr":"세종특별자치시 아름동 1351 세종아름동우체국","openHours":"정시","maleToilets":5,"femaleToilets":4,"disabled":true,"diaperTable":true,"emergencyBell":false,"cctv":false,"managerTel":"0448689707","source":"public","category":"public"},{"id":"202456900000101484","name":"송남타워","lat":36.512258,"lng":127.242654,"roadAddr":"세종특별자치시 보듬3로 154, 송남빌딩 (아름동)","jibunAddr":"세종특별자치시 아름동 1316 송남빌딩","openHours":"상시","maleToilets":28,"femaleToilets":21,"disabled":true,"diaperTable":false,"emergencyBell":false,"cctv":false,"source":"public","category":"public"},{"id":"202456900000101232","name":"그랜드프라자","lat":36.505279,"lng":127.234076,"roadAddr":"세종특별자치시 마음로 74, 그랜드프라자 (고운동)","jibunAddr":"세종특별자치시 고운동 1719 그랜드프라자","openHours":"정시","maleToilets":5,"femaleToilets":5,"disabled":true,"diaperTable":false,"emergencyBell":false,"cctv":true,"source":"public","category":"public"},{"id":"202456900000101640","name":"종촌동복합커뮤니티센터","lat":36.504635,"lng":127.246869,"roadAddr":"세종특별자치시 도움3로 125, 종촌동주민센터 (종촌동)","jibunAddr":"세종특별자치시 종촌동 677 종촌동주민센터","openHours":"정시","maleToilets":34,"femaleToilets":22,"disabled":true,"diaperTable":false,"emergencyBell":true,"cctv":false,"managerTel":"0443016415","source":"public","category":"public"},{"id":"202456900000101696","name":"한솔동복합커뮤니티센터(정음관)","lat":36.476044,"lng":127.255736,"roadAddr":"세종특별자치시 나리로 57-26, 한솔동 복합커뮤니티센터 정음관 (한솔동)","jibunAddr":"세종특별자치시 한솔동 961 한솔동 복합커뮤니티센터 정음관","openHours":"정시","maleToilets":16,"femaleToilets":22,"disabled":true,"diaperTable":true,"emergencyBell":false,"cctv":false,"managerTel":"0443016144","source":"public","category":"public"},{"id":"202456900000101617","name":"정원타워","lat":36.512616,"lng":127.241888,"roadAddr":"세종특별자치시 세종로 1232, 정원타워 (아름동)","jibunAddr":"세종특별자치시 아름동 1313 정원타워","openHours":"정시","maleToilets":4,"femaleToilets":2,"disabled":true,"diaperTable":false,"emergencyBell":false,"cctv":false,"source":"public","category":"public"},{"id":"202456900000101686","name":"하나프라자","lat":36.479943,"lng":127.254933,"roadAddr":"세종특별자치시 노을3로 92, 하나프라자 (한솔동)","jibunAddr":"세종특별자치시 한솔동 930 하나프라자","openHours":"정시","maleToilets":4,"femaleToilets":3,"disabled":false,"diaperTable":false,"emergencyBell":false,"cctv":false,"source":"public","category":"public"},{"id":"202456900000101207","name":"고운뜰근린공원","lat":36.512504,"lng":127.239115,"roadAddr":"세종특별자치시 만남로 151 (고운동)","jibunAddr":"세종특별자치시 고운동 2105","openHours":"상시","maleToilets":7,"femaleToilets":7,"disabled":true,"diaperTable":true,"emergencyBell":true,"cctv":false,"managerTel":"0443013613","source":"public","category":"public"},{"id":"202456900000101700","name":"한솔빌딩","lat":36.480349,"lng":127.253727,"roadAddr":"세종특별자치시 노을3로 104, 한솔빌딩 (한솔동)","jibunAddr":"세종특별자치시 한솔동 927 한솔빌딩","openHours":"정시","maleToilets":4,"femaleToilets":2,"disabled":false,"diaperTable":false,"emergencyBell":false,"cctv":false,"source":"public","category":"public"},{"id":"202456900000101685","name":"하나타워","lat":36.512596,"lng":127.242663,"roadAddr":"세종특별자치시 세종로 1234-12, 하나타워 (아름동)","jibunAddr":"세종특별자치시 아름동 1310 하나타워","openHours":"정시","maleToilets":4,"femaleToilets":3,"disabled":true,"diaperTable":false,"emergencyBell":false,"cctv":false,"source":"public","category":"public"},{"id":"202456900000101401","name":"세종 에비뉴힐","lat":36.495606,"lng":127.262701,"roadAddr":"세종특별자치시 갈매로 353, 에비뉴힐 (어진동)","jibunAddr":"세종특별자치시 어진동 670 에비뉴힐","openHours":"상시","maleToilets":132,"femaleToilets":114,"disabled":true,"diaperTable":false,"emergencyBell":false,"cctv":true,"managerTel":"0448677833","source":"public","category":"public"},{"id":"202456900000101197","name":"갤러리밸류시티","lat":36.489932,"lng":127.257097,"roadAddr":"세종특별자치시 한누리대로 288 (나성동, 갤러리밸류시티)","jibunAddr":"세종특별자치시 나성동 764 갤러리밸류시티","openHours":"정시","maleToilets":4,"femaleToilets":3,"disabled":true,"diaperTable":false,"emergencyBell":false,"cctv":true,"source":"public","category":"public"},{"id":"202456900000101750","name":"도시상징광장","lat":36.485191,"lng":127.262104,"roadAddr":"세종특별자치시 어울누리로 30 (나성동)","jibunAddr":"세종특별자치시 나성동 248","openHours":"상시","maleToilets":16,"femaleToilets":20,"disabled":true,"diaperTable":true,"emergencyBell":true,"cctv":false,"managerTel":"0448501307","source":"public","category":"public"},{"id":"202456900000101694","name":"한솔119안전센터","lat":36.480504,"lng":127.259205,"roadAddr":"세종특별자치시 노을3로 29, 첫마을안전센터 (한솔동)","jibunAddr":"세종특별자치시 한솔동 942 첫마을안전센터","openHours":"정시","maleToilets":5,"femaleToilets":0,"disabled":true,"diaperTable":false,"emergencyBell":false,"cctv":false,"managerTel":"0443008422","source":"public","category":"public"},{"id":"202456900000101389","name":"새롬씨티","lat":36.488526,"lng":127.256485,"roadAddr":"세종특별자치시 한누리대로 273, 새롬씨티 (나성동)","jibunAddr":"세종특별자치시 나성동 741 새롬씨티","openHours":"상시","maleToilets":48,"femaleToilets":32,"disabled":true,"diaperTable":false,"emergencyBell":false,"cctv":false,"managerTel":"0448684970","source":"public","category":"public"},{"id":"202456900000101697","name":"한솔동복합커뮤니티센터(훈민관)","lat":36.479174,"lng":127.254667,"roadAddr":"세종특별자치시 노을3로 85, 한솔동주민센터 (한솔동)","jibunAddr":"세종특별자치시 한솔동 964 한솔동주민센터","openHours":"정시","maleToilets":9,"femaleToilets":13,"disabled":true,"diaperTable":false,"emergencyBell":false,"cctv":false,"managerTel":"0443016114","source":"public","category":"public"},{"id":"202456900000101320","name":"마드리드R","lat":36.511025,"lng":127.242556,"roadAddr":"세종특별자치시 아름서1길 13-1, 마드리드R (아름동)","jibunAddr":"세종특별자치시 아름동 1327 마드리드R","openHours":"상시","maleToilets":34,"femaleToilets":32,"disabled":true,"diaperTable":false,"emergencyBell":false,"cctv":true,"managerTel":"0448657488","source":"public","category":"public"},{"id":"202456900000101531","name":"아침뜰근린공원","lat":36.477451,"lng":127.254712,"jibunAddr":"세종특별자치시 한솔동 1246","openHours":"상시","maleToilets":5,"femaleToilets":6,"disabled":true,"diaperTable":true,"emergencyBell":true,"cctv":false,"managerTel":"0443013634","source":"public","category":"public"},{"id":"202456900000101519","name":"아름동복합커뮤니티센터","lat":36.512238,"lng":127.246983,"roadAddr":"세종특별자치시 보듬3로 114, 아름동행정복지센터 (아름동)","jibunAddr":"세종특별자치시 아름동 1286 아름동행정복지센터","openHours":"정시","maleToilets":22,"femaleToilets":23,"disabled":true,"diaperTable":true,"emergencyBell":true,"cctv":true,"managerTel":"0443016344","source":"public","category":"public"},{"id":"202456900000101723","name":"해피라움6","lat":36.515119,"lng":127.257808,"roadAddr":"세종특별자치시 보듬3로 8-29, 해피라움6 (도담동)","jibunAddr":"세종특별자치시 도담동 677 해피라움6","openHours":"상시","maleToilets":22,"femaleToilets":18,"disabled":true,"diaperTable":false,"emergencyBell":false,"cctv":true,"source":"public","category":"public"},{"id":"202456900000101202","name":"고운self주유소","lat":36.513925,"lng":127.23347,"roadAddr":"세종특별자치시 마음안로 136, 고운 self 주유소 (고운동)","jibunAddr":"세종특별자치시 고운동 1404 고운 self 주유소","openHours":"정시","maleToilets":2,"femaleToilets":1,"disabled":false,"diaperTable":false,"emergencyBell":false,"cctv":false,"managerTel":"0448675188","source":"public","category":"public"},{"id":"202456900000101227","name":"국민건강보험공단세종지사","lat":36.513458,"lng":127.241982,"roadAddr":"세종특별자치시 세종로 1234-5, 국민건강보험공단 세종 (아름동)","jibunAddr":"세종특별자치시 아름동 1308 국민건강보험공단 세종","openHours":"정시","maleToilets":6,"femaleToilets":7,"disabled":true,"diaperTable":true,"emergencyBell":true,"cctv":true,"managerTel":"0442517724","source":"public","category":"public"}]