[{"id":"202545000000100186","name":"연미산고개 화장실","lat":36.474111,"lng":127.101858,"roadAddr":"충청남도 공주시 우성면 연미산고개길 91","jibunAddr":"충청남도 공주시 우성면 신웅리 산26-3","openHours":"상시","maleToilets":4,"femaleToilets":3,"disabled":false,"diaperTable":false,"emergencyBell":true,"cctv":false,"managerTel":"0418402834","source":"public","category":"public"},{"id":"202545000000100444","name":"한옥마을 화장실","lat":36.464686,"lng":127.107592,"roadAddr":"충청남도 공주시 관광단지길 12","jibunAddr":"충청남도 공주시 웅진동 344-38","openHours":"상시","maleToilets":3,"femaleToilets":2,"disabled":true,"diaperTable":true,"emergencyBell":true,"cctv":false,"managerTel":"0418402251","source":"public","category":"public"},{"id":"202545000000100175","name":"공산성 임류각앞 화장실","lat":36.465216,"lng":127.123681,"roadAddr":"충청남도 공주시 웅진로 280","jibunAddr":"충청남도 공주시 금성동 10-2","openHours":"상시","maleToilets":1,"femaleToilets":3,"disabled":false,"diaperTable":false,"emergencyBell":true,"cctv":false,"managerTel":"0418402218","source":"public","category":"public"},{"id":"202545000000100010","name":"산성문화공원 공중화장실","lat":36.456915,"lng":127.122901,"roadAddr":"충청남도 공주시 풍물거리길 16 (산성동)","jibunAddr":"충청남도 공주시 산성동 181-90","openHours":"상시","maleToilets":4,"femaleToilets":4,"disabled":true,"diaperTable":false,"emergencyBell":true,"cctv":false,"managerTel":"0418408513","source":"public","category":"public"},{"id":"202545000000100443","name":"선화당 화장실","lat":36.465771,"lng":127.110003,"roadAddr":"충청남도 공주시 관광단지길 30-8","jibunAddr":"충청남도 공주시 웅진동 332-7","openHours":"상시","maleToilets":7,"femaleToilets":4,"disabled":true,"diaperTable":false,"emergencyBell":true,"cctv":false,"managerTel":"0418408206","source":"public","category":"public"},{"id":"202545000000100030","name":"보훈공원 화장실","lat":36.459778,"lng":127.113349,"roadAddr":"충청남도 공주시 진재길 7","jibunAddr":"충청남도 공주시 웅진동 65","openHours":"상시","maleToilets":3,"femaleToilets":2,"disabled":true,"diaperTable":false,"emergencyBell":true,"cctv":true,"managerTel":"0418408123","source":"public","category":"public"},{"id":"202545000000100416","name":"금강신관공원 공중화장실(1)","lat":36.470224,"lng":127.127501,"roadAddr":"충청남도 공주시 금벽로 368 (신관동)","jibunAddr":"충청남도 공주시 신관동 553","openHours":"상시","maleToilets":3,"femaleToilets":3,"disabled":false,"diaperTable":false,"emergencyBell":true,"cctv":false,"managerTel":"0418408513","source":"public","category":"public"},{"id":"202545000000100231","name":"무령왕릉과 왕릉원 쉼터화장실","lat":36.462446,"lng":127.112978,"roadAddr":"충청남도 공주시 왕릉로 37","jibunAddr":"충청남도 공주시 금성동 146-2","openHours":"상시","maleToilets":2,"femaleToilets":2,"disabled":true,"diaperTable":false,"emergencyBell":true,"cctv":false,"managerTel":"0418402218","source":"public","category":"public"},{"id":"202545000000100179","name":"공주우체국 1층 화장실","lat":36.454747,"lng":127.122773,"roadAddr":"충청남도 공주시 우체국길 15 (반죽동, 공주우체국)","jibunAddr":"충청남도 공주시 반죽동 152-2","openHours":"(평일)09:00~18:00","maleToilets":6,"femaleToilets":3,"disabled":true,"diaperTable":false,"emergencyBell":false,"cctv":false,"managerTel":"0418512613","source":"public","category":"public"},{"id":"202545000000100212","name":"한마음관(문화관)","lat":36.450563,"lng":127.132534,"roadAddr":"충청남도 공주시 우금티로 753","jibunAddr":"충청남도 공주시 옥룡동 201","openHours":"(평일)09:00~18:00","maleToilets":2,"femaleToilets":1,"disabled":true,"diaperTable":false,"emergencyBell":false,"cctv":false,"managerTel":"0418500735","source":"public","category":"public"},{"id":"202545000000100407","name":"금성동 게이트볼 공중화장실(3)","lat":36.466662,"lng":127.120926,"roadAddr":"충청남도 공주시 느티나무길 73 (금성동)","jibunAddr":"충청남도 공주시 금성동 73-11","openHours":"상시","maleToilets":3,"femaleToilets":3,"disabled":false,"diaperTable":false,"emergencyBell":true,"cctv":false,"managerTel":"0418408513","source":"public","category":"public"},{"id":"202545000000100298","name":"산성시장 철물점 앞 공중화장실","lat":36.457468,"lng":127.124278,"roadAddr":"충청남도 공주시 산성시장3길 44-11","jibunAddr":"충청남도 공주시 산성동 181-8","openHours":"상시","maleToilets":5,"femaleToilets":4,"disabled":false,"diaperTable":false,"emergencyBell":true,"cctv":false,"managerTel":"0418408513","source":"public","category":"public"},{"id":"202545000000100229","name":"산성시장 휴그린 공중화장실","lat":36.458859,"lng":127.124487,"roadAddr":"충청남도 공주시 용당길 2-3","jibunAddr":"충청남도 공주시 산성동 175-10","openHours":"상시","maleToilets":5,"femaleToilets":5,"disabled":true,"diaperTable":true,"emergencyBell":true,"cctv":false,"managerTel":"0418408513","source":"public","category":"public"},{"id":"202545000000100500","name":"백제오감체험관 공중화장실","lat":36.462521,"lng":127.111248,"roadAddr":"충청남도 공주시 고마나루길 30","jibunAddr":"충청남도 공주시 웅진동 319-3","openHours":"(평일)09:00~18:00","maleToilets":12,"femaleToilets":6,"disabled":true,"diaperTable":false,"emergencyBell":true,"cctv":false,"managerTel":"0418402213","source":"public","category":"public"},{"id":"202545000000100442","name":"국립공주박물관 공중화장실","lat":36.465529,"lng":127.11218,"roadAddr":"충청남도 공주시 관광단지길34 국립공주박물관","jibunAddr":"충청남도 공주시 웅진동 360","openHours":"(평일)09:00~18:00","maleToilets":33,"femaleToilets":25,"disabled":false,"diaperTable":false,"emergencyBell":false,"cctv":false,"managerTel":"0418506327","source":"public","category":"public"},{"id":"202545000000100233","name":"송산리 고분군 매표소앞 화장실","lat":36.462446,"lng":127.112978,"roadAddr":"충청남도 공주시 왕릉로 37","jibunAddr":"충청남도 공주시 금성동 149-1","openHours":"상시","maleToilets":8,"femaleToilets":5,"disabled":true,"diaperTable":true,"emergencyBell":true,"cctv":false,"managerTel":"0418402217","source":"public","category":"public"},{"id":"202545000000100508","name":"웅진도서관 화장실","lat":36.460733,"lng":127.111043,"roadAddr":"충청남도 공주시 고마나루길 17","jibunAddr":"충청남도 공주시 웅진동 300-9","openHours":"(평일)09:00~22:00+(주말)09:00~22:00","maleToilets":18,"femaleToilets":16,"disabled":true,"diaperTable":true,"emergencyBell":true,"cctv":false,"managerTel":"0418402239","source":"public","category":"public"},{"id":"202545000000100386","name":"공주소방서 화장실","lat":36.459449,"lng":127.10835,"roadAddr":"충청남도 공주시 무령로 55","jibunAddr":"충청남도 공주시 웅진동 256-11","openHours":"상시","maleToilets":25,"femaleToilets":9,"disabled":true,"diaperTable":true,"emergencyBell":true,"cctv":false,"managerTel":"0418510221","source":"public","category":"public"},{"id":"202545000000100497","name":"고마","lat":36.466588,"lng":127.107572,"roadAddr":"충청남도 공주시 고마나루길 90","jibunAddr":"충청남도 공주시 웅진동 347","openHours":"(평일)09:00~18:00","maleToilets":30,"femaleToilets":29,"disabled":true,"diaperTable":false,"emergencyBell":false,"cctv":false,"managerTel":"0418402299","source":"public","category":"public"},{"id":"202545000000100285","name":"쌍신공원화장실(3) *행사시에만 개방","lat":36.472722,"lng":127.123111,"roadAddr":"충청남도 공주시 신관동 495-167","jibunAddr":"충청남도 공주시 신관동 495-167","openHours":"(평일)09:00~18:00","maleToilets":2,"femaleToilets":1,"disabled":false,"diaperTable":false,"emergencyBell":false,"cctv":false,"managerTel":"0418402592","source":"public","category":"public"},{"id":"202545000000100417","name":"금강신관공원 공중화장실(2)","lat":36.470224,"lng":127.127501,"roadAddr":"충청남도 공주시 금벽로 368 (신관동)","jibunAddr":"충청남도 공주시 신관동 553","openHours":"상시","maleToilets":3,"femaleToilets":3,"disabled":false,"diaperTable":false,"emergencyBell":true,"cctv":false,"managerTel":"0418408513","source":"public","category":"public"},{"id":"202545000000100415","name":"신관공원 이동식화장실(주차장)","lat":36.470224,"lng":127.127501,"roadAddr":"충청남도 공주시 금벽로 368(신관동)","jibunAddr":"충청남도 공주시 신관동 553","openHours":"상시","maleToilets":4,"femaleToilets":3,"disabled":false,"diaperTable":false,"emergencyBell":false,"cctv":false,"managerTel":"0418408513","source":"public","category":"public"},{"id":"202545000000100379","name":"시외버스 산성정류소","lat":36.461908,"lng":127.12349,"roadAddr":"충청남도 공주시 미나리1길 6-8(금성동)","jibunAddr":"충청남도 공주시 금성동 200-4","openHours":"(평일)09:00~22:00+(주말)09:00~22:00","maleToilets":3,"femaleToilets":1,"disabled":false,"diaperTable":false,"emergencyBell":false,"cctv":false,"managerTel":"0418585010","source":"public","category":"public"},{"id":"202545000000100209","name":"자료보존관","lat":36.450563,"lng":127.132534,"roadAddr":"충청남도 공주시 우금티로 753","jibunAddr":"충청남도 공주시 옥룡동 201","openHours":"(평일)09:00~18:00","maleToilets":20,"femaleToilets":8,"disabled":true,"diaperTable":false,"emergencyBell":false,"cctv":false,"managerTel":"0418500735","source":"public","category":"public"},{"id":"202545000000100502","name":"시민운동장(관리실)","lat":36.462112,"lng":127.108274,"roadAddr":"충청남도 공주시 고마나루길 25","jibunAddr":"충청남도 공주시 웅진동 300-9","openHours":"상시","maleToilets":4,"femaleToilets":3,"disabled":true,"diaperTable":false,"emergencyBell":true,"cctv":false,"managerTel":"0418402197","source":"public","category":"public"},{"id":"202545000000100172","name":"공산성 쌍수정옆 화장실","lat":36.465216,"lng":127.123681,"roadAddr":"충청남도 공주시 웅진로 280","jibunAddr":"충청남도 공주시 금성동 14-4","openHours":"상시","maleToilets":2,"femaleToilets":5,"disabled":false,"diaperTable":false,"emergencyBell":true,"cctv":false,"managerTel":"0418402218","source":"public","category":"public"},{"id":"202545000000100237","name":"웅진백제역사관내 화장실","lat":36.462446,"lng":127.112978,"roadAddr":"충청남도 공주시 왕릉로 37","jibunAddr":"충청남도 공주시 웅진동 57-1","openHours":"(평일)09:00~18:00","maleToilets":9,"femaleToilets":7,"disabled":true,"diaperTable":false,"emergencyBell":true,"cctv":false,"managerTel":"0418402218","source":"public","category":"public"},{"id":"202545000000100330","name":"곰나루(공중)","lat":36.471529,"lng":127.111671,"roadAddr":"충청남도 공주시 백제큰길 2104","jibunAddr":"충청남도 공주시 웅진동 431","openHours":"상시","maleToilets":9,"femaleToilets":7,"disabled":true,"diaperTable":true,"emergencyBell":true,"cctv":false,"managerTel":"0418402193","source":"public","category":"public"},{"id":"202545000000100319","name":"공주시청(본관)","lat":36.446162,"lng":127.119069,"roadAddr":"충청남도 공주시 봉황로1","jibunAddr":"충청남도 공주시 봉황동319","openHours":"상시","maleToilets":28,"femaleToilets":15,"disabled":true,"diaperTable":true,"emergencyBell":true,"cctv":false,"managerTel":"0418408273","source":"public","category":"public"},{"id":"202545000000100171","name":"공산성 방문자센터 공중화장실","lat":36.465216,"lng":127.123681,"roadAddr":"충청남도 공주시 웅진로 280","jibunAddr":"충청남도 공주시 금성동 65-2","openHours":"(평일)09:00~18:00","maleToilets":4,"femaleToilets":3,"disabled":true,"diaperTable":false,"emergencyBell":false,"cctv":false,"managerTel":"0418402218","source":"public","category":"public"},{"id":"202545000000100335","name":"웅진동 행정복지센터 화장실","lat":36.465012,"lng":127.122108,"roadAddr":"충청남도 공주시 백미고을길 9-8(금성동)","jibunAddr":"충청남도 공주시 금성동 182-2","openHours":"(평일)09:00~18:00","maleToilets":2,"femaleToilets":2,"disabled":true,"diaperTable":true,"emergencyBell":true,"cctv":true,"managerTel":"0418402860","source":"public","category":"public"},{"id":"202545000000100503","name":"시민운동장(남문)","lat":36.462112,"lng":127.108274,"roadAddr":"충청남도 공주시 고마나루길 25","jibunAddr":"충청남도 공주시 웅진동 300-9","openHours":"'(평일)09:00~18:00+(주말)09:00~18:00","maleToilets":6,"femaleToilets":4,"disabled":true,"diaperTable":true,"emergencyBell":true,"cctv":false,"managerTel":"0418402197","source":"public","category":"public"},{"id":"202545000000100232","name":"무령왕릉과 왕릉원 주차장 화장실","lat":36.462446,"lng":127.112978,"roadAddr":"충청남도 공주시 왕릉로 37","jibunAddr":"충청남도 공주시 웅진동 57-1","openHours":"상시","maleToilets":12,"femaleToilets":11,"disabled":true,"diaperTable":false,"emergencyBell":true,"cctv":false,"managerTel":"0418402218","source":"public","category":"public"},{"id":"202545000000100180","name":"공주우체국 2층 화장실","lat":36.454747,"lng":127.122773,"roadAddr":"충청남도 공주시 우체국길 15 (반죽동, 공주우체국)","jibunAddr":"충청남도 공주시 반죽동 152-2","openHours":"(평일)09:00~18:00","maleToilets":11,"femaleToilets":0,"disabled":false,"diaperTable":false,"emergencyBell":false,"cctv":false,"managerTel":"0418512613","source":"public","category":"public"},{"id":"202545000000100207","name":"예술관","lat":36.450563,"lng":127.132534,"roadAddr":"충청남도 공주시 우금티로 753","jibunAddr":"충청남도 공주시 옥룡동 201","openHours":"(평일)09:00~18:00","maleToilets":20,"femaleToilets":15,"disabled":false,"diaperTable":false,"emergencyBell":false,"cctv":false,"managerTel":"0418500735","source":"public","category":"public"},{"id":"202545000000100299","name":"산성시장 뚝방 공중화장실","lat":36.457915,"lng":127.122857,"roadAddr":"충청남도 공주시 산성시장1길 67-24","jibunAddr":"충청남도 공주시 산성동 193-6","openHours":"상시","maleToilets":8,"femaleToilets":5,"disabled":false,"diaperTable":true,"emergencyBell":true,"cctv":false,"managerTel":"0418408513","source":"public","category":"public"},{"id":"202545000000100501","name":"시민운동장(공중)","lat":36.462112,"lng":127.108274,"roadAddr":"충청남도 공주시 고마나루길 25","jibunAddr":"충청남도 공주시 웅진동 300-9","openHours":"상시","maleToilets":8,"femaleToilets":4,"disabled":true,"diaperTable":false,"emergencyBell":true,"cctv":false,"managerTel":"0418402183","source":"public","category":"public"},{"id":"202545000000100173","name":"공산성 영은사앞 화장실","lat":36.465216,"lng":127.123681,"roadAddr":"충청남도 공주시 웅진로 280","jibunAddr":"충청남도 공주시 금성동 11-1","openHours":"상시","maleToilets":4,"femaleToilets":2,"disabled":false,"diaperTable":false,"emergencyBell":true,"cctv":false,"managerTel":"0418402218","source":"public","category":"public"},{"id":"202545000000100440","name":"금성동 게이트볼 공중화장실(1)","lat":36.466977,"lng":127.121848,"roadAddr":"충청남도 공주시 금강공원길 26 (금성동)","jibunAddr":"충청남도 공주시 금성동 71","openHours":"상시","maleToilets":0,"femaleToilets":0,"disabled":false,"diaperTable":false,"emergencyBell":false,"cctv":false,"managerTel":"0418408513","source":"public","category":"public"},{"id":"202545000000100219","name":"우금치전적지 공중화장실","lat":36.433223,"lng":127.11199,"roadAddr":"충청남도 공주시 우금티로 431-45 (금학동)","jibunAddr":"충청남도 공주시 금학동 327-6","openHours":"상시","maleToilets":4,"femaleToilets":3,"disabled":true,"diaperTable":false,"emergencyBell":false,"cctv":false,"managerTel":"0418408513","source":"public","category":"public"},{"id":"202545000000100297","name":"산성시장 싸전앞 공중화장실","lat":36.458157,"lng":127.124329,"roadAddr":"충청남도 공주시 산성시장4길 88","jibunAddr":"충청남도 공주시 산성동 186-16","openHours":"상시","maleToilets":3,"femaleToilets":3,"disabled":false,"diaperTable":false,"emergencyBell":true,"cctv":false,"managerTel":"0418408513","source":"public","category":"public"},{"id":"202545000000100174","name":"공산성 옛성안마을 화장실","lat":36.465216,"lng":127.123681,"roadAddr":"충청남도 공주시 웅진로 280","jibunAddr":"충청남도 공주시 금성동 53-33","openHours":"상시","maleToilets":6,"femaleToilets":4,"disabled":true,"diaperTable":false,"emergencyBell":true,"cctv":false,"managerTel":"0418402218","source":"public","category":"public"},{"id":"202545000000100320","name":"치매안심센터2관 화장실","lat":36.4575,"lng":127.120967,"roadAddr":"충청남도 공주시 봉황로 125","jibunAddr":"충청남도 공주시 교동 120","openHours":"(평일)09:00~18:00","maleToilets":9,"femaleToilets":9,"disabled":true,"diaperTable":false,"emergencyBell":true,"cctv":false,"managerTel":"0418403301","source":"public","category":"public"},{"id":"202545000000100499","name":"문예회관 화장실","lat":36.460178,"lng":127.111724,"roadAddr":"충청남도 공주시 고마나루길 5","jibunAddr":"충청남도 공주시 웅진동 283","openHours":"(평일)09:00~22:00+(주말)09:00~22:00","maleToilets":17,"femaleToilets":11,"disabled":true,"diaperTable":false,"emergencyBell":false,"cctv":false,"managerTel":"0418402183","source":"public","category":"public"},{"id":"202545000000100441","name":"금성동 게이트볼 공중화장실(2)","lat":36.466977,"lng":127.121848,"roadAddr":"충청남도 공주시 금강공원길 26 (금성동)","jibunAddr":"충청남도 공주시 금성동 71","openHours":"상시","maleToilets":0,"femaleToilets":0,"disabled":false,"diaperTable":false,"emergencyBell":false,"cctv":false,"managerTel":"0418408513","source":"public","category":"public"},{"id":"202545000000100318","name":"공주시청(별관2)","lat":36.446162,"lng":127.119069,"roadAddr":"충청남도 공주시 봉황로1","jibunAddr":"충청남도 공주시 봉황동319","openHours":"(평일)09:00~18:00","maleToilets":10,"femaleToilets":5,"disabled":true,"diaperTable":true,"emergencyBell":false,"cctv":true,"managerTel":"0418408273","source":"public","category":"public"},{"id":"202545000000100504","name":"시민운동장(북문)","lat":36.462112,"lng":127.108274,"roadAddr":"충청남도 공주시 고마나루길 25","jibunAddr":"충청남도 공주시 웅진동 300-9","openHours":"'(평일)09:00~18:00+(주말)09:00~18:00","maleToilets":3,"femaleToilets":6,"disabled":false,"diaperTable":true,"emergencyBell":true,"cctv":true,"managerTel":"0418402197","source":"public","category":"public"},{"id":"202545000000100378","name":"어르신놀이터 공중화장실","lat":36.463052,"lng":127.122411,"roadAddr":"충청남도 공주시 미나리3길 8 (금성동)","jibunAddr":"충청남도 공주시 금성동 192-4","openHours":"상시","maleToilets":2,"femaleToilets":2,"disabled":true,"diaperTable":false,"emergencyBell":false,"cctv":false,"managerTel":"0418408513","source":"public","category":"public"},{"id":"202545000000100181","name":"공주우체국 3층 화장실","lat":36.454747,"lng":127.122773,"roadAddr":"충청남도 공주시 우체국길 15 (반죽동, 공주우체국)","jibunAddr":"충청남도 공주시 반죽동 152-2","openHours":"(평일)09:00~18:00","maleToilets":7,"femaleToilets":3,"disabled":false,"diaperTable":false,"emergencyBell":false,"cctv":false,"managerTel":"0418512613","source":"public","category":"public"},{"id":"202545000000100532","name":"중학동행정복지센터","lat":36.452558,"lng":127.121901,"roadAddr":"충청남도 공주시 감영길4","jibunAddr":"충청남도 공주시 반죽동 241-2","openHours":"상시","maleToilets":0,"femaleToilets":0,"disabled":true,"diaperTable":true,"emergencyBell":true,"cctv":false,"managerTel":"0418402855","source":"public","category":"public"},{"id":"202545000000100286","name":"금학생태공원 공중화장실","lat":36.433819,"lng":127.123846,"roadAddr":"충청남도 공주시 수원지공원길74","jibunAddr":"충청남도 공주시 금학동 108-3","openHours":"상시","maleToilets":2,"femaleToilets":3,"disabled":true,"diaperTable":true,"emergencyBell":true,"cctv":false,"managerTel":"0418402574","source":"public","category":"public"},{"id":"202545000000100498","name":"백제체육관","lat":36.46257,"lng":127.106892,"roadAddr":"충청남도 공주시 고마나루길 51-14","jibunAddr":"충청남도 공주시 웅진동 294","openHours":"(평일)09:00~18:00","maleToilets":45,"femaleToilets":14,"disabled":true,"diaperTable":false,"emergencyBell":false,"cctv":false,"managerTel":"0418402182","source":"public","category":"public"},{"id":"202545000000100317","name":"공주시청(별관1)","lat":36.446162,"lng":127.119069,"roadAddr":"충청남도 공주시 봉황로1","jibunAddr":"충청남도 공주시 봉황동319","openHours":"(평일)09:00~18:00","maleToilets":16,"femaleToilets":10,"disabled":true,"diaperTable":true,"emergencyBell":false,"cctv":true,"managerTel":"0418408273","source":"public","category":"public"},{"id":"202545000000100234","name":"송산리 고분군 쉼터화장실","lat":36.462446,"lng":127.112978,"roadAddr":"충청남도 공주시 왕릉로 37","jibunAddr":"충청남도 공주시 금성동 146-2","openHours":"상시","maleToilets":3,"femaleToilets":2,"disabled":false,"diaperTable":false,"emergencyBell":true,"cctv":false,"managerTel":"0418402217","source":"public","category":"public"},{"id":"202545000000100446","name":"신관동 주민센터 화장실","lat":36.47237,"lng":127.132644,"roadAddr":"충청남도 공주시 관골1길 24-5","jibunAddr":"충청남도 공주시 신관동 585-4","openHours":"(평일)09:00~18:00","maleToilets":3,"femaleToilets":2,"disabled":false,"diaperTable":true,"emergencyBell":false,"cctv":false,"managerTel":"0418402880","source":"public","category":"public"},{"id":"202545000000100336","name":"웅진동사무소 화장실","lat":36.465012,"lng":127.122108,"roadAddr":"충청남도 공주시 백미고을길 9-8(금성동)","jibunAddr":"충청남도 공주시 금성동 182-2","openHours":"(평일)09:00~18:00","maleToilets":3,"femaleToilets":2,"disabled":true,"diaperTable":false,"emergencyBell":false,"cctv":false,"managerTel":"0418402860","source":"public","category":"public"},{"id":"202545000000100505","name":"시민운동장(서문)","lat":36.462112,"lng":127.108274,"roadAddr":"충청남도 공주시 고마나루길 25","jibunAddr":"충청남도 공주시 웅진동 300-9","openHours":"'(평일)09:00~18:00+(주말)09:00~18:00","maleToilets":3,"femaleToilets":6,"disabled":false,"diaperTable":true,"emergencyBell":true,"cctv":false,"managerTel":"0418402197","source":"public","category":"public"},{"id":"202545000000100230","name":"무령왕릉과 왕릉원 매표소앞 화장실","lat":36.462446,"lng":127.112978,"roadAddr":"충청남도 공주시 왕릉로 37","jibunAddr":"충청남도 공주시 금성동 149-1","openHours":"상시","maleToilets":4,"femaleToilets":4,"disabled":true,"diaperTable":true,"emergencyBell":true,"cctv":false,"managerTel":"0418402218","source":"public","category":"public"},{"id":"202545000000100228","name":"웅진동주민자치센터 화장실","lat":36.458672,"lng":127.120026,"roadAddr":"충청남도 공주시 용당길 45(교동)","jibunAddr":"충청남도 공주시 교동 65-4","openHours":"(평일)09:00~18:00","maleToilets":5,"femaleToilets":2,"disabled":false,"diaperTable":false,"emergencyBell":true,"cctv":false,"managerTel":"0418402422","source":"public","category":"public"},{"id":"202545000000100210","name":"평생교육원","lat":36.450563,"lng":127.132534,"roadAddr":"충청남도 공주시 우금티로 753","jibunAddr":"충청남도 공주시 옥룡동 201","openHours":"(평일)09:00~18:00","maleToilets":28,"femaleToilets":28,"disabled":true,"diaperTable":false,"emergencyBell":false,"cctv":false,"managerTel":"0418500735","source":"public","category":"public"},{"id":"202545000000100128","name":"은개골 공원 화장실","lat":36.459454,"lng":127.132228,"roadAddr":"충청남도 공주시 은개길 32","jibunAddr":"충청남도 공주시 옥룡동 358-7","openHours":"상시","maleToilets":3,"femaleToilets":2,"disabled":true,"diaperTable":false,"emergencyBell":true,"cctv":false,"managerTel":"0418402218","source":"public","category":"public"},{"id":"202545000000100208","name":"유아교육관","lat":36.450563,"lng":127.132534,"roadAddr":"충청남도 공주시 우금티로 753","jibunAddr":"충청남도 공주시 옥룡동 201","openHours":"(평일)09:00~18:00","maleToilets":23,"femaleToilets":23,"disabled":true,"diaperTable":false,"emergencyBell":false,"cctv":false,"managerTel":"0418500735","source":"public","category":"public"},{"id":"202545000000100227","name":"웅진동 주민자치센터 화장실","lat":36.458672,"lng":127.120026,"roadAddr":"충청남도 공주시 용당길 45(교동)","jibunAddr":"충청남도 공주시 교동 65-4","openHours":"(평일)09:00~18:00","maleToilets":3,"femaleToilets":2,"disabled":false,"diaperTable":false,"emergencyBell":true,"cctv":false,"managerTel":"0418402860","source":"public","category":"public"},{"id":"202545000000100215","name":"금학지구대 민원인 화장실","lat":36.442385,"lng":127.120012,"roadAddr":"충청남도 공주시 우금티로 535 (금학동)","jibunAddr":"충청남도 공주시 금학동 250-3","openHours":"상시","maleToilets":2,"femaleToilets":1,"disabled":true,"diaperTable":false,"emergencyBell":false,"cctv":false,"managerTel":"0418588901","source":"public","category":"public"},{"id":"202545000000100216","name":"금학동행정복지센터","lat":36.438835,"lng":127.119393,"roadAddr":"충청남도 공주시 우금티로 496-3","jibunAddr":"충청남도 공주시 금학동 357-8","openHours":"(평일)09:00~18:00","maleToilets":5,"femaleToilets":2,"disabled":true,"diaperTable":true,"emergencyBell":true,"cctv":false,"managerTel":"0418402865","source":"public","category":"public"},{"id":"202545000000100507","name":"시립도서관 화장실","lat":36.460733,"lng":127.111043,"roadAddr":"충청남도 공주시 고마나루길 17","jibunAddr":"충청남도 공주시 웅진동 300-9","openHours":"(평일)09:00~18:00","maleToilets":18,"femaleToilets":16,"disabled":true,"diaperTable":false,"emergencyBell":false,"cctv":false,"managerTel":"0418402205","source":"public","category":"public"},{"id":"202545000000100383","name":"공주의료원 화장실","lat":36.458878,"lng":127.109496,"roadAddr":"충청남도 공주시 무령로 77 (웅진동, 공주의료원)","jibunAddr":"충청남도 공주시 웅진동 266","openHours":"상시","maleToilets":55,"femaleToilets":50,"disabled":false,"diaperTable":false,"emergencyBell":false,"cctv":false,"managerTel":"0419621668","source":"public","category":"public"},{"id":"202545000000100211","name":"한마루관(학생회관)","lat":36.450563,"lng":127.132534,"roadAddr":"충청남도 공주시 우금티로 753","jibunAddr":"충청남도 공주시 옥룡동 201","openHours":"(평일)09:00~18:00","maleToilets":21,"femaleToilets":18,"disabled":true,"diaperTable":false,"emergencyBell":false,"cctv":false,"managerTel":"0418500735","source":"public","category":"public"},{"id":"202545000000100176","name":"공산성 주차장 화장실","lat":36.465216,"lng":127.123681,"roadAddr":"충청남도 공주시 웅진로 280","jibunAddr":"충청남도 공주시 금성동 16-1","openHours":"상시","maleToilets":7,"femaleToilets":4,"disabled":true,"diaperTable":false,"emergencyBell":true,"cctv":false,"managerTel":"0418402218","source":"public","category":"public"},{"id":"202545000000100247","name":"치매안심센터1관 화장실","lat":36.457017,"lng":127.120172,"roadAddr":"충청남도 공주시 옛군청뒷길 8","jibunAddr":"충청남도 공주시 교동 131","openHours":"(평일)09:00~18:00","maleToilets":2,"femaleToilets":2,"disabled":true,"diaperTable":false,"emergencyBell":false,"cctv":false,"managerTel":"0418403311","source":"public","category":"public"},{"id":"202545000000100438","name":"쌍신공원화장실(2)","lat":36.474176,"lng":127.120832,"roadAddr":"충청남도 공주시 금강쌍신공원자전거길 58","jibunAddr":"충청남도 공주시 신관동 495-20","openHours":"상시","maleToilets":4,"femaleToilets":4,"disabled":false,"diaperTable":false,"emergencyBell":true,"cctv":false,"managerTel":"0418408664","source":"public","category":"public"},{"id":"202545000000100332","name":"곰나루(시범)","lat":36.471529,"lng":127.111671,"roadAddr":"충청남도 공주시 백제큰길 2104","jibunAddr":"충청남도 공주시 웅진동 431","openHours":"상시","maleToilets":8,"femaleToilets":4,"disabled":true,"diaperTable":false,"emergencyBell":true,"cctv":false,"managerTel":"0418402353","source":"public","category":"public"},{"id":"202545000000100235","name":"송산리 고분군 주차장 화장실","lat":36.462446,"lng":127.112978,"roadAddr":"충청남도 공주시 왕릉로 37","jibunAddr":"충청남도 공주시 웅진동 57-1","openHours":"상시","maleToilets":12,"femaleToilets":11,"disabled":false,"diaperTable":false,"emergencyBell":true,"cctv":false,"managerTel":"0418402217","source":"public","category":"public"},{"id":"202545000000100331","name":"곰나루(관리실)","lat":36.471529,"lng":127.111671,"roadAddr":"충청남도 공주시 백제큰길 2104","jibunAddr":"충청남도 공주시 웅진동 431","openHours":"상시","maleToilets":5,"femaleToilets":2,"disabled":false,"diaperTable":false,"emergencyBell":true,"cctv":false,"managerTel":"0418402193","source":"public","category":"public"},{"id":"202545000000100406","name":"공주시노인종합복지관","lat":36.452316,"lng":127.121908,"roadAddr":"충청남도 공주시 당간지주길 7","jibunAddr":"충청남도 공주시 반죽동 238-1","openHours":"(평일)09:00~18:00","maleToilets":6,"femaleToilets":12,"disabled":true,"diaperTable":true,"emergencyBell":true,"cctv":false,"managerTel":"0418528861","source":"public","category":"public"},{"id":"202545000000100213","name":"한얼배움터(공학관)","lat":36.450563,"lng":127.132534,"roadAddr":"충청남도 공주시 우금티로 753","jibunAddr":"충청남도 공주시 옥룡동 201","openHours":"(평일)09:00~18:00","maleToilets":36,"femaleToilets":30,"disabled":true,"diaperTable":false,"emergencyBell":false,"cctv":false,"managerTel":"0418500735","source":"public","category":"public"},{"id":"202545000000100506","name":"시민운동장(지하1층)","lat":36.462112,"lng":127.108274,"roadAddr":"충청남도 공주시 고마나루길 25","jibunAddr":"충청남도 공주시 웅진동 300-9","openHours":"(평일)09:00~18:00","maleToilets":4,"femaleToilets":4,"disabled":true,"diaperTable":false,"emergencyBell":false,"cctv":false,"managerTel":"0418402197","source":"public","category":"public"},{"id":"202545000000100321","name":"공주시보건소 화장실","lat":36.457117,"lng":127.120656,"roadAddr":"충청남도 공주시 봉황로 123","jibunAddr":"충청남도 공주시 교동 120","openHours":"(평일)09:00~18:00","maleToilets":9,"femaleToilets":15,"disabled":true,"diaperTable":false,"emergencyBell":true,"cctv":false,"managerTel":"0418403209","source":"public","category":"public"},{"id":"202545000000100533","name":"공주고앞 주차장 공중화장실","lat":36.452894,"lng":127.121514,"roadAddr":"충청남도 공주시 감영길 1 (반죽동)","jibunAddr":"충청남도 공주시 중학동 197-2","openHours":"상시","maleToilets":2,"femaleToilets":1,"disabled":false,"diaperTable":false,"emergencyBell":false,"cctv":false,"managerTel":"0418408513","source":"public","category":"public"}]