[{"id":"202547310000100097","name":"감동마을화장실5","lat":35.965109,"lng":127.536002,"roadAddr":"전북특별자치도 진안군 용담면 감동길 63","openHours":"상시","maleToilets":3,"femaleToilets":3,"disabled":false,"diaperTable":false,"emergencyBell":false,"cctv":false,"managerTel":"0634308213","source":"public","category":"public"},{"id":"202547310000100098","name":"농촌전통테마마을회관","lat":35.95949,"lng":127.538143,"roadAddr":"전북특별자치도 진안군 용담면 감동길 135-18","openHours":"상시","maleToilets":2,"femaleToilets":1,"disabled":false,"diaperTable":false,"emergencyBell":false,"cctv":false,"managerTel":"0634308213","source":"public","category":"public"},{"id":"202547310000100093","name":"감동마을화장실1","lat":35.970978,"lng":127.533815,"roadAddr":"전북특별자치도 진안군 용담면 송풍리 159-1","openHours":"상시","maleToilets":1,"femaleToilets":1,"disabled":false,"diaperTable":false,"emergencyBell":false,"cctv":false,"managerTel":"0634308213","source":"public","category":"public"},{"id":"202447410000100276","name":"부남면 복지회관","lat":35.973578,"lng":127.559129,"roadAddr":"전북특별자치도 무주군 부남면  대소길 3","openHours":"상시","maleToilets":5,"femaleToilets":2,"disabled":false,"diaperTable":false,"emergencyBell":false,"cctv":false,"managerTel":"0633205953","source":"public","category":"public"},{"id":"202447410000100250","name":"무주농협부남지점(주유소)","lat":35.972381,"lng":127.559414,"roadAddr":"전북특별자치도 무주군 부남면 부남로 866-2","openHours":"09:00~18:00","maleToilets":4,"femaleToilets":2,"disabled":false,"diaperTable":false,"emergencyBell":false,"cctv":false,"managerTel":"0633220046","source":"public","category":"public"},{"id":"202447410000100295","name":"봉길마을 안쪽 이동식화장실","lat":35.98189,"lng":127.570575,"jibunAddr":"전북특별자치도 무주군 부남면  대유리 591-29","openHours":"상시","maleToilets":1,"femaleToilets":1,"disabled":false,"diaperTable":false,"emergencyBell":false,"cctv":false,"managerTel":"0633205953","source":"public","category":"public"},{"id":"202447410000100288","name":"부남자율방범센터 옆 이동식화장실","lat":35.962119,"lng":127.564611,"jibunAddr":"전북특별자치도 무주군 부남면  대소리","openHours":"상시","maleToilets":1,"femaleToilets":1,"disabled":false,"diaperTable":false,"emergencyBell":false,"cctv":false,"managerTel":"0633205953","source":"public","category":"public"},{"id":"202447410000100290","name":"파출소 앞 덤덜교 밑 이동식화장실","lat":35.97223,"lng":127.537471,"jibunAddr":"전북특별자치도 무주군 부남면  대소리 1593","openHours":"상시","maleToilets":1,"femaleToilets":1,"disabled":false,"diaperTable":false,"emergencyBell":false,"cctv":false,"managerTel":"0633205953","source":"public","category":"public"},{"id":"202447410000100294","name":"봉길마을 입구 이동식화장실","lat":35.987321,"lng":127.56559,"jibunAddr":"전북특별자치도 무주군 부남면  대유리 546","openHours":"상시","maleToilets":1,"femaleToilets":1,"disabled":false,"diaperTable":false,"emergencyBell":false,"cctv":false,"managerTel":"0633205953","source":"public","category":"public"},{"id":"202447410000100216","name":"분수대공원 화장실","lat":35.974554,"lng":127.558771,"roadAddr":"전북특별자치도 무주군 부남면  부남로 898","openHours":"상시","maleToilets":4,"femaleToilets":2,"disabled":false,"diaperTable":false,"emergencyBell":false,"cctv":false,"managerTel":"0633205953","source":"public","category":"public"},{"id":"202447410000100271","name":"부남면행정복지센터 등나무화장실","lat":35.973578,"lng":127.559129,"roadAddr":"전북특별자치도 무주군 부남면  대소길 3","openHours":"상시","maleToilets":4,"femaleToilets":2,"disabled":false,"diaperTable":false,"emergencyBell":false,"cctv":false,"managerTel":"0633205953","source":"public","category":"public"},{"id":"202447410000100270","name":"부남면행정복지센터 1층","lat":35.973578,"lng":127.559129,"roadAddr":"전북특별자치도 무주군 부남면  대소길 3","openHours":"상시","maleToilets":4,"femaleToilets":2,"disabled":false,"diaperTable":false,"emergencyBell":false,"cctv":false,"managerTel":"0633205953","source":"public","category":"public"},{"id":"202447410000100259","name":"부남면 생활체육공원","lat":35.980707,"lng":127.556839,"jibunAddr":"전북특별자치도 무주군 부남면  대유리 790","openHours":"상시","maleToilets":4,"femaleToilets":2,"disabled":false,"diaperTable":false,"emergencyBell":false,"cctv":false,"managerTel":"0633205953","source":"public","category":"public"},{"id":"202447410000100289","name":"파출소 앞 이동식화장실","lat":35.962119,"lng":127.564611,"jibunAddr":"전북특별자치도 무주군 부남면  대소리","openHours":"상시","maleToilets":1,"femaleToilets":1,"disabled":false,"diaperTable":false,"emergencyBell":false,"cctv":false,"managerTel":"0633205953","source":"public","category":"public"},{"id":"202447410000100292","name":"유평다리 옆 이동식화장실","lat":35.961843,"lng":127.557952,"jibunAddr":"전북특별자치도 무주군 부남면  대소리 828-3","openHours":"상시","maleToilets":1,"femaleToilets":1,"disabled":false,"diaperTable":false,"emergencyBell":false,"cctv":false,"managerTel":"0633205953","source":"public","category":"public"},{"id":"202447410000100303","name":"무주농협부남지점","lat":35.972381,"lng":127.559414,"roadAddr":"전북특별자치도 무주군 부남면 부남로 866-2","openHours":"09:00~18:00","maleToilets":4,"femaleToilets":2,"disabled":false,"diaperTable":false,"emergencyBell":false,"cctv":false,"managerTel":"0633220023","source":"public","category":"public"},{"id":"202447410000100356","name":"부남면 다목적강당","lat":35.974286,"lng":127.559361,"roadAddr":"전북특별자치도 무주군 부남면  부남로 892-8","openHours":"상시","maleToilets":4,"femaleToilets":2,"disabled":false,"diaperTable":false,"emergencyBell":false,"cctv":false,"managerTel":"0633205953","source":"public","category":"public"},{"id":"202447410000100291","name":"도소마을 앞 이동식화장실","lat":35.973343,"lng":127.550262,"jibunAddr":"전북특별자치도 무주군 부남면  대소리 1649","openHours":"상시","maleToilets":1,"femaleToilets":1,"disabled":false,"diaperTable":false,"emergencyBell":false,"cctv":false,"managerTel":"0633205953","source":"public","category":"public"},{"id":"202447410000100267","name":"율소체육공원 이동식화장실","lat":35.988323,"lng":127.568987,"jibunAddr":"전북특별자치도 무주군 부남면  굴암리 799","openHours":"상시","maleToilets":1,"femaleToilets":1,"disabled":false,"diaperTable":false,"emergencyBell":false,"cctv":false,"managerTel":"0633205953","source":"public","category":"public"},{"id":"202447410000100382","name":"부남면 보건지소","lat":35.973578,"lng":127.559129,"roadAddr":"전북특별자치도 무주군 부남면 대소길 3","openHours":"상시","maleToilets":4,"femaleToilets":2,"disabled":false,"diaperTable":false,"emergencyBell":false,"cctv":false,"managerTel":"0633208207","source":"public","category":"public"},{"id":"202447410000100328","name":"부남 도소 공중화장실","lat":35.972939,"lng":127.550277,"jibunAddr":"전북특별자치도 무주군 부남면  대소리 1621-11","openHours":"상시","maleToilets":4,"femaleToilets":2,"disabled":false,"diaperTable":false,"emergencyBell":false,"cctv":false,"managerTel":"0633205953","source":"public","category":"public"},{"id":"202447410000100361","name":"옥녀가든 약수터 가든 옆 이동식화장실","lat":35.951945,"lng":127.563976,"roadAddr":"전북특별자치도 무주군 부남면  부남로 623","openHours":"상시","maleToilets":1,"femaleToilets":1,"disabled":false,"diaperTable":false,"emergencyBell":false,"cctv":false,"managerTel":"0633205953","source":"public","category":"public"}]