[{"id":"202447410000100236","name":"무풍주유소","lat":35.969293,"lng":127.84474,"roadAddr":"전북특별자치도 무주군 무풍면 현내로 178","openHours":"정시","maleToilets":4,"femaleToilets":2,"disabled":false,"diaperTable":false,"emergencyBell":false,"cctv":false,"managerTel":"0633244588","source":"public","category":"public"},{"id":"202447410000100365","name":"대덕산장터","lat":35.969431,"lng":127.848792,"roadAddr":"전북특별자치도 무주군 무풍면 현내로 213","openHours":"상시","maleToilets":6,"femaleToilets":3,"disabled":false,"diaperTable":true,"emergencyBell":true,"cctv":false,"managerTel":"0633205767","source":"public","category":"public"},{"id":"202447410000100268","name":"무풍면행정복지센터 1층","lat":35.969963,"lng":127.844487,"roadAddr":"전북특별자치도 무주군 무풍면  현내로 171","openHours":"상시","maleToilets":6,"femaleToilets":3,"disabled":true,"diaperTable":false,"emergencyBell":false,"cctv":false,"managerTel":"0633205767","source":"public","category":"public"},{"id":"202447410000100221","name":"돌메공원(이동식화장실)","lat":35.971841,"lng":127.857731,"jibunAddr":"전북특별자치도 무주군 무풍면  현내리 82번지","openHours":"상시","maleToilets":1,"femaleToilets":1,"disabled":false,"diaperTable":false,"emergencyBell":false,"cctv":false,"managerTel":"0633205767","source":"public","category":"public"},{"id":"202447410000100283","name":"금척마을","lat":35.961951,"lng":127.880631,"jibunAddr":"전북특별자치도 무주군 무풍면  금평리 2202","openHours":"상시","maleToilets":1,"femaleToilets":1,"disabled":false,"diaperTable":false,"emergencyBell":false,"cctv":false,"source":"public","category":"public"},{"id":"202447410000100285","name":"석항마을","lat":35.950421,"lng":127.849827,"jibunAddr":"전북특별자치도 무주군 무풍면  증산리 565-1","openHours":"상시","maleToilets":1,"femaleToilets":1,"disabled":false,"diaperTable":false,"emergencyBell":false,"cctv":false,"source":"public","category":"public"},{"id":"202447410000100269","name":"무풍면행정복지센터 2층","lat":35.969963,"lng":127.844487,"roadAddr":"전북특별자치도 무주군 무풍면  현내로 171","openHours":"상시","maleToilets":4,"femaleToilets":2,"disabled":false,"diaperTable":false,"emergencyBell":false,"cctv":false,"managerTel":"0633205767","source":"public","category":"public"},{"id":"202447410000100257","name":"무풍면 생활체육공원","lat":35.966789,"lng":127.845214,"roadAddr":"전북특별자치도 무주군 무풍면 대덕산로 908","openHours":"상시","maleToilets":5,"femaleToilets":3,"disabled":true,"diaperTable":false,"emergencyBell":false,"cctv":false,"managerTel":"0633205767","source":"public","category":"public"},{"id":"202447410000100234","name":"대덕산주유소","lat":35.964276,"lng":127.863274,"roadAddr":"전북특별자치도 무주군 무풍면 현내로 428","openHours":"정시","maleToilets":4,"femaleToilets":2,"disabled":false,"diaperTable":false,"emergencyBell":false,"cctv":false,"managerTel":"0633241544","source":"public","category":"public"},{"id":"202447410000100391","name":"무주무풍우체국 화장실","lat":35.969182,"lng":127.850619,"roadAddr":"전북특별자치도 무주군 무풍면 현내로 230","openHours":"정시","maleToilets":1,"femaleToilets":1,"disabled":false,"diaperTable":false,"emergencyBell":false,"cctv":false,"managerTel":"0633244400","source":"public","category":"public"},{"id":"202447410000100260","name":"무풍면 게이트볼장","lat":35.966789,"lng":127.845214,"roadAddr":"전북특별자치도 무주군 무풍면 대덕산로 908","openHours":"상시","maleToilets":4,"femaleToilets":2,"disabled":false,"diaperTable":false,"emergencyBell":false,"cctv":false,"managerTel":"0633205767","source":"public","category":"public"},{"id":"202447410000100214","name":"애플스토리 테마공원","lat":35.949277,"lng":127.855969,"roadAddr":"전북특별자치도 무주군 무풍면  증산로 89-41","openHours":"상시","maleToilets":5,"femaleToilets":2,"disabled":true,"diaperTable":false,"emergencyBell":false,"cctv":false,"managerTel":"0633202857","source":"public","category":"public"},{"id":"202447410000100373","name":"무풍면 보건지소 화장실","lat":35.969206,"lng":127.851121,"roadAddr":"전북특별자치도 무주군 무풍면 현내로 234","openHours":"정시","maleToilets":4,"femaleToilets":2,"disabled":true,"diaperTable":false,"emergencyBell":true,"cctv":false,"managerTel":"0633208254","source":"public","category":"public"}]