[{"id":"202447410000100316","name":"향적봉 화장실","lat":35.889475,"lng":127.773242,"jibunAddr":"전북특별자치도 무주군 설천면 삼공리 469-8","openHours":"09:00~18:00","maleToilets":4,"femaleToilets":2,"disabled":false,"diaperTable":false,"emergencyBell":false,"cctv":false,"managerTel":"0633223174","source":"public","category":"public"},{"id":"202447410000100305","name":"안심대상부","lat":35.877747,"lng":127.775119,"jibunAddr":"전북특별자치도 무주군 설천면 삼공리","openHours":"09:00~18:00","maleToilets":4,"femaleToilets":2,"disabled":false,"diaperTable":false,"emergencyBell":false,"cctv":false,"managerTel":"0633223174","source":"public","category":"public"},{"id":"202447410000100315","name":"칠봉 화장실","lat":35.889475,"lng":127.773242,"jibunAddr":"전북특별자치도 무주군 설천면 삼공리 469-8","openHours":"09:00~18:00","maleToilets":4,"femaleToilets":2,"disabled":false,"diaperTable":false,"emergencyBell":false,"cctv":false,"managerTel":"0633223174","source":"public","category":"public"},{"id":"202447410000100320","name":"구천동주차장 화장실","lat":35.901725,"lng":127.776089,"jibunAddr":"전북특별자치도 무주군 설천면 삼공리 411","openHours":"09:00~18:00","maleToilets":4,"femaleToilets":2,"disabled":false,"diaperTable":false,"emergencyBell":false,"cctv":false,"managerTel":"0633223174","source":"public","category":"public"},{"id":"202447410000100307","name":"송이버벗","lat":35.877747,"lng":127.775119,"jibunAddr":"전북특별자치도 무주군 설천면 삼공리","openHours":"09:00~18:00","maleToilets":4,"femaleToilets":2,"disabled":false,"diaperTable":false,"emergencyBell":false,"cctv":false,"managerTel":"0633223174","source":"public","category":"public"},{"id":"202447410000100310","name":"금강모치 화장실","lat":35.892836,"lng":127.774574,"jibunAddr":"전북특별자치도 무주군 설천면 삼공리 산65-5","openHours":"09:00~18:00","maleToilets":4,"femaleToilets":2,"disabled":false,"diaperTable":false,"emergencyBell":false,"cctv":false,"managerTel":"0633223174","source":"public","category":"public"},{"id":"202447410000100313","name":"자주솜대 화장실","lat":35.889993,"lng":127.771346,"jibunAddr":"전북특별자치도 무주군 설천면 삼공리 469-2","openHours":"09:00~18:00","maleToilets":4,"femaleToilets":2,"disabled":false,"diaperTable":false,"emergencyBell":false,"cctv":false,"managerTel":"0633223174","source":"public","category":"public"},{"id":"202447410000100368","name":"구천동 관광특구 다목적 광장 공중화장실","lat":35.895227,"lng":127.776247,"roadAddr":"전북특별자치도 무주군 설천면  백련사길 21","openHours":"상시","maleToilets":5,"femaleToilets":4,"disabled":true,"diaperTable":false,"emergencyBell":false,"cctv":false,"managerTel":"0633202649","source":"public","category":"public"},{"id":"202447410000100317","name":"구상나무 화장실","lat":35.889475,"lng":127.773242,"jibunAddr":"전북특별자치도 무주군 설천면 삼공리 469-8","openHours":"09:00~18:00","maleToilets":4,"femaleToilets":2,"disabled":false,"diaperTable":false,"emergencyBell":false,"cctv":false,"managerTel":"0633223174","source":"public","category":"public"},{"id":"202447410000100304","name":"전망대 옆 화장실","lat":35.877747,"lng":127.775119,"jibunAddr":"전북특별자치도 무주군 설천면 삼공리","openHours":"09:00~18:00","maleToilets":4,"femaleToilets":2,"disabled":false,"diaperTable":false,"emergencyBell":false,"cctv":false,"managerTel":"0633223174","source":"public","category":"public"},{"id":"202447410000100308","name":"백련사 화장실","lat":35.860064,"lng":127.762207,"jibunAddr":"전북특별자치도 무주군 설천면 삼공리 산107","openHours":"09:00~18:00","maleToilets":4,"femaleToilets":2,"disabled":false,"diaperTable":false,"emergencyBell":false,"cctv":false,"managerTel":"0633223395","source":"public","category":"public"},{"id":"202447410000100311","name":"노루 화장실","lat":35.891404,"lng":127.773025,"jibunAddr":"전북특별자치도 무주군 설천면 삼공리 469-1","openHours":"09:00~18:00","maleToilets":4,"femaleToilets":2,"disabled":false,"diaperTable":false,"emergencyBell":false,"cctv":false,"managerTel":"0633223174","source":"public","category":"public"},{"id":"202447410000100309","name":"오미자 화장실","lat":35.892183,"lng":127.776993,"jibunAddr":"전북특별자치도 무주군 설천면 삼공리 456","openHours":"09:00~18:00","maleToilets":4,"femaleToilets":2,"disabled":false,"diaperTable":false,"emergencyBell":false,"cctv":false,"managerTel":"0633223174","source":"public","category":"public"},{"id":"202447410000100314","name":"모데미풀 화장실","lat":35.890916,"lng":127.771694,"jibunAddr":"전북특별자치도 무주군 설천면 삼공리 산65-1","openHours":"09:00~18:00","maleToilets":4,"femaleToilets":2,"disabled":false,"diaperTable":false,"emergencyBell":false,"cctv":false,"managerTel":"0633223174","source":"public","category":"public"},{"id":"202447410000100206","name":"구천동 관광특구 상가단지 공중화장실","lat":35.899997,"lng":127.776442,"jibunAddr":"전북특별자치도 무주군 설천면 삼공리 416-7","openHours":"상시","maleToilets":3,"femaleToilets":3,"disabled":false,"diaperTable":false,"emergencyBell":false,"cctv":false,"managerTel":"0633202557","source":"public","category":"public"},{"id":"202447410000100312","name":"수달 화장실","lat":35.891404,"lng":127.773025,"jibunAddr":"전북특별자치도 무주군 설천면 삼공리 469-1","openHours":"09:00~18:00","maleToilets":4,"femaleToilets":2,"disabled":false,"diaperTable":false,"emergencyBell":false,"cctv":false,"managerTel":"0633223174","source":"public","category":"public"},{"id":"202447410000100318","name":"찌르레기 화장실","lat":35.890667,"lng":127.777559,"jibunAddr":"전북특별자치도 무주군 설천면 삼공리 산63-1","openHours":"09:00~18:00","maleToilets":4,"femaleToilets":2,"disabled":false,"diaperTable":false,"emergencyBell":false,"cctv":false,"managerTel":"0633223174","source":"public","category":"public"},{"id":"202447410000100403","name":"백련사","lat":35.860872,"lng":127.765935,"roadAddr":"전북특별자치도 무주군 설천면 백련사길 580","openHours":"상시","maleToilets":5,"femaleToilets":4,"disabled":true,"diaperTable":false,"emergencyBell":false,"cctv":false,"managerTel":"0633223174","source":"public","category":"public"},{"id":"202447410000100319","name":"구천동탐방지원센터 화장실","lat":35.896369,"lng":127.776547,"jibunAddr":"전북특별자치도 무주군 설천면 삼공리 418-24","openHours":"09:00~18:00","maleToilets":4,"femaleToilets":2,"disabled":false,"diaperTable":false,"emergencyBell":false,"cctv":false,"managerTel":"0633223174","source":"public","category":"public"},{"id":"202447410000100207","name":"구천동 탐방로 화장실","lat":35.895227,"lng":127.776247,"roadAddr":"전북특별자치도 무주군 설천면 백련사길 21","openHours":"09:00~18:00","maleToilets":3,"femaleToilets":3,"disabled":true,"diaperTable":false,"emergencyBell":true,"cctv":false,"managerTel":"0633202557","source":"public","category":"public"},{"id":"202447410000100402","name":"구천동주차장","lat":35.901222,"lng":127.775308,"roadAddr":"전북특별자치도 무주군 설천면 구천동1로 167","openHours":"상시","maleToilets":15,"femaleToilets":10,"disabled":true,"diaperTable":false,"emergencyBell":false,"cctv":false,"managerTel":"0633223174","source":"public","category":"public"},{"id":"202447410000100205","name":"구천동 관광특구 다목적광장 공중화장실","lat":35.895227,"lng":127.776247,"roadAddr":"전북특별자치도 무주군 설천면 백련사길 21","openHours":"09:00~18:00","maleToilets":5,"femaleToilets":4,"disabled":true,"diaperTable":false,"emergencyBell":true,"cctv":false,"managerTel":"0633202557","source":"public","category":"public"}]