[{"id":"202436400000100535","name":"생명장애인주간보호","lat":36.321079,"lng":127.460818,"roadAddr":"대전광역시 동구 동부로 56-7","jibunAddr":"대전광역시?동구?판암동 239","openHours":"정시(09:00~18:00)","maleToilets":2,"femaleToilets":1,"disabled":false,"diaperTable":false,"emergencyBell":false,"cctv":false,"managerTel":"0422869190","source":"public","category":"public"},{"id":"202436400000100427","name":"우송중학교","lat":36.335629,"lng":127.442849,"roadAddr":"대전광역시 동구 동대전로131번길 53","jibunAddr":"대전광역시 동구 자양동 226-2","openHours":"정시","maleToilets":34,"femaleToilets":1,"disabled":false,"diaperTable":false,"emergencyBell":false,"cctv":false,"managerTel":"0426205050","source":"public","category":"public"},{"id":"202436400000100460","name":"가오고등학교","lat":36.31066,"lng":127.454472,"roadAddr":"대전광역시 동구 신기로 71","jibunAddr":"대전광역시?동구?가오동 427","openHours":"정시","maleToilets":72,"femaleToilets":72,"disabled":true,"diaperTable":false,"emergencyBell":false,"cctv":false,"managerTel":"0422803700","source":"public","category":"public"},{"id":"202436400000100512","name":"대동경노당","lat":36.330675,"lng":127.446928,"roadAddr":"대전광역시 동구 동대전로104번길 41","jibunAddr":"대전광역시?동구?대동 61-19","openHours":"정시","maleToilets":0,"femaleToilets":1,"disabled":false,"diaperTable":false,"emergencyBell":false,"cctv":false,"managerTel":"0426335916","source":"public","category":"public"},{"id":"202436400000100614","name":"고산사","lat":36.300811,"lng":127.4693,"roadAddr":"대전광역시 동구 대전로316번길 201","jibunAddr":"대전광역시 동구 대성동 4-2","openHours":"상시","maleToilets":7,"femaleToilets":3,"disabled":true,"diaperTable":true,"emergencyBell":true,"cctv":false,"managerTel":"0422514584","source":"public","category":"public"},{"id":"202436400000100392","name":"판암근린공원","lat":36.318601,"lng":127.453863,"roadAddr":"대전광역시 동구 옥천로 131-36","jibunAddr":"대전광역시 동구 판암동 496-25","openHours":"상시","maleToilets":2,"femaleToilets":2,"disabled":true,"diaperTable":true,"emergencyBell":true,"cctv":false,"managerTel":"0422514584","source":"public","category":"public"},{"id":"202436400000100508","name":"대동종합사회복지관","lat":36.330913,"lng":127.451485,"roadAddr":"대전광역시 동구 동대전로110번길 164","jibunAddr":"대전광역시?동구?대동 1-35","openHours":"정시(09:00~18:00)","maleToilets":9,"femaleToilets":4,"disabled":false,"diaperTable":false,"emergencyBell":false,"cctv":false,"managerTel":"0426738337","source":"public","category":"public"},{"id":"202436400000100480","name":"식장산","lat":36.301792,"lng":127.479998,"roadAddr":"대전광역시 동구 세천공원로 32-836","jibunAddr":"대전광역시?동구?세천동 산43-3","openHours":"상시","maleToilets":3,"femaleToilets":2,"disabled":true,"diaperTable":true,"emergencyBell":true,"cctv":false,"managerTel":"0422514584","source":"public","category":"public"},{"id":"202436400000100556","name":"판암2동주민센터","lat":36.320477,"lng":127.45738,"roadAddr":"대전광역시 동구 동부로 37","jibunAddr":"대전광역시?동구?판암동 246","openHours":"정시","maleToilets":2,"femaleToilets":2,"disabled":false,"diaperTable":false,"emergencyBell":false,"cctv":false,"managerTel":"0422597321","source":"public","category":"public"},{"id":"202436400000100492","name":"대전기독병원","lat":36.330164,"lng":127.441709,"roadAddr":"대전광역시 동구 계족로189","jibunAddr":"대전광역시?동구?대동 167-3","openHours":"정시(09:00∼19:00)","maleToilets":24,"femaleToilets":16,"disabled":false,"diaperTable":false,"emergencyBell":false,"cctv":false,"managerTel":"0426701200","source":"public","category":"public"},{"id":"202436400000100416","name":"대룡초등학교","lat":36.329992,"lng":127.455961,"roadAddr":"대전광역시 동구 백룡로 123","jibunAddr":"대전광역시 동구 용운동 158-1","openHours":"정시(09:00~18:00)","maleToilets":73,"femaleToilets":46,"disabled":true,"diaperTable":false,"emergencyBell":false,"cctv":false,"managerTel":"0422839867","source":"public","category":"public"},{"id":"202436400000100317","name":"판암동네체육시설","lat":36.311933,"lng":127.470844,"roadAddr":"대전광역시 동구 판암로 139-52","jibunAddr":"대전광역시 동구 판암동 산 24","openHours":"상시","maleToilets":1,"femaleToilets":1,"disabled":false,"diaperTable":false,"emergencyBell":false,"cctv":false,"managerTel":"0422514584","source":"public","category":"public"},{"id":"202436400000100569","name":"가오도서관","lat":36.312036,"lng":127.454917,"roadAddr":"대전광역시 동구 동구청로 147","jibunAddr":"대전광역시?동구?가오동 425?","openHours":"정시(08:00~22:00)","maleToilets":18,"femaleToilets":9,"disabled":false,"diaperTable":false,"emergencyBell":false,"cctv":false,"managerTel":"0422597051","source":"public","category":"public"},{"id":"202436400000100581","name":"촌닭산오리","lat":36.32802,"lng":127.46673,"roadAddr":"대전광역시 동구 동부로168","jibunAddr":"대전광역시?동구?용운동 274-27","openHours":"정시(11:30∼20:00)","maleToilets":3,"femaleToilets":2,"disabled":false,"diaperTable":false,"emergencyBell":false,"cctv":false,"managerTel":"0422842356","source":"public","category":"public"},{"id":"202436400000100457","name":"대전여자고등학교(본관)","lat":36.33,"lng":127.446274,"roadAddr":"대전광역시 동구 용운로1번길 28-37","jibunAddr":"대전광역시?동구?대동 16-2","openHours":"정시","maleToilets":6,"femaleToilets":19,"disabled":false,"diaperTable":false,"emergencyBell":false,"cctv":false,"managerTel":"0426305901","source":"public","category":"public"},{"id":"202436400000100319","name":"대전청소년위캔센터 공연장","lat":36.312036,"lng":127.454917,"roadAddr":"대전광역시 동구 동구청로 147","jibunAddr":"대전광역시 동구 가오동 425","openHours":"상시","maleToilets":3,"femaleToilets":1,"disabled":true,"diaperTable":false,"emergencyBell":false,"cctv":true,"managerTel":"0422543035","source":"public","category":"public"},{"id":"202436400000100423","name":"자양초등학교(본동)","lat":36.333661,"lng":127.442518,"roadAddr":"대전광역시 동구 계족로 184-55","jibunAddr":"대전광역시 동구 자양동 221-2","openHours":"정시","maleToilets":42,"femaleToilets":19,"disabled":false,"diaperTable":false,"emergencyBell":false,"cctv":false,"managerTel":"0426203800","source":"public","category":"public"},{"id":"202436400000100459","name":"대전여자고등학교(구조관)","lat":36.33,"lng":127.446274,"roadAddr":"대전광역시 동구 용운로1번길 28-37","jibunAddr":"대전광역시?동구?대동 16-2","openHours":"정시","maleToilets":8,"femaleToilets":28,"disabled":true,"diaperTable":false,"emergencyBell":false,"cctv":false,"managerTel":"0426305901","source":"public","category":"public"},{"id":"202436400000100470","name":"동신중학교","lat":36.320244,"lng":127.459365,"roadAddr":"대전광역시 동구 동부로 56-22","jibunAddr":"대전광역시 동구 판암동 241","openHours":"정시","maleToilets":51,"femaleToilets":33,"disabled":false,"diaperTable":false,"emergencyBell":false,"cctv":false,"managerTel":"0422834081","source":"public","category":"public"},{"id":"202436400000100499","name":"판암사회복지관","lat":36.316567,"lng":127.458544,"roadAddr":"대전광역시 동구 옥천로 152-9","jibunAddr":"대전광역시?동구?판암동 314","openHours":"정시(09:00~18:00)","maleToilets":2,"femaleToilets":2,"disabled":false,"diaperTable":false,"emergencyBell":false,"cctv":false,"managerTel":"0422851005","source":"public","category":"public"},{"id":"202436400000100343","name":"신가오주유소","lat":36.305079,"lng":127.454584,"roadAddr":"대전광역시 동구 은어송로38","jibunAddr":"대전광역시 동구 가오동 666","openHours":"상시","maleToilets":2,"femaleToilets":1,"disabled":false,"diaperTable":false,"emergencyBell":false,"cctv":false,"managerTel":"0422727171","source":"public","category":"public"},{"id":"202436400000100603","name":"홈플러스 대전가오점","lat":36.306968,"lng":127.457986,"roadAddr":"대전광역시 동구 은어송로 72","jibunAddr":"대전광역시?동구?가오동 557","openHours":"정시(10:00~24:00)","maleToilets":4,"femaleToilets":3,"disabled":false,"diaperTable":false,"emergencyBell":false,"cctv":false,"managerTel":"0422818000","source":"public","category":"public"},{"id":"202436400000100509","name":"대전노인요양원","lat":36.312315,"lng":127.458377,"roadAddr":"대전광역시 동구 신기로 109-22","jibunAddr":"대전광역시?동구?가오동 87-1","openHours":"정시(09:00~18:00)","maleToilets":12,"femaleToilets":10,"disabled":false,"diaperTable":false,"emergencyBell":false,"cctv":false,"managerTel":"0422836304","source":"public","category":"public"},{"id":"202436400000100320","name":"동구청 공연장","lat":36.312036,"lng":127.454917,"roadAddr":"대전광역시 동구 동구청로 147, 동구청 12층 (가오동)","jibunAddr":"대전광역시 동구 가오동 425 동구청","openHours":"상시","maleToilets":3,"femaleToilets":1,"disabled":true,"diaperTable":false,"emergencyBell":false,"cctv":true,"managerTel":"0426325289","source":"public","category":"public"},{"id":"202436400000100420","name":"은어송초등학교","lat":36.30255,"lng":127.456826,"roadAddr":"대전광역시 동구 대전로 396","jibunAddr":"대전광역시 동구 대성동 129","openHours":"정시","maleToilets":76,"femaleToilets":69,"disabled":true,"diaperTable":false,"emergencyBell":false,"cctv":false,"managerTel":"0422860838","source":"public","category":"public"},{"id":"202436400000100365","name":"우정주유소","lat":36.331277,"lng":127.476131,"roadAddr":"대전광역시 동구 옥천로 418","jibunAddr":"대전광역시 동구 삼정동 33","openHours":"상시","maleToilets":6,"femaleToilets":5,"disabled":true,"diaperTable":false,"emergencyBell":false,"cctv":false,"managerTel":"0422840235","source":"public","category":"public"},{"id":"202436400000100360","name":"대동주유소","lat":36.326764,"lng":127.448582,"roadAddr":"대전광역시 동구 계족로140번길 73","jibunAddr":"대전광역시 동구 용운동 498-34","openHours":"상시","maleToilets":3,"femaleToilets":1,"disabled":false,"diaperTable":false,"emergencyBell":false,"cctv":false,"managerTel":"0422835333","source":"public","category":"public"},{"id":"202436400000100537","name":"생명종함사회복지관","lat":36.321079,"lng":127.460818,"roadAddr":"대전광역시 동구 동부로 56-7","jibunAddr":"대전광역시?동구?판암동 239","openHours":"정시","maleToilets":14,"femaleToilets":6,"disabled":true,"diaperTable":false,"emergencyBell":false,"cctv":false,"managerTel":"0422839190","source":"public","category":"public"},{"id":"202436400000100453","name":"대동초등학교","lat":36.325504,"lng":127.446912,"roadAddr":"대전광역시 동구 대동초등3길 21","jibunAddr":"대전광역시?동구?대동 198-10","openHours":"정시","maleToilets":73,"femaleToilets":41,"disabled":false,"diaperTable":false,"emergencyBell":false,"cctv":false,"managerTel":"0422846064","source":"public","category":"public"},{"id":"202436400000100479","name":"대동하늘정원","lat":36.331835,"lng":127.451582,"roadAddr":"대전광역시 동구 동대전로110번길 184","jibunAddr":"대전광역시?동구?대동 1-636","openHours":"상시","maleToilets":3,"femaleToilets":3,"disabled":true,"diaperTable":true,"emergencyBell":true,"cctv":false,"managerTel":"0422514584","source":"public","category":"public"},{"id":"202436400000100540","name":"용운동주민센터","lat":36.328125,"lng":127.461548,"roadAddr":"대전광역시 동구 새울로109번길 5","jibunAddr":"대전광역시?동구?용운동 296-3","openHours":"정시(09:00~18:00)","maleToilets":4,"femaleToilets":1,"disabled":true,"diaperTable":false,"emergencyBell":false,"cctv":false,"managerTel":"0422597351","source":"public","category":"public"},{"id":"202436400000100334","name":"대전가오동우체국 1층","lat":36.308128,"lng":127.45523,"roadAddr":"대전광역시 동구 동구청로117","jibunAddr":"대전광역시 동구 가오동 561-1","openHours":"09:00 ~ 18:00","maleToilets":3,"femaleToilets":1,"disabled":true,"diaperTable":false,"emergencyBell":false,"cctv":false,"managerTel":"0422822002","source":"public","category":"public"},{"id":"202436400000100586","name":"삼성디지탈프라자","lat":36.318812,"lng":127.451402,"roadAddr":"대전광역시 동구 옥천로93","jibunAddr":"대전광역시?동구?판암동 598","openHours":"정시(10:30∼20:30)","maleToilets":6,"femaleToilets":4,"disabled":false,"diaperTable":false,"emergencyBell":false,"cctv":false,"managerTel":"0422839911","source":"public","category":"public"},{"id":"202436400000100424","name":"동광초등학교","lat":36.337355,"lng":127.449528,"roadAddr":"대전광역시 동구 백룡로11번길 20","jibunAddr":"대전광역시 동구 자양동 94-3","openHours":"정시","maleToilets":51,"femaleToilets":30,"disabled":false,"diaperTable":false,"emergencyBell":false,"cctv":false,"managerTel":"0426228415","source":"public","category":"public"},{"id":"202436400000100456","name":"대전여자고등학교(신관)","lat":36.33,"lng":127.446274,"roadAddr":"대전광역시 동구 용운로1번길 28-37","jibunAddr":"대전광역시?동구?대동 16-2","openHours":"정시","maleToilets":0,"femaleToilets":24,"disabled":true,"diaperTable":false,"emergencyBell":false,"cctv":false,"managerTel":"0426305901","source":"public","category":"public"},{"id":"202436400000100326","name":"대전동부경찰서 판암파출소","lat":36.330698,"lng":127.474304,"roadAddr":"대전광역시 동구 옥천로403","jibunAddr":"대전광역시 동구 비룡동 565","openHours":"09:00~18:00","maleToilets":2,"femaleToilets":1,"disabled":false,"diaperTable":false,"emergencyBell":false,"cctv":true,"managerTel":"0426002321","source":"public","category":"public"},{"id":"202436400000100625","name":"새울신협","lat":36.32699,"lng":127.450283,"roadAddr":"대전광역시 동구 용운로69","jibunAddr":"대전광역시 동구 용운동 487-22","openHours":"정시(09:00∼16:00)","maleToilets":7,"femaleToilets":7,"disabled":false,"diaperTable":false,"emergencyBell":false,"cctv":false,"managerTel":"0422712321","source":"public","category":"public"},{"id":"202436400000100528","name":"우송경노당","lat":36.337713,"lng":127.443034,"roadAddr":"대전광역시 동구 갱이4길 14","jibunAddr":"대전광역시?동구?가양동 358-31","openHours":"상시","maleToilets":2,"femaleToilets":1,"disabled":false,"diaperTable":false,"emergencyBell":false,"cctv":false,"managerTel":"0422825923","source":"public","category":"public"},{"id":"202436400000100538","name":"임마누엘실버홈","lat":36.312939,"lng":127.457875,"roadAddr":"대전광역시 동구 신기로 109-41","jibunAddr":"대전광역시?동구?판암동 396-2","openHours":"정시","maleToilets":4,"femaleToilets":1,"disabled":true,"diaperTable":false,"emergencyBell":false,"cctv":false,"managerTel":"0422845288","source":"public","category":"public"},{"id":"202436400000100437","name":"천동초등학교","lat":36.316333,"lng":127.445545,"roadAddr":"대전광역시 동구 천동초등동길 60","jibunAddr":"대전광역시?동구?천동 214-1","openHours":"정시","maleToilets":107,"femaleToilets":56,"disabled":false,"diaperTable":false,"emergencyBell":false,"cctv":false,"managerTel":"0422734039","source":"public","category":"public"},{"id":"202436400000100405","name":"가오근린공원","lat":36.303787,"lng":127.45937,"roadAddr":"대전광역시 동구 동구청로 56","jibunAddr":"대전광역시 동구 대성동 132","openHours":"상시","maleToilets":6,"femaleToilets":6,"disabled":true,"diaperTable":false,"emergencyBell":true,"cctv":false,"managerTel":"0422514584","source":"public","category":"public"},{"id":"202436400000100458","name":"대전여자고등학교(별관)","lat":36.33,"lng":127.446274,"roadAddr":"대전광역시 동구 용운로1번길 28-37","jibunAddr":"대전광역시?동구?대동 16-2","openHours":"정시","maleToilets":0,"femaleToilets":30,"disabled":false,"diaperTable":false,"emergencyBell":false,"cctv":false,"managerTel":"0426305901","source":"public","category":"public"},{"id":"202436400000100461","name":"가오중학교","lat":36.308674,"lng":127.457144,"roadAddr":"대전광역시 동구 은어송로 79","jibunAddr":"대전광역시 동구 가오동 171-6","openHours":"정시","maleToilets":60,"femaleToilets":26,"disabled":true,"diaperTable":false,"emergencyBell":false,"cctv":false,"managerTel":"0422820424","source":"public","category":"public"},{"id":"202436400000100501","name":"에벤에셀의집","lat":36.322084,"lng":127.451746,"roadAddr":"대전광역시 동구 너더리3길 21","jibunAddr":"대전광역시?동구?판암동 579-13","openHours":"정시(09:00~18:00)","maleToilets":2,"femaleToilets":0,"disabled":true,"diaperTable":false,"emergencyBell":false,"cctv":false,"managerTel":"0422837743","source":"public","category":"public"},{"id":"202436400000100455","name":"대전여자고등학교(숙직실)","lat":36.33,"lng":127.446274,"roadAddr":"대전광역시 동구 용운로1번길 28-37","jibunAddr":"대전광역시?동구?대동 16-2","openHours":"정시","maleToilets":7,"femaleToilets":0,"disabled":false,"diaperTable":false,"emergencyBell":false,"cctv":false,"managerTel":"0426305901","source":"public","category":"public"},{"id":"202436400000100545","name":"동구청","lat":36.312036,"lng":127.454917,"roadAddr":"대전광역시 동구 동구청로 147","jibunAddr":"대전광역시?동구?가오동 425?","openHours":"상시","maleToilets":24,"femaleToilets":12,"disabled":false,"diaperTable":false,"emergencyBell":false,"cctv":false,"managerTel":"0422514114","source":"public","category":"public"},{"id":"202436400000100428","name":"우송고등학교","lat":36.335629,"lng":127.442849,"roadAddr":"대전광역시 동구 동대전로131번길 53","jibunAddr":"대전광역시 동구 자양동 226-2","openHours":"정시","maleToilets":55,"femaleToilets":30,"disabled":false,"diaperTable":false,"emergencyBell":false,"cctv":false,"managerTel":"0426205200","source":"public","category":"public"},{"id":"202436400000100543","name":"자양동주민센터","lat":36.335356,"lng":127.449087,"roadAddr":"대전광역시 동구 백룡로 20","jibunAddr":"대전광역시?동구?자양동 60-3","openHours":"정시(09:00~18:00)","maleToilets":3,"femaleToilets":2,"disabled":false,"diaperTable":false,"emergencyBell":false,"cctv":false,"managerTel":"0422597411","source":"public","category":"public"},{"id":"202436400000100511","name":"주곡경노당(女)","lat":36.330675,"lng":127.446928,"roadAddr":"대전광역시 동구 동대전로104번길 41","jibunAddr":"대전광역시?동구?대동 61-19","openHours":"정시","maleToilets":2,"femaleToilets":1,"disabled":false,"diaperTable":false,"emergencyBell":false,"cctv":false,"managerTel":"0426335916","source":"public","category":"public"},{"id":"202436400000100534","name":"신흥제2경노당","lat":36.322913,"lng":127.444328,"roadAddr":"대전광역시 동구새터1길 9","jibunAddr":"대전광역시?동구 신흥동 2-4","openHours":"상시","maleToilets":1,"femaleToilets":1,"disabled":false,"diaperTable":false,"emergencyBell":false,"cctv":false,"managerTel":"0422825929","source":"public","category":"public"},{"id":"202436400000100356","name":"신고개주유소","lat":36.321821,"lng":127.463044,"roadAddr":"대전광역시 동구 새울로38","jibunAddr":"대전광역시 동구 용운동 316-15","openHours":"상시","maleToilets":1,"femaleToilets":0,"disabled":false,"diaperTable":false,"emergencyBell":false,"cctv":false,"managerTel":"0422856700","source":"public","category":"public"},{"id":"202436400000100426","name":"대전기술정보학교","lat":36.334387,"lng":127.448873,"roadAddr":"대전광역시 동구 동대전로144번길 47","jibunAddr":"대전광역시?동구?자양동 115-1","openHours":"정시","maleToilets":12,"femaleToilets":3,"disabled":true,"diaperTable":false,"emergencyBell":false,"cctv":false,"managerTel":"0422506700","source":"public","category":"public"},{"id":"202436400000100436","name":"충남중학교","lat":36.325685,"lng":127.443513,"roadAddr":"대전광역시 동구 계족로 123","jibunAddr":"대전광역시?동구?신흥동 168","openHours":"정시","maleToilets":128,"femaleToilets":20,"disabled":true,"diaperTable":false,"emergencyBell":false,"cctv":false,"managerTel":"0422731692","source":"public","category":"public"},{"id":"202436400000100417","name":"용운중학교","lat":36.325563,"lng":127.464985,"roadAddr":"대전광역시 동구 용운로 208","jibunAddr":"대전광역시 동구 용운동 300","openHours":"정시","maleToilets":70,"femaleToilets":46,"disabled":false,"diaperTable":false,"emergencyBell":false,"cctv":false,"managerTel":"0422846653","source":"public","category":"public"},{"id":"202436400000100500","name":"사랑의집","lat":36.335148,"lng":127.448701,"roadAddr":"대전광역시 동구 백룡로14번길 9-10","jibunAddr":"대전광역시 동구 자양동 61-1","openHours":"정시","maleToilets":5,"femaleToilets":1,"disabled":false,"diaperTable":false,"emergencyBell":false,"cctv":false,"managerTel":"0426234297","source":"public","category":"public"},{"id":"202436400000100404","name":"선암어린이공원","lat":36.32603,"lng":127.460303,"roadAddr":"대전광역시 동구 용운로164번길 42","jibunAddr":"대전광역시 동구 용운동 377-7","openHours":"상시","maleToilets":4,"femaleToilets":2,"disabled":true,"diaperTable":true,"emergencyBell":true,"cctv":false,"managerTel":"0422514584","source":"public","category":"public"},{"id":"202436400000100352","name":"동원주유소","lat":36.326254,"lng":127.472747,"roadAddr":"대전광역시 동구 옥천로355-3","jibunAddr":"대전광역시 동구 삼정동 97-23","openHours":"상시","maleToilets":3,"femaleToilets":1,"disabled":false,"diaperTable":false,"emergencyBell":false,"cctv":false,"managerTel":"0422825155","source":"public","category":"public"},{"id":"202436400000100570","name":"판암도서관","lat":36.316418,"lng":127.460773,"roadAddr":"대전광역시 동구 옥천로180번길 20","jibunAddr":"대전광역시?동구?판암동 719-1","openHours":"정시","maleToilets":12,"femaleToilets":6,"disabled":false,"diaperTable":false,"emergencyBell":false,"cctv":false,"managerTel":"0422597071","source":"public","category":"public"},{"id":"202436400000100566","name":"용운도서관","lat":36.325703,"lng":127.463853,"roadAddr":"대전광역시 동구 새울로68번길 23-23","jibunAddr":"대전광역시?동구?용운동 389-2","openHours":"정시(08:00~22:00)","maleToilets":27,"femaleToilets":15,"disabled":false,"diaperTable":false,"emergencyBell":false,"cctv":false,"managerTel":"0422597021","source":"public","category":"public"},{"id":"202436400000100358","name":"하늘셀프주유소","lat":36.311623,"lng":127.444684,"roadAddr":"대전광역시 동구 대전로549","jibunAddr":"대전광역시 동구 천동 72-8","openHours":"상시","maleToilets":2,"femaleToilets":1,"disabled":false,"diaperTable":false,"emergencyBell":false,"cctv":false,"managerTel":"0422835151","source":"public","category":"public"},{"id":"202436400000100582","name":"축협농협새용운지점","lat":36.328064,"lng":127.460802,"roadAddr":"대전광역시 동구 용운로165","jibunAddr":"대전광역시?동구?용운동 296-5","openHours":"정시(09:00∼16:30)","maleToilets":2,"femaleToilets":2,"disabled":false,"diaperTable":false,"emergencyBell":false,"cctv":false,"managerTel":"0422824067","source":"public","category":"public"},{"id":"202436400000100514","name":"대1동(女)경노당","lat":36.33035,"lng":127.442995,"roadAddr":"대전광역시 동구 동대전로 83-10","jibunAddr":"대전광역시?동구?대동 192-14","openHours":"정시","maleToilets":1,"femaleToilets":0,"disabled":false,"diaperTable":false,"emergencyBell":false,"cctv":false,"managerTel":"0426335916","source":"public","category":"public"},{"id":"202436400000100520","name":"효천경노당","lat":36.316365,"lng":127.441697,"roadAddr":"대전광역시 동구 효천1길 69","jibunAddr":"대전광역시?동구?효동 154-16","openHours":"정시","maleToilets":2,"femaleToilets":1,"disabled":false,"diaperTable":false,"emergencyBell":false,"cctv":false,"managerTel":"0422825915","source":"public","category":"public"},{"id":"202436400000100539","name":"판암1동주민센터","lat":36.318175,"lng":127.460034,"roadAddr":"대전광역시 동구 동부로10번길 68","jibunAddr":"대전광역시 동구 판암동 303-4","openHours":"정시(09:00~18:00)","maleToilets":6,"femaleToilets":3,"disabled":true,"diaperTable":false,"emergencyBell":false,"cctv":false,"managerTel":"0422514584","source":"public","category":"public"},{"id":"202436400000100559","name":"용운119안전센터","lat":36.331289,"lng":127.46179,"roadAddr":"대전광역시 동구 용운로151번길 88","jibunAddr":"대전광역시?동구?용운동 174-16","openHours":"상시","maleToilets":5,"femaleToilets":1,"disabled":false,"diaperTable":false,"emergencyBell":false,"cctv":false,"managerTel":"0422701271","source":"public","category":"public"},{"id":"202436400000100419","name":"은어송중학교","lat":36.300422,"lng":127.460986,"roadAddr":"대전광역시 동구 동구청로 26","jibunAddr":"대전광역시 동구 대성동 134","openHours":"정시","maleToilets":56,"femaleToilets":56,"disabled":false,"diaperTable":false,"emergencyBell":false,"cctv":false,"managerTel":"0422815500","source":"public","category":"public"},{"id":"202436400000100335","name":"대전판암동우체국 1층","lat":36.320313,"lng":127.457227,"roadAddr":"대전광역시 동구 동부로35","jibunAddr":"대전광역시 동구 신천동 529","openHours":"09:00 ~ 18:00","maleToilets":0,"femaleToilets":0,"disabled":false,"diaperTable":false,"emergencyBell":false,"cctv":true,"managerTel":"0422732901","source":"public","category":"public"},{"id":"202436400000100481","name":"철탐삼거리(하)","lat":36.311455,"lng":127.484335,"roadAddr":"대전광역시 동구 세천공원로 32-533","jibunAddr":"대전광역시 동구 세천동 산34","openHours":"상시","maleToilets":2,"femaleToilets":2,"disabled":false,"diaperTable":false,"emergencyBell":true,"cctv":false,"managerTel":"0422514584","source":"public","category":"public"},{"id":"202436400000100381","name":"판암가스충전소","lat":36.322528,"lng":127.471488,"roadAddr":"대전광역시 동구 옥천로309","jibunAddr":"대전광역시 동구 삼정동 118-11","openHours":"상시","maleToilets":3,"femaleToilets":1,"disabled":false,"diaperTable":false,"emergencyBell":false,"cctv":false,"managerTel":"0422714450","source":"public","category":"public"},{"id":"202436400000100519","name":"알바위경노당","lat":36.312045,"lng":127.444254,"roadAddr":"대전광역시 동구 대전로 570-49","jibunAddr":"대전광역시?동구?천동 76-49","openHours":"정시","maleToilets":0,"femaleToilets":0,"disabled":false,"diaperTable":false,"emergencyBell":false,"cctv":false,"managerTel":"0422825914","source":"public","category":"public"},{"id":"202436400000100393","name":"용수골 어린이공원","lat":36.333442,"lng":127.455737,"roadAddr":"대전광역시 동구 대학로 40","jibunAddr":"대전광역시 동구 용운동 659","openHours":"상시","maleToilets":6,"femaleToilets":5,"disabled":true,"diaperTable":true,"emergencyBell":true,"cctv":false,"managerTel":"0422514584","source":"public","category":"public"},{"id":"202436400000100463","name":"가오초등학교","lat":36.310813,"lng":127.458574,"roadAddr":"대전광역시 동구 신기로 112","jibunAddr":"대전광역시?동구?가오동 498","openHours":"정시","maleToilets":71,"femaleToilets":16,"disabled":true,"diaperTable":false,"emergencyBell":false,"cctv":false,"managerTel":"0422861961","source":"public","category":"public"},{"id":"202436400000100454","name":"한밭여자중학교","lat":36.330169,"lng":127.448821,"roadAddr":"대전광역시 동구 동대전로110번길 74-57","jibunAddr":"대전광역시?동구?대동 28-32","openHours":"정시","maleToilets":0,"femaleToilets":88,"disabled":false,"diaperTable":false,"emergencyBell":false,"cctv":false,"managerTel":"0426232373","source":"public","category":"public"},{"id":"202436400000100464","name":"대전맹아학교","lat":36.308854,"lng":127.458749,"roadAddr":"대전광역시 동구 은어송로 95","jibunAddr":"대전광역시?동구?가오동 171-1","openHours":"정시","maleToilets":42,"femaleToilets":12,"disabled":false,"diaperTable":false,"emergencyBell":false,"cctv":false,"managerTel":"0422803601","source":"public","category":"public"},{"id":"202436400000100502","name":"늘사랑아기집(햇살관)","lat":36.340126,"lng":127.445854,"roadAddr":"대전광역시 동구 동중앙로 93","jibunAddr":"대전광역시?동구?가양동 307-3","openHours":"정시(09:00~18:00)","maleToilets":0,"femaleToilets":1,"disabled":false,"diaperTable":false,"emergencyBell":false,"cctv":false,"managerTel":"0426323276","source":"public","category":"public"},{"id":"202436400000100390","name":"대전도시철도공사 신흥역","lat":36.319532,"lng":127.448682,"roadAddr":"대전광역시 동구 옥천로 70","jibunAddr":"대전광역시 동구 판암동 708-3","openHours":"상시","maleToilets":8,"femaleToilets":8,"disabled":true,"diaperTable":false,"emergencyBell":false,"cctv":false,"managerTel":"0425393114","source":"public","category":"public"},{"id":"202436400000100513","name":"대1동제2경노당","lat":36.33035,"lng":127.442995,"roadAddr":"대전광역시 동구 동대전로 83-10","jibunAddr":"대전광역시?동구?대동 192-14","openHours":"정시","maleToilets":1,"femaleToilets":0,"disabled":false,"diaperTable":false,"emergencyBell":false,"cctv":false,"managerTel":"0426335916","source":"public","category":"public"},{"id":"202436400000100507","name":"가양지역아동센터","lat":36.342543,"lng":127.443089,"roadAddr":"대전광역시 동구 가양로80번길 23","jibunAddr":"대전광역시?동구?가양동 295-8","openHours":"정시(10:00~20:00)","maleToilets":3,"femaleToilets":2,"disabled":false,"diaperTable":false,"emergencyBell":false,"cctv":false,"managerTel":"0426221536","source":"public","category":"public"},{"id":"202436400000100576","name":"용운시장 고객센터","lat":36.327127,"lng":127.4607,"roadAddr":"대전광역시 동구 새울로91번길 14-17","jibunAddr":"대전광역시 동구 용운동 349-4","openHours":"상시","maleToilets":4,"femaleToilets":2,"disabled":true,"diaperTable":false,"emergencyBell":true,"cctv":false,"managerTel":"0422514584","source":"public","category":"public"},{"id":"202436400000100389","name":"대전도시철도공사 대동역","lat":36.329545,"lng":127.442885,"roadAddr":"대전광역시 동구 계족로 176","jibunAddr":"대전광역시 동구 대동 148-54","openHours":"상시","maleToilets":8,"femaleToilets":8,"disabled":true,"diaperTable":false,"emergencyBell":false,"cctv":false,"managerTel":"0425393114","source":"public","category":"public"},{"id":"202436400000100503","name":"늘사랑아기집(샘터관)","lat":36.340126,"lng":127.445854,"roadAddr":"대전광역시 동구 동중앙로 93","jibunAddr":"대전광역시?동구?가양동 307-3","openHours":"정시(09:00~18:00)","maleToilets":2,"femaleToilets":1,"disabled":false,"diaperTable":false,"emergencyBell":false,"cctv":false,"managerTel":"0426323276","source":"public","category":"public"},{"id":"202436400000100425","name":"대전기술정보학교(실습동)","lat":36.334387,"lng":127.448873,"roadAddr":"대전광역시 동구 동대전로144번길 47","jibunAddr":"대전광역시?동구?자양동 115-1","openHours":"정시","maleToilets":0,"femaleToilets":0,"disabled":false,"diaperTable":false,"emergencyBell":false,"cctv":false,"managerTel":"0422506700","source":"public","category":"public"},{"id":"202436400000100485","name":"판암장로교회","lat":36.3152,"lng":127.459622,"roadAddr":"대전광역시 동구 옥천로176번길 35","jibunAddr":"대전광역시 동구 판암동 333-9","openHours":"상시","maleToilets":10,"femaleToilets":8,"disabled":false,"diaperTable":false,"emergencyBell":false,"cctv":false,"managerTel":"0422838662","source":"public","category":"public"},{"id":"202436400000100345","name":"동아주유소","lat":36.332609,"lng":127.445149,"roadAddr":"대전광역시 동구 동대전로118","jibunAddr":"대전광역시 동구 대동 403-21","openHours":"상시","maleToilets":3,"femaleToilets":1,"disabled":false,"diaperTable":false,"emergencyBell":false,"cctv":false,"managerTel":"0426263333","source":"public","category":"public"},{"id":"202436400000100462","name":"혜광학교","lat":36.309676,"lng":127.45951,"roadAddr":"대전광역시 동구 은어송로 111","jibunAddr":"대전광역시?동구?가오동 171-1","openHours":"정시","maleToilets":21,"femaleToilets":6,"disabled":false,"diaperTable":false,"emergencyBell":false,"cctv":false,"managerTel":"0422800109","source":"public","category":"public"},{"id":"202436400000100415","name":"판암초등학교","lat":36.315627,"lng":127.461148,"roadAddr":"대전광역시 동구 옥천로180번길 32","jibunAddr":"대전광역시 동구 판암동 334-1","openHours":"정시(09:00~18:00)","maleToilets":100,"femaleToilets":50,"disabled":true,"diaperTable":false,"emergencyBell":false,"cctv":false,"managerTel":"0422815200","source":"public","category":"public"},{"id":"202436400000100361","name":"용운주유소","lat":36.333148,"lng":127.454122,"roadAddr":"대전광역시 동구 백룡로77","jibunAddr":"대전광역시 동구 용운동 718","openHours":"상시","maleToilets":3,"femaleToilets":1,"disabled":false,"diaperTable":false,"emergencyBell":false,"cctv":false,"managerTel":"0424716699","source":"public","category":"public"},{"id":"202436400000100387","name":"대전도시철도공사 판암역","lat":36.316979,"lng":127.458436,"roadAddr":"대전광역시 동구 옥천로 162","jibunAddr":"대전광역시 동구 판암동 484","openHours":"상시","maleToilets":7,"femaleToilets":8,"disabled":true,"diaperTable":false,"emergencyBell":false,"cctv":false,"managerTel":"0425393114","source":"public","category":"public"},{"id":"202436400000100395","name":"신흥문화공원/충남중 옆","lat":36.324578,"lng":127.445422,"roadAddr":"대전광역시 동구 계족로 115","jibunAddr":"대전광역시 동구 신흥동 241","openHours":"상시","maleToilets":2,"femaleToilets":2,"disabled":true,"diaperTable":true,"emergencyBell":true,"cctv":false,"managerTel":"0422514584","source":"public","category":"public"},{"id":"202436400000100552","name":"대동주민센터","lat":36.330051,"lng":127.442798,"roadAddr":"대전광역시 동구 계족로 180","jibunAddr":"대전광역시?동구?대동 179-7","openHours":"정시(09:00~18:00)","maleToilets":3,"femaleToilets":2,"disabled":false,"diaperTable":false,"emergencyBell":false,"cctv":false,"managerTel":"0422597381","source":"public","category":"public"},{"id":"202436400000100518","name":"목련경노당","lat":36.335466,"lng":127.448639,"roadAddr":"대전광역시 동구 백룡로 16","jibunAddr":"대전광역시?동구?자양동 60-1","openHours":"정시","maleToilets":0,"femaleToilets":1,"disabled":false,"diaperTable":false,"emergencyBell":false,"cctv":false,"managerTel":"0422825913","source":"public","category":"public"},{"id":"202436400000100368","name":"대광주유소","lat":36.317173,"lng":127.453383,"roadAddr":"대전광역시 동구 옥천로 118","jibunAddr":"대전광역시 동구 판암동 450","openHours":"정시","maleToilets":4,"femaleToilets":2,"disabled":false,"diaperTable":false,"emergencyBell":false,"cctv":false,"managerTel":"0429356667","source":"public","category":"public"},{"id":"202436400000100558","name":"한국도로공사 판암영업소","lat":36.318237,"lng":127.468043,"roadAddr":"대전광역시 동구 통영대전고속도로 211","jibunAddr":"대전광역시 동구 삼정동 198","openHours":"정시(09:00~18:00)","maleToilets":6,"femaleToilets":3,"disabled":true,"diaperTable":false,"emergencyBell":false,"cctv":false,"managerTel":"0427142493","source":"public","category":"public"},{"id":"202436400000100546","name":"효동주민센터","lat":36.308382,"lng":127.451878,"roadAddr":"대전광역시 동구 계족로 24","jibunAddr":"대전광역시?동구?효동 150-5","openHours":"정시(09:00~18:00)","maleToilets":7,"femaleToilets":3,"disabled":false,"diaperTable":false,"emergencyBell":false,"cctv":false,"managerTel":"0422597261","source":"public","category":"public"},{"id":"202436400000100484","name":"천주교대전교구 판암동교회","lat":36.319902,"lng":127.461378,"roadAddr":"대전광역시 동구 새울로 13","jibunAddr":"대전광역시?동구?판암동 837","openHours":"정시","maleToilets":11,"femaleToilets":7,"disabled":false,"diaperTable":false,"emergencyBell":false,"cctv":false,"managerTel":"0422725995","source":"public","category":"public"},{"id":"202436400000100325","name":"대전동부경찰서 천동파출소","lat":36.309798,"lng":127.448824,"roadAddr":"대전광역시 동구 대전로501","jibunAddr":"대전광역시 동구 천동 68-7","openHours":"09:00~18:00","maleToilets":2,"femaleToilets":1,"disabled":false,"diaperTable":false,"emergencyBell":false,"cctv":true,"managerTel":"0426002321","source":"public","category":"public"},{"id":"202436500000101297","name":"세일가스충전소 개방화장실","lat":36.302642,"lng":127.450708,"roadAddr":"대전광역시 중구 대종로 117(옥계동)","jibunAddr":"대전광역시 중구 옥계동 17-2","openHours":"06:00-00:00","maleToilets":4,"femaleToilets":1,"disabled":false,"diaperTable":false,"emergencyBell":false,"cctv":true,"managerTel":"0422712271","source":"public","category":"public"},{"id":"202436500000101311","name":"이화주유소 개방화장실","lat":36.30663,"lng":127.448235,"roadAddr":"대전광역시 중구 대종로 166(석교동)","jibunAddr":"대전광역시 중구 석교동 86-12","openHours":"05:30-20:00","maleToilets":3,"femaleToilets":1,"disabled":false,"diaperTable":false,"emergencyBell":false,"cctv":false,"managerTel":"0422745189","source":"public","category":"public"},{"id":"202436500000101294","name":"석교주유소 개방화장실","lat":36.308297,"lng":127.443783,"roadAddr":"대전광역시 중구 대종로 207(석교동)","jibunAddr":"대전광역시 중구 석교동 65-17","openHours":"06:00-22:00","maleToilets":1,"femaleToilets":0,"disabled":false,"diaperTable":false,"emergencyBell":false,"cctv":true,"managerTel":"0422737755","source":"public","category":"public"},{"id":"202436500000101317","name":"진성주유소 개방화장실","lat":36.303472,"lng":127.451127,"roadAddr":"대전광역시 중구 대종로 122 (호동)","jibunAddr":"대전광역시 중구 호동 26-19","openHours":"06:00-24:00","maleToilets":2,"femaleToilets":1,"disabled":false,"diaperTable":false,"emergencyBell":false,"cctv":true,"managerTel":"0422718511","source":"public","category":"public"},{"id":"202436500000101352","name":"대전호동우체국(1층)","lat":36.305348,"lng":127.449353,"roadAddr":"대전광역시 중구 대종로 150","jibunAddr":"대전광역시 중구 호동 7-10","openHours":"09:00-18:00","maleToilets":2,"femaleToilets":1,"disabled":false,"diaperTable":false,"emergencyBell":false,"cctv":false,"managerTel":"0422712005","source":"public","category":"public"},{"id":"202436500000101304","name":"옥계셀프주유소 개방화장실(구.명성셀프주유소)","lat":36.301623,"lng":127.45161,"roadAddr":"대전광역시 중구 대종로 103, 명성셀프주유소 (옥계동)","jibunAddr":"대전광역시 중구 옥계동 16-4","openHours":"상시","maleToilets":1,"femaleToilets":0,"disabled":false,"diaperTable":false,"emergencyBell":false,"cctv":true,"managerTel":"0422851297","source":"public","category":"public"}]