[{"id":"202536600000100096","name":"한마음공원","lat":36.355499,"lng":127.38379,"roadAddr":"대전광역시 서구","openHours":"상시","maleToilets":4,"femaleToilets":2,"disabled":true,"diaperTable":true,"emergencyBell":true,"cctv":false,"source":"public","category":"public"},{"id":"202536600000100203","name":"유등천 좌안-15","lat":36.355499,"lng":127.38379,"roadAddr":"대전광역시 서구","openHours":"상시","maleToilets":3,"femaleToilets":2,"disabled":true,"diaperTable":false,"emergencyBell":false,"cctv":false,"source":"public","category":"public"},{"id":"202536600000100091","name":"중보어린이공원","lat":36.36541,"lng":127.370911,"roadAddr":"대전광역시 서구 만년남로3번길 101","openHours":"상시","maleToilets":1,"femaleToilets":1,"disabled":true,"diaperTable":true,"emergencyBell":true,"cctv":false,"source":"public","category":"public"},{"id":"202436600000100398","name":"하늘문교회","lat":36.352863,"lng":127.357942,"roadAddr":"대전광역시 서구 계룡로264번길 2","openHours":"09:00~18:00","maleToilets":18,"femaleToilets":18,"disabled":true,"diaperTable":false,"emergencyBell":false,"cctv":false,"source":"public","category":"public"},{"id":"202436600000100404","name":"한국야쿠르트(주)","lat":36.352994,"lng":127.382627,"roadAddr":"대전광역시 서구 둔산서로 69","openHours":"09:00~18:00","maleToilets":5,"femaleToilets":3,"disabled":false,"diaperTable":false,"emergencyBell":false,"cctv":true,"source":"public","category":"public"},{"id":"202536600000100072","name":"용촌교 상류500m 지점","lat":36.355499,"lng":127.38379,"roadAddr":"대전광역시 서구","openHours":"상시","maleToilets":1,"femaleToilets":1,"disabled":false,"diaperTable":false,"emergencyBell":false,"cctv":false,"source":"public","category":"public"},{"id":"202536600000100022","name":"선유근린공원2","lat":36.355499,"lng":127.38379,"roadAddr":"대전광역시 서구","openHours":"상시","maleToilets":1,"femaleToilets":1,"disabled":true,"diaperTable":false,"emergencyBell":true,"cctv":true,"source":"public","category":"public"},{"id":"202536600000100226","name":"갈마1동행정복지센터","lat":36.350829,"lng":127.36781,"roadAddr":"대전광역시 서구 신갈마로 191","openHours":"09:00~18:00","maleToilets":4,"femaleToilets":3,"disabled":true,"diaperTable":false,"emergencyBell":false,"cctv":false,"source":"public","category":"public"},{"id":"202536600000100180","name":"갑천 우안-27","lat":36.355499,"lng":127.38379,"roadAddr":"대전광역시 서구","openHours":"상시","maleToilets":2,"femaleToilets":2,"disabled":true,"diaperTable":false,"emergencyBell":false,"cctv":false,"source":"public","category":"public"},{"id":"202536600000100049","name":"괴곡동 새뜸마을","lat":36.355499,"lng":127.38379,"roadAddr":"대전광역시 서구","openHours":"상시","maleToilets":1,"femaleToilets":1,"disabled":false,"diaperTable":false,"emergencyBell":false,"cctv":false,"source":"public","category":"public"},{"id":"202536600000100021","name":"선유근린공원1","lat":36.355499,"lng":127.38379,"roadAddr":"대전광역시 서구","openHours":"상시","maleToilets":3,"femaleToilets":3,"disabled":true,"diaperTable":false,"emergencyBell":true,"cctv":true,"source":"public","category":"public"},{"id":"202536600000100182","name":"갑천 우안-31","lat":36.355499,"lng":127.38379,"roadAddr":"대전광역시 서구","openHours":"상시","maleToilets":2,"femaleToilets":2,"disabled":true,"diaperTable":false,"emergencyBell":false,"cctv":false,"source":"public","category":"public"},{"id":"202536600000100197","name":"유등천 좌안-3","lat":36.355499,"lng":127.38379,"roadAddr":"대전광역시 서구","openHours":"상시","maleToilets":2,"femaleToilets":2,"disabled":true,"diaperTable":false,"emergencyBell":false,"cctv":false,"source":"public","category":"public"},{"id":"202536600000100094","name":"청산공원","lat":36.355499,"lng":127.38379,"roadAddr":"대전광역시 서구","openHours":"상시","maleToilets":2,"femaleToilets":1,"disabled":true,"diaperTable":false,"emergencyBell":true,"cctv":false,"source":"public","category":"public"},{"id":"202536600000100053","name":"새말공원","lat":36.355499,"lng":127.38379,"roadAddr":"대전광역시 서구","openHours":"상시","maleToilets":2,"femaleToilets":1,"disabled":true,"diaperTable":false,"emergencyBell":true,"cctv":false,"source":"public","category":"public"},{"id":"202536600000100069","name":"오량공원","lat":36.355499,"lng":127.38379,"roadAddr":"대전광역시 서구","openHours":"상시","maleToilets":2,"femaleToilets":1,"disabled":false,"diaperTable":false,"emergencyBell":true,"cctv":false,"source":"public","category":"public"},{"id":"202436600000100414","name":"현대캐피탈 대전사옥","lat":36.351529,"lng":127.379989,"roadAddr":"대전광역시 서구 둔산로 55","openHours":"09:00~18:00","maleToilets":5,"femaleToilets":2,"disabled":true,"diaperTable":false,"emergencyBell":false,"cctv":true,"source":"public","category":"public"},{"id":"202536600000100052","name":"새뜸공원","lat":36.353964,"lng":127.355314,"roadAddr":"대전광역시 서구 월평새뜸로4번길 49-26","openHours":"상시","maleToilets":2,"femaleToilets":1,"disabled":false,"diaperTable":false,"emergencyBell":true,"cctv":false,"source":"public","category":"public"},{"id":"202536600000100178","name":"갑천 우안-24","lat":36.355499,"lng":127.38379,"roadAddr":"대전광역시 서구","openHours":"상시","maleToilets":3,"femaleToilets":2,"disabled":true,"diaperTable":false,"emergencyBell":false,"cctv":false,"source":"public","category":"public"},{"id":"202536600000100217","name":"기술보증기금 대전지점","lat":36.359429,"lng":127.382649,"roadAddr":"대전광역시 서구 둔산서로 141","openHours":"09:00~18:00","maleToilets":5,"femaleToilets":2,"disabled":true,"diaperTable":false,"emergencyBell":false,"cctv":false,"source":"public","category":"public"},{"id":"202436600000100416","name":"IBK기업은행 대덕대로지점","lat":36.368711,"lng":127.380003,"roadAddr":"대전광역시 서구 대덕대로 400","openHours":"09:00~18:00","maleToilets":4,"femaleToilets":2,"disabled":false,"diaperTable":false,"emergencyBell":false,"cctv":true,"source":"public","category":"public"},{"id":"202536600000100202","name":"유등천 좌안-14","lat":36.355499,"lng":127.38379,"roadAddr":"대전광역시 서구","openHours":"상시","maleToilets":2,"femaleToilets":0,"disabled":false,"diaperTable":false,"emergencyBell":false,"cctv":false,"source":"public","category":"public"},{"id":"202536600000100200","name":"유등천 좌안-12","lat":36.355499,"lng":127.38379,"roadAddr":"대전광역시 서구","openHours":"상시","maleToilets":2,"femaleToilets":2,"disabled":true,"diaperTable":false,"emergencyBell":false,"cctv":false,"source":"public","category":"public"},{"id":"202536600000100080","name":"원정동 시내버스 종점","lat":36.355499,"lng":127.38379,"roadAddr":"대전광역시 서구","openHours":"상시","maleToilets":1,"femaleToilets":1,"disabled":false,"diaperTable":false,"emergencyBell":false,"cctv":false,"source":"public","category":"public"},{"id":"202436600000100819","name":"한국농어촌공사","lat":36.347239,"lng":127.389858,"roadAddr":"대전광역시 서구 문예로 5 (탄방동)","openHours":"09:00~18:00","maleToilets":2,"femaleToilets":2,"disabled":true,"diaperTable":false,"emergencyBell":false,"cctv":true,"source":"public","category":"public"},{"id":"202536600000100046","name":"빼울약수터입구","lat":36.355499,"lng":127.38379,"roadAddr":"대전광역시 서구","openHours":"상시","maleToilets":1,"femaleToilets":1,"disabled":true,"diaperTable":false,"emergencyBell":true,"cctv":false,"source":"public","category":"public"},{"id":"202536600000100050","name":"상촌공원","lat":36.355499,"lng":127.38379,"roadAddr":"대전광역시 서구","openHours":"상시","maleToilets":3,"femaleToilets":1,"disabled":true,"diaperTable":true,"emergencyBell":true,"cctv":false,"source":"public","category":"public"},{"id":"202536600000100019","name":"도안뜰어린이공원","lat":36.355499,"lng":127.38379,"roadAddr":"대전광역시 서구","openHours":"상시","maleToilets":1,"femaleToilets":1,"disabled":true,"diaperTable":false,"emergencyBell":true,"cctv":false,"source":"public","category":"public"},{"id":"202536600000100073","name":"용촌교 옆","lat":36.355499,"lng":127.38379,"roadAddr":"대전광역시 서구","openHours":"상시","maleToilets":2,"femaleToilets":1,"disabled":false,"diaperTable":false,"emergencyBell":false,"cctv":false,"source":"public","category":"public"},{"id":"202536600000100068","name":"오동 우명교 옆","lat":36.355499,"lng":127.38379,"roadAddr":"대전광역시 서구","openHours":"상시","maleToilets":2,"femaleToilets":2,"disabled":false,"diaperTable":false,"emergencyBell":false,"cctv":false,"source":"public","category":"public"},{"id":"202436600000100388","name":"을지대학둔산병원","lat":36.355301,"lng":127.381988,"roadAddr":"대전광역시 서구 둔산서로 95","openHours":"09:00~18:00","maleToilets":18,"femaleToilets":10,"disabled":true,"diaperTable":false,"emergencyBell":false,"cctv":false,"source":"public","category":"public"},{"id":"202436600000100402","name":"한국마사회","lat":36.356531,"lng":127.363641,"roadAddr":"대전광역시 서구 월평중로 21","openHours":"09:00~18:00","maleToilets":5,"femaleToilets":2,"disabled":false,"diaperTable":false,"emergencyBell":false,"cctv":true,"source":"public","category":"public"},{"id":"202536600000100067","name":"오동 맥키스컴퍼니 앞","lat":36.355499,"lng":127.38379,"roadAddr":"대전광역시 서구","openHours":"상시","maleToilets":1,"femaleToilets":1,"disabled":false,"diaperTable":false,"emergencyBell":false,"cctv":false,"source":"public","category":"public"},{"id":"202536600000100048","name":"사정공원","lat":36.356793,"lng":127.366067,"roadAddr":"대전광역시 서구 월평중로24번길 39","openHours":"상시","maleToilets":2,"femaleToilets":1,"disabled":false,"diaperTable":false,"emergencyBell":true,"cctv":false,"source":"public","category":"public"},{"id":"202536600000100198","name":"유등천 좌안-4","lat":36.355499,"lng":127.38379,"roadAddr":"대전광역시 서구","openHours":"상시","maleToilets":2,"femaleToilets":2,"disabled":true,"diaperTable":false,"emergencyBell":false,"cctv":false,"source":"public","category":"public"},{"id":"202536600000100058","name":"섬말공원","lat":36.355499,"lng":127.38379,"roadAddr":"대전광역시 서구","openHours":"상시","maleToilets":2,"femaleToilets":1,"disabled":true,"diaperTable":false,"emergencyBell":true,"cctv":false,"source":"public","category":"public"},{"id":"202436600000100417","name":"IBK기업은행대전지점","lat":36.348716,"lng":127.389814,"roadAddr":"대전광역시 서구 둔산남로 112","openHours":"09:00~18:00","maleToilets":5,"femaleToilets":2,"disabled":false,"diaperTable":false,"emergencyBell":false,"cctv":true,"source":"public","category":"public"},{"id":"202536600000100206","name":"유등천 좌안-21","lat":36.355499,"lng":127.38379,"roadAddr":"대전광역시 서구","openHours":"상시","maleToilets":2,"femaleToilets":2,"disabled":true,"diaperTable":false,"emergencyBell":false,"cctv":false,"source":"public","category":"public"},{"id":"202436600000100392","name":"주은오피스텔","lat":36.359035,"lng":127.387192,"roadAddr":"대전광역시 서구 둔산중로 138","openHours":"09:00~18:00","maleToilets":6,"femaleToilets":2,"disabled":false,"diaperTable":false,"emergencyBell":false,"cctv":true,"source":"public","category":"public"},{"id":"202536600000100113","name":"느리울공원","lat":36.355499,"lng":127.38379,"roadAddr":"대전광역시 서구","openHours":"상시","maleToilets":5,"femaleToilets":3,"disabled":true,"diaperTable":false,"emergencyBell":true,"cctv":false,"source":"public","category":"public"},{"id":"202536600000100070","name":"정림동 오리골 약수터","lat":36.355499,"lng":127.38379,"roadAddr":"대전광역시 서구","openHours":"상시","maleToilets":2,"femaleToilets":1,"disabled":false,"diaperTable":false,"emergencyBell":false,"cctv":false,"source":"public","category":"public"},{"id":"202536600000100077","name":"운전자푸른쉼터","lat":36.355499,"lng":127.38379,"roadAddr":"대전광역시 서구","openHours":"상시","maleToilets":2,"femaleToilets":1,"disabled":true,"diaperTable":false,"emergencyBell":true,"cctv":false,"source":"public","category":"public"},{"id":"202536600000100229","name":"갈마동우체국","lat":36.346791,"lng":127.374627,"roadAddr":"대전광역시 서구 갈마중로50번길 5","openHours":"09:00~18:00","maleToilets":2,"femaleToilets":1,"disabled":true,"diaperTable":false,"emergencyBell":false,"cctv":false,"source":"public","category":"public"},{"id":"202536600000100215","name":"국민건강보험대전서부지사","lat":36.36684,"lng":127.381022,"roadAddr":"대전광역시 서구 만년로68번길 15-13(만년동)","openHours":"09:00~18:00","maleToilets":19,"femaleToilets":11,"disabled":true,"diaperTable":false,"emergencyBell":false,"cctv":false,"source":"public","category":"public"},{"id":"202536600000100029","name":"MTB연습장","lat":36.355499,"lng":127.38379,"roadAddr":"대전광역시 서구","openHours":"상시","maleToilets":2,"femaleToilets":1,"disabled":false,"diaperTable":true,"emergencyBell":false,"cctv":false,"source":"public","category":"public"},{"id":"202536600000100092","name":"증촌꽃마을","lat":36.355499,"lng":127.38379,"roadAddr":"대전광역시 서구","openHours":"상시","maleToilets":2,"femaleToilets":1,"disabled":true,"diaperTable":false,"emergencyBell":false,"cctv":false,"source":"public","category":"public"},{"id":"202436600000100374","name":"서림빌딩","lat":36.353287,"lng":127.389551,"roadAddr":"대전광역시 서구 둔산로137번길 44","openHours":"09:00~18:00","maleToilets":4,"femaleToilets":2,"disabled":false,"diaperTable":false,"emergencyBell":false,"cctv":true,"source":"public","category":"public"},{"id":"202436600000100413","name":"현대빌딩","lat":36.350746,"lng":127.377615,"roadAddr":"대전광역시 서구 대덕대로 195","openHours":"09:00~18:00","maleToilets":26,"femaleToilets":16,"disabled":true,"diaperTable":false,"emergencyBell":false,"cctv":false,"source":"public","category":"public"},{"id":"202536600000100078","name":"웅기공원","lat":36.355499,"lng":127.38379,"roadAddr":"대전광역시 서구","openHours":"상시","maleToilets":3,"femaleToilets":3,"disabled":false,"diaperTable":false,"emergencyBell":true,"cctv":false,"source":"public","category":"public"},{"id":"202536600000100107","name":"괴곡동 등산로 입구","lat":36.355499,"lng":127.38379,"roadAddr":"대전광역시 서구","openHours":"상시","maleToilets":1,"femaleToilets":1,"disabled":false,"diaperTable":false,"emergencyBell":false,"cctv":false,"source":"public","category":"public"},{"id":"202536600000100101","name":"갈마근린공원","lat":36.35551,"lng":127.374006,"roadAddr":"대전광역시 서구 갈마역로 55","openHours":"상시","maleToilets":2,"femaleToilets":4,"disabled":true,"diaperTable":true,"emergencyBell":true,"cctv":false,"source":"public","category":"public"},{"id":"202536600000100194","name":"갑천 좌안-41","lat":36.355499,"lng":127.38379,"roadAddr":"대전광역시 서구","openHours":"상시","maleToilets":2,"femaleToilets":2,"disabled":true,"diaperTable":false,"emergencyBell":false,"cctv":false,"source":"public","category":"public"},{"id":"202536600000100184","name":"갑천 우안-33","lat":36.355499,"lng":127.38379,"roadAddr":"대전광역시 서구","openHours":"상시","maleToilets":2,"femaleToilets":2,"disabled":true,"diaperTable":false,"emergencyBell":false,"cctv":false,"source":"public","category":"public"},{"id":"202536600000100252","name":"대전광역시청","lat":36.350385,"lng":127.384633,"roadAddr":"대전광역시 서구 둔산로 100","openHours":"09:00~18:00","maleToilets":9,"femaleToilets":5,"disabled":true,"diaperTable":false,"emergencyBell":false,"cctv":false,"source":"public","category":"public"},{"id":"202536600000100338","name":"대전광역시 서구청","lat":36.355067,"lng":127.383373,"roadAddr":"대전광역시 서구 둔산서로 100","openHours":"09:00~18:00","maleToilets":95,"femaleToilets":35,"disabled":true,"diaperTable":true,"emergencyBell":false,"cctv":true,"source":"public","category":"public"},{"id":"202436600000100848","name":"대전서구평생학습원","lat":36.344623,"lng":127.385567,"roadAddr":"대전광역시 서구 계룡로553번길 38 (탄방동)","openHours":"10:00~18:00","maleToilets":3,"femaleToilets":3,"disabled":false,"diaperTable":false,"emergencyBell":false,"cctv":true,"source":"public","category":"public"},{"id":"202536600000100304","name":"월평1동우체국","lat":36.354672,"lng":127.357379,"roadAddr":"대전광역시 서구 월평새뜸로4번길 110","openHours":"09:00~18:00","maleToilets":2,"femaleToilets":1,"disabled":false,"diaperTable":false,"emergencyBell":false,"cctv":false,"source":"public","category":"public"},{"id":"202536600000100056","name":"샘머리공원③","lat":36.355499,"lng":127.38379,"roadAddr":"대전광역시 서구","openHours":"상시","maleToilets":3,"femaleToilets":4,"disabled":true,"diaperTable":true,"emergencyBell":true,"cctv":false,"source":"public","category":"public"},{"id":"202536600000100034","name":"매노교 상류","lat":36.355499,"lng":127.38379,"roadAddr":"대전광역시 서구","openHours":"상시","maleToilets":1,"femaleToilets":1,"disabled":false,"diaperTable":false,"emergencyBell":false,"cctv":false,"source":"public","category":"public"},{"id":"202436600000100373","name":"새로남교회","lat":36.366365,"lng":127.380001,"roadAddr":"대전광역시 서구 대덕대로 378","openHours":"09:00~18:00","maleToilets":11,"femaleToilets":8,"disabled":true,"diaperTable":false,"emergencyBell":false,"cctv":true,"source":"public","category":"public"},{"id":"202536600000100306","name":"월평2동 행정복지센터","lat":36.363585,"lng":127.374101,"roadAddr":"대전광역시 서구 갈마역로 145","openHours":"09:00~18:00","maleToilets":3,"femaleToilets":2,"disabled":false,"diaperTable":false,"emergencyBell":false,"cctv":true,"source":"public","category":"public"},{"id":"202536600000100054","name":"샘머리공원①","lat":36.356038,"lng":127.383927,"roadAddr":"대전광역시 서구 둔산북로 85","openHours":"상시","maleToilets":5,"femaleToilets":2,"disabled":false,"diaperTable":false,"emergencyBell":true,"cctv":false,"source":"public","category":"public"},{"id":"202536600000100026","name":"구봉산공원 공영주차장","lat":36.355499,"lng":127.38379,"roadAddr":"대전광역시 서구","openHours":"상시","maleToilets":2,"femaleToilets":2,"disabled":false,"diaperTable":false,"emergencyBell":true,"cctv":false,"source":"public","category":"public"},{"id":"202436600000100403","name":"한국산업은행","lat":36.359044,"lng":127.382624,"roadAddr":"대전광역시 서구 둔산서로 137","openHours":"09:00~18:00","maleToilets":7,"femaleToilets":3,"disabled":false,"diaperTable":false,"emergencyBell":false,"cctv":false,"source":"public","category":"public"},{"id":"202536600000100103","name":"계룡어린이공원","lat":36.355499,"lng":127.38379,"roadAddr":"대전광역시 서구","openHours":"상시","maleToilets":3,"femaleToilets":1,"disabled":true,"diaperTable":false,"emergencyBell":true,"cctv":false,"source":"public","category":"public"},{"id":"202536600000100305","name":"월평1동행정복지센터","lat":36.354679,"lng":127.357587,"roadAddr":"대전광역시 서구 월평서로 13","openHours":"09:00~18:00","maleToilets":10,"femaleToilets":5,"disabled":true,"diaperTable":false,"emergencyBell":false,"cctv":false,"source":"public","category":"public"},{"id":"202536600000100214","name":"KT&G 서대전지점","lat":36.359026,"lng":127.389777,"roadAddr":"대전광역시 서구 문예로 137(둔산동)","openHours":"09:00~18:00","maleToilets":6,"femaleToilets":2,"disabled":true,"diaperTable":false,"emergencyBell":false,"cctv":false,"source":"public","category":"public"},{"id":"202536600000100181","name":"갑천 우안-28","lat":36.355499,"lng":127.38379,"roadAddr":"대전광역시 서구","openHours":"상시","maleToilets":2,"femaleToilets":2,"disabled":false,"diaperTable":false,"emergencyBell":false,"cctv":false,"source":"public","category":"public"},{"id":"202536600000100030","name":"갑천누리길 펌프트랙","lat":36.355499,"lng":127.38379,"roadAddr":"대전광역시 서구","openHours":"상시","maleToilets":2,"femaleToilets":2,"disabled":true,"diaperTable":true,"emergencyBell":true,"cctv":false,"source":"public","category":"public"},{"id":"202536600000100033","name":"만년어린이공원","lat":36.355499,"lng":127.38379,"roadAddr":"대전광역시 서구","openHours":"상시","maleToilets":2,"femaleToilets":2,"disabled":true,"diaperTable":true,"emergencyBell":true,"cctv":false,"source":"public","category":"public"},{"id":"202536600000100209","name":"유등천 좌안-25","lat":36.355499,"lng":127.38379,"roadAddr":"대전광역시 서구","openHours":"상시","maleToilets":2,"femaleToilets":2,"disabled":true,"diaperTable":false,"emergencyBell":false,"cctv":false,"source":"public","category":"public"},{"id":"202436600000100397","name":"태재빌딩","lat":36.352903,"lng":127.389486,"roadAddr":"대전광역시 서구 둔산로137번길 36","openHours":"09:00~18:00","maleToilets":14,"femaleToilets":9,"disabled":true,"diaperTable":false,"emergencyBell":false,"cctv":true,"source":"public","category":"public"},{"id":"202536600000100220","name":"올림픽기념국민생활관","lat":36.354789,"lng":127.373244,"roadAddr":"대전광역시 서구 신갈마로230번길 77","openHours":"09:00~18:00","maleToilets":7,"femaleToilets":6,"disabled":true,"diaperTable":false,"emergencyBell":false,"cctv":true,"source":"public","category":"public"},{"id":"202536600000100060","name":"소태공원","lat":36.355499,"lng":127.38379,"roadAddr":"대전광역시 서구","openHours":"상시","maleToilets":2,"femaleToilets":1,"disabled":true,"diaperTable":false,"emergencyBell":true,"cctv":false,"source":"public","category":"public"},{"id":"202536600000100196","name":"유등천 좌안-1","lat":36.355499,"lng":127.38379,"roadAddr":"대전광역시 서구","openHours":"상시","maleToilets":2,"femaleToilets":2,"disabled":false,"diaperTable":false,"emergencyBell":false,"cctv":false,"source":"public","category":"public"},{"id":"202536600000100227","name":"갈마2동행정복지센터","lat":36.346769,"lng":127.374867,"roadAddr":"대전광역시 서구 대덕대로 147","openHours":"09:00~18:00","maleToilets":3,"femaleToilets":3,"disabled":false,"diaperTable":false,"emergencyBell":false,"cctv":false,"source":"public","category":"public"},{"id":"202536600000100055","name":"샘머리공원②","lat":36.355499,"lng":127.38379,"roadAddr":"대전광역시 서구","openHours":"상시","maleToilets":3,"femaleToilets":3,"disabled":true,"diaperTable":true,"emergencyBell":true,"cctv":false,"source":"public","category":"public"},{"id":"202536600000100317","name":"탄방동행정복지센터","lat":36.346639,"lng":127.395374,"roadAddr":"대전광역시 서구 탄방로7번길 97","openHours":"09:00~18:00","maleToilets":5,"femaleToilets":2,"disabled":false,"diaperTable":false,"emergencyBell":false,"cctv":false,"source":"public","category":"public"},{"id":"202536600000100119","name":"도산어린이공원","lat":36.355499,"lng":127.38379,"roadAddr":"대전광역시 서구","openHours":"상시","maleToilets":1,"femaleToilets":0,"disabled":true,"diaperTable":false,"emergencyBell":true,"cctv":false,"source":"public","category":"public"},{"id":"202536600000100086","name":"장안동 버스종점","lat":36.355499,"lng":127.38379,"roadAddr":"대전광역시 서구","openHours":"상시","maleToilets":1,"femaleToilets":1,"disabled":false,"diaperTable":false,"emergencyBell":false,"cctv":false,"source":"public","category":"public"},{"id":"202536600000100088","name":"정뱅이마을 다리옆","lat":36.355499,"lng":127.38379,"roadAddr":"대전광역시 서구","openHours":"상시","maleToilets":1,"femaleToilets":1,"disabled":false,"diaperTable":false,"emergencyBell":false,"cctv":false,"source":"public","category":"public"},{"id":"202536600000100087","name":"정림어린이공원","lat":36.355499,"lng":127.38379,"roadAddr":"대전광역시 서구","openHours":"상시","maleToilets":2,"femaleToilets":1,"disabled":true,"diaperTable":false,"emergencyBell":true,"cctv":false,"source":"public","category":"public"},{"id":"202536600000100361","name":"대전상공회의소","lat":36.347127,"lng":127.378909,"roadAddr":"대전광역시 서구 대덕대로176번길 51","openHours":"09:00~18:00","maleToilets":52,"femaleToilets":16,"disabled":true,"diaperTable":false,"emergencyBell":false,"cctv":false,"source":"public","category":"public"},{"id":"202536600000100084","name":"장갓골공원","lat":36.355499,"lng":127.38379,"roadAddr":"대전광역시 서구","openHours":"상시","maleToilets":2,"femaleToilets":1,"disabled":true,"diaperTable":false,"emergencyBell":true,"cctv":false,"source":"public","category":"public"},{"id":"202536600000100257","name":"대전둔산우체국","lat":36.351729,"lng":127.386212,"roadAddr":"대전광역시 서구 둔산로 111","openHours":"09:00~18:00","maleToilets":10,"femaleToilets":4,"disabled":true,"diaperTable":false,"emergencyBell":false,"cctv":true,"source":"public","category":"public"},{"id":"202536600000100024","name":"자연마당","lat":36.355499,"lng":127.38379,"roadAddr":"대전광역시 서구","openHours":"상시","maleToilets":3,"femaleToilets":3,"disabled":true,"diaperTable":true,"emergencyBell":true,"cctv":false,"source":"public","category":"public"},{"id":"202536600000100285","name":"만년동주민센터","lat":36.367539,"lng":127.375023,"roadAddr":"대전광역시 서구 만년로 19","openHours":"09:00~18:00","maleToilets":2,"femaleToilets":2,"disabled":false,"diaperTable":false,"emergencyBell":true,"cctv":true,"source":"public","category":"public"},{"id":"202536600000100177","name":"갑천 우안-23","lat":36.355499,"lng":127.38379,"roadAddr":"대전광역시 서구","openHours":"상시","maleToilets":3,"femaleToilets":2,"disabled":true,"diaperTable":false,"emergencyBell":false,"cctv":false,"source":"public","category":"public"},{"id":"202536600000100045","name":"봉우재근린공원","lat":36.355499,"lng":127.38379,"roadAddr":"대전광역시 서구","openHours":"상시","maleToilets":2,"femaleToilets":1,"disabled":true,"diaperTable":false,"emergencyBell":true,"cctv":false,"source":"public","category":"public"},{"id":"202536600000100031","name":"둔지미공원①","lat":36.355499,"lng":127.38379,"roadAddr":"대전광역시 서구","openHours":"상시","maleToilets":5,"femaleToilets":4,"disabled":true,"diaperTable":true,"emergencyBell":true,"cctv":false,"source":"public","category":"public"},{"id":"202536600000100082","name":"윗둔지미공원","lat":36.355499,"lng":127.38379,"roadAddr":"대전광역시 서구","openHours":"상시","maleToilets":2,"femaleToilets":1,"disabled":true,"diaperTable":false,"emergencyBell":true,"cctv":false,"source":"public","category":"public"},{"id":"202536600000100040","name":"변동근린공원②","lat":36.355499,"lng":127.38379,"roadAddr":"대전광역시 서구","openHours":"상시","maleToilets":3,"femaleToilets":1,"disabled":true,"diaperTable":false,"emergencyBell":true,"cctv":false,"source":"public","category":"public"},{"id":"202536600000100179","name":"갑천 우안-26","lat":36.355499,"lng":127.38379,"roadAddr":"대전광역시 서구","openHours":"상시","maleToilets":2,"femaleToilets":2,"disabled":true,"diaperTable":false,"emergencyBell":false,"cctv":false,"source":"public","category":"public"},{"id":"202536600000100117","name":"도안근린공원","lat":36.355499,"lng":127.38379,"roadAddr":"대전광역시 서구","openHours":"상시","maleToilets":2,"femaleToilets":1,"disabled":true,"diaperTable":false,"emergencyBell":true,"cctv":false,"source":"public","category":"public"},{"id":"202436600000100393","name":"청사오피스텔","lat":36.359472,"lng":127.38909,"roadAddr":"대전광역시 서구 청사로 228","openHours":"09:00~18:00","maleToilets":12,"femaleToilets":4,"disabled":true,"diaperTable":false,"emergencyBell":false,"cctv":true,"source":"public","category":"public"},{"id":"202536600000100193","name":"갑천 우안-49","lat":36.355499,"lng":127.38379,"roadAddr":"대전광역시 서구","openHours":"상시","maleToilets":2,"femaleToilets":0,"disabled":false,"diaperTable":false,"emergencyBell":false,"cctv":false,"source":"public","category":"public"},{"id":"202536600000100095","name":"평화공원","lat":36.355499,"lng":127.38379,"roadAddr":"대전광역시 서구","openHours":"상시","maleToilets":3,"femaleToilets":3,"disabled":false,"diaperTable":false,"emergencyBell":true,"cctv":false,"source":"public","category":"public"},{"id":"202536600000100205","name":"유등천 좌안-18","lat":36.355499,"lng":127.38379,"roadAddr":"대전광역시 서구","openHours":"상시","maleToilets":2,"femaleToilets":2,"disabled":false,"diaperTable":false,"emergencyBell":false,"cctv":false,"source":"public","category":"public"},{"id":"202436600000100382","name":"엔탑(JS세차장)","lat":36.346997,"lng":127.370462,"roadAddr":"대전광역시 서구 갈마중로8번길 13","openHours":"09:00~18:00","maleToilets":2,"femaleToilets":1,"disabled":false,"diaperTable":false,"emergencyBell":false,"cctv":true,"source":"public","category":"public"},{"id":"202636600000100010","name":"갈마주유소","lat":36.345279,"lng":127.368821,"roadAddr":"대전광역시 서구 신갈마로 130 (갈마동)","jibunAddr":"대전광역시 서구 갈마동 379-10","openHours":"09:00~18:00","maleToilets":4,"femaleToilets":2,"disabled":false,"diaperTable":false,"emergencyBell":false,"cctv":false,"source":"public","category":"public"},{"id":"202536600000100192","name":"갑천 우안-48","lat":36.355499,"lng":127.38379,"roadAddr":"대전광역시 서구","openHours":"상시","maleToilets":2,"femaleToilets":0,"disabled":false,"diaperTable":false,"emergencyBell":false,"cctv":false,"source":"public","category":"public"},{"id":"202536600000100042","name":"보라매공원①","lat":36.355499,"lng":127.38379,"roadAddr":"대전광역시 서구","openHours":"상시","maleToilets":6,"femaleToilets":3,"disabled":true,"diaperTable":true,"emergencyBell":true,"cctv":false,"source":"public","category":"public"},{"id":"202436600000100384","name":"영천감리교회","lat":36.346284,"lng":127.396235,"roadAddr":"대전광역시 서구 남선로 31-13","openHours":"09:00~18:00","maleToilets":6,"femaleToilets":2,"disabled":false,"diaperTable":false,"emergencyBell":false,"cctv":true,"source":"public","category":"public"},{"id":"202536600000100063","name":"씨애틀공원","lat":36.355499,"lng":127.38379,"roadAddr":"대전광역시 서구","openHours":"상시","maleToilets":3,"femaleToilets":2,"disabled":true,"diaperTable":false,"emergencyBell":true,"cctv":false,"source":"public","category":"public"},{"id":"202436600000100406","name":"한국투자증권","lat":36.351018,"lng":127.382581,"roadAddr":"대전광역시 서구 둔산서로 47","openHours":"09:00~18:00","maleToilets":50,"femaleToilets":20,"disabled":false,"diaperTable":false,"emergencyBell":false,"cctv":true,"source":"public","category":"public"},{"id":"202536600000100282","name":"둔산도서관 (평생학습원)","lat":36.360044,"lng":127.393185,"roadAddr":"대전광역시 서구 청사로 263","openHours":"08:00~22:00","maleToilets":14,"femaleToilets":14,"disabled":true,"diaperTable":false,"emergencyBell":false,"cctv":false,"source":"public","category":"public"},{"id":"202536600000100364","name":"대전제일감리교회","lat":36.347526,"lng":127.378582,"roadAddr":"대전광역시 서구 둔산남로 4","openHours":"09:00~18:00","maleToilets":6,"femaleToilets":2,"disabled":false,"diaperTable":false,"emergencyBell":false,"cctv":true,"source":"public","category":"public"},{"id":"202536600000100365","name":"대전지방변호사회관","lat":36.353288,"lng":127.389856,"roadAddr":"대전광역시 서구 문예로 73","openHours":"09:00~18:00","maleToilets":6,"femaleToilets":2,"disabled":false,"diaperTable":false,"emergencyBell":false,"cctv":true,"source":"public","category":"public"},{"id":"202536600000100195","name":"갑천 좌안-42","lat":36.355499,"lng":127.38379,"roadAddr":"대전광역시 서구","openHours":"상시","maleToilets":2,"femaleToilets":0,"disabled":false,"diaperTable":false,"emergencyBell":false,"cctv":false,"source":"public","category":"public"},{"id":"202536600000100102","name":"강변어린이공원","lat":36.355499,"lng":127.38379,"roadAddr":"대전광역시 서구","openHours":"상시","maleToilets":1,"femaleToilets":1,"disabled":true,"diaperTable":false,"emergencyBell":true,"cctv":false,"source":"public","category":"public"},{"id":"202536600000100105","name":"관저동 저류지 공영주차장","lat":36.355499,"lng":127.38379,"roadAddr":"대전광역시 서구","openHours":"상시","maleToilets":3,"femaleToilets":3,"disabled":false,"diaperTable":false,"emergencyBell":true,"cctv":false,"source":"public","category":"public"},{"id":"202436600000100399","name":"한국교직원공제회대전회관","lat":36.347289,"lng":127.387353,"roadAddr":"대전광역시 서구 둔산중로 8","openHours":"09:00~18:00","maleToilets":9,"femaleToilets":4,"disabled":false,"diaperTable":false,"emergencyBell":false,"cctv":false,"source":"public","category":"public"},{"id":"202536600000100043","name":"보라매공원②","lat":36.355499,"lng":127.38379,"roadAddr":"대전광역시 서구","openHours":"상시","maleToilets":2,"femaleToilets":2,"disabled":true,"diaperTable":false,"emergencyBell":true,"cctv":false,"source":"public","category":"public"},{"id":"202436600000100387","name":"운암키즈몰","lat":36.348101,"lng":127.378129,"roadAddr":"대전광역시 서구 둔산남로 3","openHours":"09:00~18:00","maleToilets":4,"femaleToilets":4,"disabled":true,"diaperTable":false,"emergencyBell":false,"cctv":true,"source":"public","category":"public"},{"id":"202536600000100065","name":"안산뜸공원","lat":36.355499,"lng":127.38379,"roadAddr":"대전광역시 서구","openHours":"상시","maleToilets":3,"femaleToilets":1,"disabled":true,"diaperTable":false,"emergencyBell":true,"cctv":false,"source":"public","category":"public"},{"id":"202536600000100057","name":"서당골약수터","lat":36.355499,"lng":127.38379,"roadAddr":"대전광역시 서구","openHours":"상시","maleToilets":2,"femaleToilets":1,"disabled":false,"diaperTable":false,"emergencyBell":true,"cctv":false,"source":"public","category":"public"},{"id":"202536600000100216","name":"국민연금공단","lat":36.344859,"lng":127.380887,"roadAddr":"대전광역시 서구 문정로 6","openHours":"09:00~18:00","maleToilets":7,"femaleToilets":3,"disabled":false,"diaperTable":false,"emergencyBell":false,"cctv":true,"source":"public","category":"public"},{"id":"202536600000100064","name":"안골어린이공원","lat":36.355499,"lng":127.38379,"roadAddr":"대전광역시 서구","openHours":"상시","maleToilets":2,"femaleToilets":1,"disabled":true,"diaperTable":false,"emergencyBell":true,"cctv":false,"source":"public","category":"public"},{"id":"202536600000100074","name":"용촌동 정자 옆","lat":36.355499,"lng":127.38379,"roadAddr":"대전광역시 서구","openHours":"상시","maleToilets":1,"femaleToilets":1,"disabled":false,"diaperTable":false,"emergencyBell":false,"cctv":false,"source":"public","category":"public"},{"id":"202536600000100258","name":"대전만년동우체국","lat":36.367568,"lng":127.37455,"roadAddr":"대전광역시 서구 만년로 15","openHours":"09:00~18:00","maleToilets":2,"femaleToilets":1,"disabled":true,"diaperTable":false,"emergencyBell":false,"cctv":false,"source":"public","category":"public"},{"id":"202536600000100175","name":"갑천 우안-21","lat":36.355499,"lng":127.38379,"roadAddr":"대전광역시 서구","openHours":"상시","maleToilets":2,"femaleToilets":2,"disabled":true,"diaperTable":false,"emergencyBell":false,"cctv":false,"source":"public","category":"public"},{"id":"202536600000100201","name":"유등천 좌안-13","lat":36.355499,"lng":127.38379,"roadAddr":"대전광역시 서구","openHours":"상시","maleToilets":2,"femaleToilets":0,"disabled":false,"diaperTable":false,"emergencyBell":false,"cctv":false,"source":"public","category":"public"},{"id":"202536600000100020","name":"구봉근린공원","lat":36.355499,"lng":127.38379,"roadAddr":"대전광역시 서구","openHours":"상시","maleToilets":1,"femaleToilets":1,"disabled":true,"diaperTable":false,"emergencyBell":false,"cctv":false,"source":"public","category":"public"},{"id":"202536600000100025","name":"들의공원","lat":36.355499,"lng":127.38379,"roadAddr":"대전광역시 서구","openHours":"상시","maleToilets":3,"femaleToilets":3,"disabled":true,"diaperTable":false,"emergencyBell":true,"cctv":false,"source":"public","category":"public"},{"id":"202436600000100372","name":"사학연금회관","lat":36.358257,"lng":127.388863,"roadAddr":"대전광역시 서구 한밭대로 809","openHours":"09:00~18:00","maleToilets":7,"femaleToilets":3,"disabled":false,"diaperTable":false,"emergencyBell":false,"cctv":false,"source":"public","category":"public"},{"id":"202536600000100279","name":"둔산1동주민센터","lat":36.352516,"lng":127.386024,"roadAddr":"대전광역시 서구 둔산중로 65","openHours":"09:00~18:00","maleToilets":3,"femaleToilets":2,"disabled":false,"diaperTable":false,"emergencyBell":false,"cctv":false,"source":"public","category":"public"},{"id":"202536600000100283","name":"월평도서관","lat":36.357087,"lng":127.372171,"roadAddr":"대전광역시 서구 한밭대로 664","openHours":"08:00~22:00","maleToilets":9,"femaleToilets":11,"disabled":true,"diaperTable":true,"emergencyBell":true,"cctv":false,"source":"public","category":"public"},{"id":"202536600000100208","name":"유등천 좌안-24","lat":36.355499,"lng":127.38379,"roadAddr":"대전광역시 서구","openHours":"상시","maleToilets":2,"femaleToilets":1,"disabled":true,"diaperTable":false,"emergencyBell":false,"cctv":false,"source":"public","category":"public"},{"id":"202536600000100308","name":"월평3동행정복지센터","lat":36.360283,"lng":127.36687,"roadAddr":"대전광역시 서구 청사로 27-9","openHours":"09:00~18:00","maleToilets":3,"femaleToilets":2,"disabled":false,"diaperTable":false,"emergencyBell":false,"cctv":true,"source":"public","category":"public"},{"id":"202536600000100100","name":"도안근린공원 (가원학교 옆)","lat":36.355499,"lng":127.38379,"roadAddr":"대전광역시 서구","openHours":"상시","maleToilets":2,"femaleToilets":2,"disabled":false,"diaperTable":false,"emergencyBell":true,"cctv":false,"source":"public","category":"public"},{"id":"202536600000100083","name":"은평공원①","lat":36.359469,"lng":127.363506,"roadAddr":"대전광역시 서구 월평중로 55","openHours":"상시","maleToilets":5,"femaleToilets":2,"disabled":true,"diaperTable":false,"emergencyBell":true,"cctv":false,"source":"public","category":"public"},{"id":"202536600000100047","name":"빼울여가녹지","lat":36.355499,"lng":127.38379,"roadAddr":"대전광역시 서구","openHours":"상시","maleToilets":1,"femaleToilets":1,"disabled":true,"diaperTable":false,"emergencyBell":true,"cctv":false,"source":"public","category":"public"},{"id":"202536600000100370","name":"명화빌딩","lat":36.353352,"lng":127.378922,"roadAddr":"대전광역시 서구 대덕대로 229, 둔산빌딩","openHours":"09:00~18:00","maleToilets":4,"femaleToilets":2,"disabled":true,"diaperTable":false,"emergencyBell":false,"cctv":true,"source":"public","category":"public"},{"id":"202536600000100204","name":"유등천 좌안-16","lat":36.355499,"lng":127.38379,"roadAddr":"대전광역시 서구","openHours":"상시","maleToilets":2,"femaleToilets":2,"disabled":true,"diaperTable":false,"emergencyBell":false,"cctv":false,"source":"public","category":"public"},{"id":"202436600000100389","name":"전문건설공제조합","lat":36.351856,"lng":127.38226,"roadAddr":"대전광역시 서구 대덕대로220번길 54","openHours":"09:00~18:00","maleToilets":46,"femaleToilets":18,"disabled":true,"diaperTable":false,"emergencyBell":false,"cctv":true,"source":"public","category":"public"},{"id":"202536600000100027","name":"도안근린7공원(용소지구)","lat":36.355499,"lng":127.38379,"roadAddr":"대전광역시 서구","openHours":"상시","maleToilets":1,"femaleToilets":1,"disabled":true,"diaperTable":false,"emergencyBell":true,"cctv":false,"source":"public","category":"public"},{"id":"202536600000100280","name":"둔산2동주민센터","lat":36.353828,"lng":127.383634,"roadAddr":"대전광역시 서구 둔산서로 80","openHours":"09:00~18:00","maleToilets":3,"femaleToilets":2,"disabled":false,"diaperTable":false,"emergencyBell":false,"cctv":false,"source":"public","category":"public"},{"id":"202536600000100044","name":"복수근린공원","lat":36.355499,"lng":127.38379,"roadAddr":"대전광역시 서구","openHours":"상시","maleToilets":1,"femaleToilets":1,"disabled":true,"diaperTable":false,"emergencyBell":true,"cctv":false,"source":"public","category":"public"},{"id":"202536600000100185","name":"갑천 우안-41","lat":36.355499,"lng":127.38379,"roadAddr":"대전광역시 서구","openHours":"상시","maleToilets":2,"femaleToilets":2,"disabled":true,"diaperTable":false,"emergencyBell":false,"cctv":false,"source":"public","category":"public"},{"id":"202536600000100118","name":"도안운전자푸른쉼터","lat":36.355499,"lng":127.38379,"roadAddr":"대전광역시 서구","openHours":"상시","maleToilets":2,"femaleToilets":1,"disabled":true,"diaperTable":false,"emergencyBell":true,"cctv":false,"source":"public","category":"public"},{"id":"202636600000100053","name":"(주)재능교육빌딩","lat":36.353804,"lng":127.380612,"roadAddr":"대전광역시 서구 대덕대로234번길 15 (둔산동)","jibunAddr":"대전광역시 서구 둔산동 1354","openHours":"09;00~18:00","maleToilets":5,"femaleToilets":2,"disabled":true,"diaperTable":false,"emergencyBell":false,"cctv":false,"source":"public","category":"public"},{"id":"202536600000100066","name":"오동 버스정류장","lat":36.355499,"lng":127.38379,"roadAddr":"대전광역시 서구","openHours":"상시","maleToilets":1,"femaleToilets":1,"disabled":false,"diaperTable":false,"emergencyBell":false,"cctv":false,"source":"public","category":"public"},{"id":"202536600000100085","name":"장안저수지","lat":36.355499,"lng":127.38379,"roadAddr":"대전광역시 서구","openHours":"상시","maleToilets":1,"femaleToilets":1,"disabled":false,"diaperTable":false,"emergencyBell":false,"cctv":false,"source":"public","category":"public"},{"id":"202636600000100007","name":"월평공원","lat":36.342874,"lng":127.363902,"jibunAddr":"대전광역시 서구 갈마동 산 27-14","openHours":"상시","maleToilets":2,"femaleToilets":1,"disabled":true,"diaperTable":false,"emergencyBell":false,"cctv":false,"source":"public","category":"public"},{"id":"202636600000100072","name":"월평공원","lat":36.356823,"lng":127.360031,"jibunAddr":"대전광역시 서구 월평동 405","openHours":"상시","maleToilets":1,"femaleToilets":0,"disabled":false,"diaperTable":false,"emergencyBell":false,"cctv":false,"source":"public","category":"public"},{"id":"202436600000100407","name":"한독빌딩","lat":36.362013,"lng":127.376961,"roadAddr":"대전광역시 서구 청사서로 46","openHours":"09:00~18:00","maleToilets":4,"femaleToilets":2,"disabled":false,"diaperTable":false,"emergencyBell":false,"cctv":false,"source":"public","category":"public"},{"id":"202536600000100120","name":"은평공원②","lat":36.359469,"lng":127.363506,"roadAddr":"대전광역시 서구 월평중로 55","openHours":"상시","maleToilets":2,"femaleToilets":2,"disabled":true,"diaperTable":false,"emergencyBell":true,"cctv":false,"source":"public","category":"public"},{"id":"202636600000100026","name":"구도일 한밭주유소","lat":36.345286,"lng":127.380262,"roadAddr":"대전광역시 서구 문정로 3 (둔산동)","jibunAddr":"대전광역시 서구 둔산동 1142","openHours":"09:00~18:00","maleToilets":3,"femaleToilets":2,"disabled":false,"diaperTable":false,"emergencyBell":false,"cctv":false,"source":"public","category":"public"},{"id":"202636600000100051","name":"(주)경동기술공사","lat":36.355814,"lng":127.362238,"roadAddr":"대전광역시 서구 월평로 48 (월평동)","jibunAddr":"대전광역시 서구 월평동 914","openHours":"09;00~18;00","maleToilets":45,"femaleToilets":18,"disabled":false,"diaperTable":false,"emergencyBell":false,"cctv":false,"source":"public","category":"public"},{"id":"202536600000100207","name":"유등천 좌안-23","lat":36.355499,"lng":127.38379,"roadAddr":"대전광역시 서구","openHours":"상시","maleToilets":3,"femaleToilets":2,"disabled":true,"diaperTable":false,"emergencyBell":false,"cctv":false,"source":"public","category":"public"},{"id":"202536600000100038","name":"백야공원","lat":36.355499,"lng":127.38379,"roadAddr":"대전광역시 서구","openHours":"상시","maleToilets":2,"femaleToilets":1,"disabled":true,"diaperTable":false,"emergencyBell":true,"cctv":false,"source":"public","category":"public"},{"id":"202536600000100210","name":"유등천 좌안-26","lat":36.355499,"lng":127.38379,"roadAddr":"대전광역시 서구","openHours":"상시","maleToilets":2,"femaleToilets":2,"disabled":true,"diaperTable":false,"emergencyBell":false,"cctv":false,"source":"public","category":"public"},{"id":"202636600000100035","name":"월드컵주유소","lat":36.345323,"lng":127.38149,"roadAddr":"대전광역시 서구 문정로 12 (탄방동)","jibunAddr":"대전광역시 서구 탄방동 606","openHours":"09:00~18:00","maleToilets":23,"femaleToilets":9,"disabled":false,"diaperTable":false,"emergencyBell":false,"cctv":false,"source":"public","category":"public"},{"id":"202536600000100186","name":"갑천 우안-42","lat":36.355499,"lng":127.38379,"roadAddr":"대전광역시 서구","openHours":"상시","maleToilets":2,"femaleToilets":0,"disabled":false,"diaperTable":false,"emergencyBell":false,"cctv":false,"source":"public","category":"public"},{"id":"202636600000100018","name":"중동주유소","lat":36.35372,"lng":127.367156,"roadAddr":"대전광역시 서구 계룡로 344 (갈마동)","jibunAddr":"대전광역시 서구 갈마동 292-2","openHours":"07:00~22:00","maleToilets":1,"femaleToilets":0,"disabled":false,"diaperTable":false,"emergencyBell":false,"cctv":false,"source":"public","category":"public"},{"id":"202636600000100057","name":"DS클리닉빌딩","lat":36.349686,"lng":127.376986,"roadAddr":"대전광역시 서구 대덕대로 183 (둔산동)","jibunAddr":"대전광역시 서구 둔산동 1109","openHours":"09;00~18:00","maleToilets":39,"femaleToilets":26,"disabled":false,"diaperTable":false,"emergencyBell":false,"cctv":false,"source":"public","category":"public"},{"id":"202636600000100031","name":"삼정주유소","lat":36.367031,"lng":127.380004,"roadAddr":"대전광역시 서구 대덕대로 384 (만년동)","jibunAddr":"대전광역시 서구 만년동 290","openHours":"09:00~18:00","maleToilets":3,"femaleToilets":2,"disabled":false,"diaperTable":false,"emergencyBell":false,"cctv":false,"source":"public","category":"public"},{"id":"202536600000100090","name":"제비네공원","lat":36.355499,"lng":127.38379,"roadAddr":"대전광역시 서구","openHours":"상시","maleToilets":1,"femaleToilets":1,"disabled":true,"diaperTable":false,"emergencyBell":true,"cctv":false,"source":"public","category":"public"},{"id":"202436600000100394","name":"청사프라자","lat":36.359015,"lng":127.388715,"roadAddr":"대전광역시 서구 둔산중로134번길 29","openHours":"09:00~18:00","maleToilets":6,"femaleToilets":4,"disabled":true,"diaperTable":false,"emergencyBell":false,"cctv":true,"source":"public","category":"public"},{"id":"202536600000100032","name":"둔지미공원②","lat":36.356921,"lng":127.379811,"roadAddr":"대전광역시 서구 대덕대로 270","openHours":"상시","maleToilets":3,"femaleToilets":4,"disabled":true,"diaperTable":false,"emergencyBell":true,"cctv":false,"source":"public","category":"public"},{"id":"202536600000100037","name":"반달공원","lat":36.355499,"lng":127.38379,"roadAddr":"대전광역시 서구","openHours":"상시","maleToilets":3,"femaleToilets":1,"disabled":true,"diaperTable":false,"emergencyBell":true,"cctv":false,"source":"public","category":"public"},{"id":"202436600000100400","name":"한국국토정보공사","lat":36.346157,"lng":127.384263,"roadAddr":"대전광역시 서구 문정로48번길 12","openHours":"09:00~18:00","maleToilets":5,"femaleToilets":0,"disabled":false,"diaperTable":false,"emergencyBell":false,"cctv":false,"source":"public","category":"public"},{"id":"202536600000100097","name":"누리길 흑석유원지","lat":36.355499,"lng":127.38379,"roadAddr":"대전광역시 서구","openHours":"상시","maleToilets":3,"femaleToilets":3,"disabled":true,"diaperTable":false,"emergencyBell":true,"cctv":false,"source":"public","category":"public"},{"id":"202536600000100075","name":"우마장공원","lat":36.355499,"lng":127.38379,"roadAddr":"대전광역시 서구","openHours":"상시","maleToilets":4,"femaleToilets":2,"disabled":false,"diaperTable":false,"emergencyBell":true,"cctv":false,"source":"public","category":"public"},{"id":"202436600000100415","name":"현대해상화재보험대전사옥","lat":36.353318,"lng":127.382593,"roadAddr":"대전광역시 서구 둔산서로 75","openHours":"09:00~18:00","maleToilets":2,"femaleToilets":1,"disabled":true,"diaperTable":false,"emergencyBell":false,"cctv":true,"source":"public","category":"public"},{"id":"202536600000100307","name":"월평2동우체국","lat":36.363582,"lng":127.373661,"roadAddr":"대전광역시 서구 갈마역로 143-12","openHours":"09:00~18:00","maleToilets":2,"femaleToilets":1,"disabled":false,"diaperTable":false,"emergencyBell":false,"cctv":false,"source":"public","category":"public"},{"id":"202436600000100380","name":"신협중앙회","lat":36.358283,"lng":127.38181,"roadAddr":"대전광역시 서구 한밭대로 745","openHours":"09:00~18:00","maleToilets":6,"femaleToilets":4,"disabled":true,"diaperTable":false,"emergencyBell":false,"cctv":false,"source":"public","category":"public"},{"id":"202536600000100183","name":"갑천 우안-32","lat":36.355499,"lng":127.38379,"roadAddr":"대전광역시 서구","openHours":"상시","maleToilets":2,"femaleToilets":0,"disabled":false,"diaperTable":false,"emergencyBell":false,"cctv":false,"source":"public","category":"public"},{"id":"202536600000100176","name":"갑천 우안-22","lat":36.355499,"lng":127.38379,"roadAddr":"대전광역시 서구","openHours":"상시","maleToilets":3,"femaleToilets":2,"disabled":true,"diaperTable":false,"emergencyBell":false,"cctv":false,"source":"public","category":"public"},{"id":"202536600000100059","name":"성애노인요양원앞","lat":36.355499,"lng":127.38379,"roadAddr":"대전광역시 서구","openHours":"상시","maleToilets":4,"femaleToilets":3,"disabled":false,"diaperTable":false,"emergencyBell":true,"cctv":false,"source":"public","category":"public"},{"id":"202436700000102884","name":"대전지방기상청 3층","lat":36.37059,"lng":127.371537,"roadAddr":"대전광역시 유성구 대학로 383-1 (구성동)","openHours":"09:00~18:00","maleToilets":3,"femaleToilets":1,"disabled":false,"diaperTable":false,"emergencyBell":false,"cctv":false,"managerTel":"0423633599","source":"public","category":"public"},{"id":"202436700000102472","name":"유성구청 1층","lat":36.362592,"lng":127.356741,"roadAddr":"대전광역시 유성구 대학로 211 (어은동)","jibunAddr":"대전광역시 유성구 어은동 109","openHours":"09:00~18:00","maleToilets":8,"femaleToilets":4,"disabled":true,"diaperTable":true,"emergencyBell":false,"cctv":false,"managerTel":"0426112525","source":"public","category":"public"},{"id":"202436700000102969","name":"정보문화산업진흥원 C.T센터","lat":36.378408,"lng":127.379403,"roadAddr":"대전광역시 유성구 대덕대로512번길 20 (도룡동)","jibunAddr":"대전광역시 유성구 도룡동 3-1","openHours":"(평일)09:00~18:00","maleToilets":44,"femaleToilets":44,"disabled":true,"diaperTable":false,"emergencyBell":false,"cctv":false,"managerTel":"0424794114","source":"public","category":"public"},{"id":"202436700000102864","name":"국제지식재산연수원 본관 1층 식당 옆","lat":36.378093,"lng":127.364027,"roadAddr":"대전광역시 유성구 과학로 82","openHours":"09:00~18:00 주말휴관","maleToilets":3,"femaleToilets":2,"disabled":false,"diaperTable":false,"emergencyBell":false,"cctv":false,"managerTel":"0426014308","source":"public","category":"public"},{"id":"202436700000102818","name":"국립중앙과학관 창의나래관 1층","lat":36.377131,"lng":127.37499,"roadAddr":"대전광역시 유성구 대덕대로 481","openHours":"09:00~18:00","maleToilets":8,"femaleToilets":7,"disabled":true,"diaperTable":true,"emergencyBell":false,"cctv":false,"managerTel":"0426017981","source":"public","category":"public"},{"id":"202436700000102800","name":"대전유성경찰서 도룡지구대","lat":36.385443,"lng":127.378098,"roadAddr":"대전광역시 유성구 가정로318(도룡동)","openHours":"상시","maleToilets":4,"femaleToilets":1,"disabled":false,"diaperTable":true,"emergencyBell":true,"cctv":true,"managerTel":"0427256522","source":"public","category":"public"},{"id":"202436700000102854","name":"한국조폐공사 화폐박물관 별관동 1층","lat":36.378471,"lng":127.370534,"roadAddr":"대전광역시 유성구 과학로 80-67(가정동)","openHours":"08:00~17:30","maleToilets":6,"femaleToilets":5,"disabled":true,"diaperTable":false,"emergencyBell":false,"cctv":false,"managerTel":"0426112369","source":"public","category":"public"},{"id":"202436700000102821","name":"국립중앙과학관 과학기술관 2층","lat":36.377131,"lng":127.37499,"roadAddr":"대전광역시 유성구 대덕대로 481","openHours":"09:00~18:00","maleToilets":11,"femaleToilets":5,"disabled":true,"diaperTable":false,"emergencyBell":false,"cctv":false,"managerTel":"0426017981","source":"public","category":"public"},{"id":"202436700000102860","name":"국제지식재산연수원 국가발명인재관 2층","lat":36.378093,"lng":127.364027,"roadAddr":"대전광역시 유성구 과학로 82","openHours":"09:30~17:30 월요일휴관","maleToilets":7,"femaleToilets":4,"disabled":false,"diaperTable":false,"emergencyBell":false,"cctv":false,"managerTel":"0426014308","source":"public","category":"public"},{"id":"202436700000102955","name":"대전교육과학연구원 3층","lat":36.378597,"lng":127.373235,"roadAddr":"대전광역시 유성구 대덕대로 507-50 (가정동)","jibunAddr":"대전광역시 유성구 가정동 36-1","openHours":"09:00~18:00","maleToilets":5,"femaleToilets":6,"disabled":false,"diaperTable":false,"emergencyBell":false,"cctv":false,"managerTel":"0428656300","source":"public","category":"public"},{"id":"202436700000102824","name":"국립중앙과학관 어린이과학관 1층","lat":36.377131,"lng":127.37499,"roadAddr":"대전광역시 유성구 대덕대로 481","openHours":"09:00~18:00","maleToilets":6,"femaleToilets":7,"disabled":true,"diaperTable":false,"emergencyBell":false,"cctv":false,"managerTel":"0426017979","source":"public","category":"public"},{"id":"202436700000102809","name":"한국전자통신연구원 민원동(1층)","lat":36.382659,"lng":127.365229,"roadAddr":"대전광역시 유성구 가정로 218","openHours":"상시","maleToilets":7,"femaleToilets":4,"disabled":false,"diaperTable":false,"emergencyBell":false,"cctv":false,"managerTel":"0428605381","source":"public","category":"public"},{"id":"202436700000102968","name":"정보문화산업진흥원 영상특수효과타운","lat":36.378408,"lng":127.379403,"roadAddr":"대전광역시 유성구 대덕대로512번길 20 (도룡동)","jibunAddr":"대전광역시 유성구 도룡동 3-1","openHours":"(평일)09:00~18:00","maleToilets":25,"femaleToilets":9,"disabled":true,"diaperTable":false,"emergencyBell":false,"cctv":false,"managerTel":"0424794114","source":"public","category":"public"},{"id":"202436700000102886","name":"대전지방기상청 1층","lat":36.37059,"lng":127.371537,"roadAddr":"대전광역시 유성구 대학로 383-1 (구성동)","openHours":"09:00~18:00","maleToilets":5,"femaleToilets":2,"disabled":true,"diaperTable":false,"emergencyBell":false,"cctv":false,"managerTel":"0423633599","source":"public","category":"public"},{"id":"202436700000102987","name":"대전관광공사 지하1층","lat":36.378764,"lng":127.381568,"roadAddr":"대전광역시 유성구 대덕대로 512번길 30(도룡동)","openHours":"09:00~18:00","maleToilets":5,"femaleToilets":2,"disabled":false,"diaperTable":false,"emergencyBell":false,"cctv":false,"managerTel":"0422501111","source":"public","category":"public"},{"id":"202436700000102812","name":"국립중앙과학관 역사의광장","lat":36.377131,"lng":127.37499,"roadAddr":"대전광역시 유성구 대덕대로 481","openHours":"09:00~18:00","maleToilets":6,"femaleToilets":3,"disabled":true,"diaperTable":true,"emergencyBell":false,"cctv":false,"managerTel":"0426017982","source":"public","category":"public"},{"id":"202436700000102867","name":"국제지식재산연수원 본관 3층 304호 앞","lat":36.378093,"lng":127.364027,"roadAddr":"대전광역시 유성구 과학로 82","openHours":"09:00~18:00 주말휴관","maleToilets":5,"femaleToilets":2,"disabled":false,"diaperTable":false,"emergencyBell":false,"cctv":false,"managerTel":"0426014308","source":"public","category":"public"},{"id":"202436700000102811","name":"국립중앙과학관 야외주차장(신)","lat":36.377131,"lng":127.37499,"roadAddr":"대전광역시 유성구 대덕대로 481","openHours":"09:00~18:00","maleToilets":15,"femaleToilets":13,"disabled":true,"diaperTable":true,"emergencyBell":false,"cctv":false,"managerTel":"0426017981","source":"public","category":"public"},{"id":"202436700000102817","name":"국립중앙과학관 천체관","lat":36.377131,"lng":127.37499,"roadAddr":"대전광역시 유성구 대덕대로 481","openHours":"09:00~18:00","maleToilets":5,"femaleToilets":2,"disabled":true,"diaperTable":false,"emergencyBell":false,"cctv":false,"managerTel":"0426017981","source":"public","category":"public"},{"id":"202436700000102984","name":"대전관광공사 3층","lat":36.378764,"lng":127.381568,"roadAddr":"대전광역시 유성구 대덕대로 512번길 30(도룡동)","openHours":"09:00~18:00","maleToilets":10,"femaleToilets":4,"disabled":false,"diaperTable":false,"emergencyBell":false,"cctv":false,"managerTel":"0422501111","source":"public","category":"public"},{"id":"202436700000102532","name":"유성도서관 2층","lat":36.378423,"lng":127.375913,"roadAddr":"대전광역시 유성구 대덕대로 507-38 (가정동)","jibunAddr":"대전광역시 유성구 가정동 37","openHours":"08:00~22:00","maleToilets":6,"femaleToilets":3,"disabled":true,"diaperTable":false,"emergencyBell":false,"cctv":false,"managerTel":"0426116530","source":"public","category":"public"},{"id":"202436700000102487","name":"유성구청 서관 지하1층","lat":36.362592,"lng":127.356741,"roadAddr":"대전광역시 유성구 대학로 211 (어은동)","jibunAddr":"대전광역시 유성구 어은동 109","openHours":"09:00~18:00","maleToilets":3,"femaleToilets":3,"disabled":false,"diaperTable":false,"emergencyBell":false,"cctv":false,"managerTel":"0426112525","source":"public","category":"public"},{"id":"202436700000102972","name":"대전콘텐츠코리아 랩","lat":36.376626,"lng":127.387202,"roadAddr":"대전광역시 유성구 대덕대로 480(도룡동)","openHours":"(평일)09:00~18:00","maleToilets":15,"femaleToilets":12,"disabled":true,"diaperTable":false,"emergencyBell":false,"cctv":false,"managerTel":"0428679890","source":"public","category":"public"},{"id":"202436700000102473","name":"유성구청 2층","lat":36.362592,"lng":127.356741,"roadAddr":"대전광역시 유성구 대학로 211 (어은동)","jibunAddr":"대전광역시 유성구 어은동 109","openHours":"09:00~18:00","maleToilets":8,"femaleToilets":4,"disabled":false,"diaperTable":false,"emergencyBell":false,"cctv":false,"managerTel":"0426112525","source":"public","category":"public"},{"id":"202436700000102863","name":"국제지식재산연수원 본관 1층 103호 앞","lat":36.378093,"lng":127.364027,"roadAddr":"대전광역시 유성구 과학로 82","openHours":"09:00~18:00 주말휴관","maleToilets":5,"femaleToilets":2,"disabled":true,"diaperTable":false,"emergencyBell":false,"cctv":false,"managerTel":"0426014308","source":"public","category":"public"},{"id":"202436700000102816","name":"국립중앙과학관 관람객 식당","lat":36.377131,"lng":127.37499,"roadAddr":"대전광역시 유성구 대덕대로 481","openHours":"09:00~18:00","maleToilets":3,"femaleToilets":3,"disabled":false,"diaperTable":false,"emergencyBell":false,"cctv":false,"managerTel":"0426017981","source":"public","category":"public"},{"id":"202436700000102871","name":"지질박물관 1층","lat":36.381058,"lng":127.357358,"roadAddr":"대전광역시 유성구 과학로 124 (가정동)","openHours":"09:00~18:00","maleToilets":5,"femaleToilets":4,"disabled":false,"diaperTable":false,"emergencyBell":false,"cctv":false,"managerTel":"0428683798","source":"public","category":"public"},{"id":"202436700000102868","name":"국제지식재산연수원 본관 3층 311호 앞","lat":36.378093,"lng":127.364027,"roadAddr":"대전광역시 유성구 과학로 82","openHours":"09:00~18:00 주말휴관","maleToilets":6,"femaleToilets":2,"disabled":false,"diaperTable":false,"emergencyBell":false,"cctv":false,"managerTel":"0426014308","source":"public","category":"public"},{"id":"202436700000102952","name":"대전유성소방서 1층","lat":36.379205,"lng":127.37886,"roadAddr":"대전광역시 유성구 대덕대로 516 (도룡동)","openHours":"상시","maleToilets":5,"femaleToilets":1,"disabled":false,"diaperTable":false,"emergencyBell":false,"cctv":false,"managerTel":"0422701613","source":"public","category":"public"},{"id":"202436700000102887","name":"금강유역환경청 본관1층","lat":36.372433,"lng":127.373885,"roadAddr":"대전광역시 유성구 대학로 407 (구성동)","openHours":"09:00~18:00","maleToilets":5,"femaleToilets":2,"disabled":true,"diaperTable":false,"emergencyBell":false,"cctv":false,"managerTel":"0428650800","source":"public","category":"public"},{"id":"202436700000102989","name":"대전컨벤션센터 제2전시장","lat":36.375359,"lng":127.389385,"roadAddr":"대전광역시 유성구 엑스포로 87 (도룡동)","openHours":"09:00~18:00","maleToilets":60,"femaleToilets":72,"disabled":true,"diaperTable":true,"emergencyBell":true,"cctv":true,"managerTel":"0422506274","source":"public","category":"public"},{"id":"202436700000102477","name":"유성구청 6층","lat":36.362592,"lng":127.356741,"roadAddr":"대전광역시 유성구 대학로 211 (어은동)","jibunAddr":"대전광역시 유성구 어은동 109","openHours":"09:00~18:00","maleToilets":8,"femaleToilets":4,"disabled":false,"diaperTable":false,"emergencyBell":false,"cctv":false,"managerTel":"0426112525","source":"public","category":"public"},{"id":"202436700000102807","name":"대덕연구단지우체국 1층 화장실","lat":36.385366,"lng":127.378303,"roadAddr":"대전광역시 유성구 대덕대로 587","openHours":"09:00~18:00","maleToilets":1,"femaleToilets":0,"disabled":true,"diaperTable":false,"emergencyBell":false,"cctv":false,"managerTel":"0426112369","source":"public","category":"public"},{"id":"202436700000102484","name":"유성구청 서관 1층","lat":36.362592,"lng":127.356741,"roadAddr":"대전광역시 유성구 대학로 211 (어은동)","jibunAddr":"대전광역시 유성구 어은동 109","openHours":"09:00~18:00","maleToilets":4,"femaleToilets":5,"disabled":true,"diaperTable":false,"emergencyBell":false,"cctv":false,"managerTel":"0426112525","source":"public","category":"public"},{"id":"202436700000102653","name":"성두산근린공원-후","lat":36.372364,"lng":127.368542,"roadAddr":"대전광역시 유성구 과학로 42 (구성동)","openHours":"상시","maleToilets":2,"femaleToilets":1,"disabled":false,"diaperTable":false,"emergencyBell":true,"cctv":false,"managerTel":"0426112758","source":"public","category":"public"},{"id":"202436700000102823","name":"국립중앙과학관 과학기술관 지하 1층","lat":36.377131,"lng":127.37499,"roadAddr":"대전광역시 유성구 대덕대로 481","openHours":"09:00~18:00","maleToilets":12,"femaleToilets":5,"disabled":false,"diaperTable":true,"emergencyBell":false,"cctv":false,"managerTel":"0426017981","source":"public","category":"public"},{"id":"202436700000102956","name":"대전교육과학연구원 2층","lat":36.378597,"lng":127.373235,"roadAddr":"대전광역시 유성구 대덕대로 507-50 (가정동)","jibunAddr":"대전광역시 유성구 가정동 36-1","openHours":"09:00~18:00","maleToilets":6,"femaleToilets":6,"disabled":false,"diaperTable":false,"emergencyBell":false,"cctv":false,"managerTel":"0428656300","source":"public","category":"public"},{"id":"202436700000102820","name":"국립중앙과학관 자연사관","lat":36.377131,"lng":127.37499,"roadAddr":"대전광역시 유성구 대덕대로 481","openHours":"09:00~18:00","maleToilets":8,"femaleToilets":6,"disabled":true,"diaperTable":false,"emergencyBell":false,"cctv":false,"managerTel":"0426017981","source":"public","category":"public"},{"id":"202436700000102813","name":"국립중앙과학관 과학교육관 1층","lat":36.377131,"lng":127.37499,"roadAddr":"대전광역시 유성구 대덕대로 481","openHours":"09:00~18:00","maleToilets":6,"femaleToilets":6,"disabled":false,"diaperTable":false,"emergencyBell":false,"cctv":false,"managerTel":"0426017981","source":"public","category":"public"},{"id":"202436700000102983","name":"대전관광공사 4층","lat":36.378764,"lng":127.381568,"roadAddr":"대전광역시 유성구 대덕대로 512번길 30(도룡동)","openHours":"09:00~18:00","maleToilets":11,"femaleToilets":4,"disabled":false,"diaperTable":false,"emergencyBell":false,"cctv":false,"managerTel":"0422501111","source":"public","category":"public"},{"id":"202436700000102954","name":"대전교육과학연구원 4층","lat":36.378597,"lng":127.373235,"roadAddr":"대전광역시 유성구 대덕대로 507-50 (가정동)","jibunAddr":"대전광역시 유성구 가정동 36-1","openHours":"09:00~18:00","maleToilets":5,"femaleToilets":6,"disabled":false,"diaperTable":false,"emergencyBell":false,"cctv":false,"managerTel":"0428656300","source":"public","category":"public"},{"id":"202436700000102971","name":"대전이스포츠경기장","lat":36.376626,"lng":127.387202,"roadAddr":"대전광역시 유성구 대덕대로 480(도룡동)","openHours":"(평일)09:00~18:00","maleToilets":24,"femaleToilets":15,"disabled":true,"diaperTable":false,"emergencyBell":true,"cctv":false,"managerTel":"0428679645","source":"public","category":"public"},{"id":"202436700000102953","name":"대전교육과학연구원 5층","lat":36.378597,"lng":127.373235,"roadAddr":"대전광역시 유성구 대덕대로 507-50 (가정동)","jibunAddr":"대전광역시 유성구 가정동 36-1","openHours":"09:00~18:00","maleToilets":5,"femaleToilets":6,"disabled":false,"diaperTable":false,"emergencyBell":false,"cctv":false,"managerTel":"0428656300","source":"public","category":"public"},{"id":"202436700000102986","name":"대전관광공사 1층","lat":36.378764,"lng":127.381568,"roadAddr":"대전광역시 유성구 대덕대로 512번길 30(도룡동)","openHours":"09:00~18:00","maleToilets":10,"femaleToilets":4,"disabled":false,"diaperTable":false,"emergencyBell":false,"cctv":false,"managerTel":"0422501111","source":"public","category":"public"},{"id":"202436700000102885","name":"대전지방기상청 2층","lat":36.37059,"lng":127.371537,"roadAddr":"대전광역시 유성구 대학로 383-1 (구성동)","openHours":"09:00~18:00","maleToilets":5,"femaleToilets":2,"disabled":false,"diaperTable":false,"emergencyBell":false,"cctv":false,"managerTel":"0423633599","source":"public","category":"public"},{"id":"202436700000102787","name":"GS사이언스주유소","lat":36.380955,"lng":127.378164,"roadAddr":"대전광역시 유성구 대덕대로 539 (가정동)","openHours":"상시","maleToilets":2,"femaleToilets":2,"disabled":false,"diaperTable":false,"emergencyBell":false,"cctv":false,"managerTel":"0426112369","source":"public","category":"public"},{"id":"202436700000102815","name":"국립중앙과학관 생물탐구관","lat":36.377131,"lng":127.37499,"roadAddr":"대전광역시 유성구 대덕대로 481","openHours":"09:00~18:00","maleToilets":6,"femaleToilets":3,"disabled":true,"diaperTable":true,"emergencyBell":false,"cctv":false,"managerTel":"0426017983","source":"public","category":"public"},{"id":"202436700000102765","name":"대덕교회","lat":36.380613,"lng":127.379074,"roadAddr":"대전광역시 유성구 대덕대로 534 (도룡동)","openHours":"09:00~18:00","maleToilets":10,"femaleToilets":6,"disabled":false,"diaperTable":false,"emergencyBell":false,"cctv":false,"managerTel":"0426112369","source":"public","category":"public"},{"id":"202436700000102859","name":"국제지식재산연수원 국가발명인재관 1층","lat":36.378093,"lng":127.364027,"roadAddr":"대전광역시 유성구 과학로 82","openHours":"09:30~17:30 월요일휴관","maleToilets":6,"femaleToilets":3,"disabled":true,"diaperTable":false,"emergencyBell":false,"cctv":false,"managerTel":"0426014308","source":"public","category":"public"},{"id":"202436700000102481","name":"유성구청 별관1층","lat":36.362592,"lng":127.356741,"roadAddr":"대전광역시 유성구 대학로 211 (어은동)","jibunAddr":"대전광역시 유성구 어은동 109","openHours":"09:00~18:00","maleToilets":7,"femaleToilets":5,"disabled":false,"diaperTable":false,"emergencyBell":false,"cctv":false,"managerTel":"0426112525","source":"public","category":"public"},{"id":"202436700000102853","name":"한국조폐공사 화폐박물관 본동 1층","lat":36.378471,"lng":127.370534,"roadAddr":"대전광역시 유성구 과학로 80-67(가정동)","openHours":"박물관 운영시 (10:00 ~ 17:00) 매주 월요일 휴무","maleToilets":5,"femaleToilets":2,"disabled":true,"diaperTable":true,"emergencyBell":false,"cctv":true,"managerTel":"0426112369","source":"public","category":"public"},{"id":"202436700000103001","name":"대전신세계 엑스포점","lat":36.375182,"lng":127.381765,"roadAddr":"대전광역시 유성구 엑스포로 1(도룡동)","jibunAddr":"대전광역시 유성구 도룡동 3-1","openHours":"10:30~20:00","maleToilets":79,"femaleToilets":111,"disabled":true,"diaperTable":true,"emergencyBell":true,"cctv":true,"managerTel":"0426071041","source":"public","category":"public"},{"id":"202436700000102970","name":"정보문화산업진흥원 액션영상센터","lat":36.379645,"lng":127.381745,"roadAddr":"대전광역시 유성구 대덕대로512번길 47 (도룡동)","openHours":"(평일)09:00~18:00","maleToilets":17,"femaleToilets":8,"disabled":true,"diaperTable":false,"emergencyBell":false,"cctv":false,"managerTel":"0424794114","source":"public","category":"public"},{"id":"202436700000102870","name":"지질박물관 2층","lat":36.381058,"lng":127.357358,"roadAddr":"대전광역시 유성구 과학로 124 (가정동)","openHours":"09:00~18:00","maleToilets":4,"femaleToilets":2,"disabled":false,"diaperTable":false,"emergencyBell":false,"cctv":false,"managerTel":"0428683798","source":"public","category":"public"},{"id":"202436700000102819","name":"국립중앙과학관 사이언스홀","lat":36.377131,"lng":127.37499,"roadAddr":"대전광역시 유성구 대덕대로 481","openHours":"09:00~18:00","maleToilets":13,"femaleToilets":8,"disabled":false,"diaperTable":false,"emergencyBell":false,"cctv":false,"managerTel":"0426017981","source":"public","category":"public"},{"id":"202436700000102766","name":"SK엑스포주유소","lat":36.381181,"lng":127.378855,"roadAddr":"대전광역시 유성구 대덕대로 540 (도룡동)","openHours":"상시","maleToilets":2,"femaleToilets":2,"disabled":false,"diaperTable":false,"emergencyBell":false,"cctv":false,"managerTel":"0426112369","source":"public","category":"public"},{"id":"202436700000102665","name":"유림문화공원(1)","lat":36.360684,"lng":127.357688,"roadAddr":"대전광역시 유성구 어은로 27 (봉명동)","openHours":"상시","maleToilets":7,"femaleToilets":7,"disabled":true,"diaperTable":true,"emergencyBell":true,"cctv":false,"managerTel":"0426112758","source":"public","category":"public"},{"id":"202436700000102825","name":"국립중앙과학관 어린이과학관 2층","lat":36.377131,"lng":127.37499,"roadAddr":"대전광역시 유성구 대덕대로 481","openHours":"09:00~18:00","maleToilets":4,"femaleToilets":4,"disabled":true,"diaperTable":false,"emergencyBell":false,"cctv":false,"managerTel":"0426017980","source":"public","category":"public"},{"id":"202436700000102865","name":"국제지식재산연수원 본관 2층 203호 앞","lat":36.378093,"lng":127.364027,"roadAddr":"대전광역시 유성구 과학로 82","openHours":"09:00~18:00 주말휴관","maleToilets":5,"femaleToilets":2,"disabled":false,"diaperTable":false,"emergencyBell":false,"cctv":false,"managerTel":"0426014308","source":"public","category":"public"},{"id":"202436700000102985","name":"대전관광공사 2층","lat":36.378764,"lng":127.381568,"roadAddr":"대전광역시 유성구 대덕대로 512번길 30(도룡동)","openHours":"09:00~18:00","maleToilets":10,"femaleToilets":4,"disabled":false,"diaperTable":false,"emergencyBell":false,"cctv":false,"managerTel":"0422501111","source":"public","category":"public"},{"id":"202436700000102483","name":"유성구청 별관3층","lat":36.362592,"lng":127.356741,"roadAddr":"대전광역시 유성구 대학로 211 (어은동)","jibunAddr":"대전광역시 유성구 어은동 109","openHours":"09:00~18:00","maleToilets":3,"femaleToilets":1,"disabled":true,"diaperTable":false,"emergencyBell":false,"cctv":false,"managerTel":"0426112525","source":"public","category":"public"},{"id":"202436700000102478","name":"유성구청 7층","lat":36.362592,"lng":127.356741,"roadAddr":"대전광역시 유성구 대학로 211 (어은동)","jibunAddr":"대전광역시 유성구 어은동 109","openHours":"09:00~18:00","maleToilets":8,"femaleToilets":4,"disabled":false,"diaperTable":false,"emergencyBell":false,"cctv":false,"managerTel":"0426112525","source":"public","category":"public"},{"id":"202436700000103010","name":"홈플러스(주)유성점","lat":36.358402,"lng":127.354172,"roadAddr":"대전광역시 유성구 한밭대로 502 (봉명동)","jibunAddr":"대전광역시 유성구 봉명동 669","openHours":"10:00~23:50","maleToilets":25,"femaleToilets":25,"disabled":true,"diaperTable":true,"emergencyBell":false,"cctv":true,"managerTel":"0428412080","source":"public","category":"public"},{"id":"202436700000102822","name":"국립중앙과학관 과학기술관 1층","lat":36.377131,"lng":127.37499,"roadAddr":"대전광역시 유성구 대덕대로 481","openHours":"09:00~18:00","maleToilets":11,"femaleToilets":5,"disabled":true,"diaperTable":true,"emergencyBell":false,"cctv":false,"managerTel":"0426017981","source":"public","category":"public"},{"id":"202436700000102485","name":"유성구청 서관 2층","lat":36.362592,"lng":127.356741,"roadAddr":"대전광역시 유성구 대학로 211 (어은동)","jibunAddr":"대전광역시 유성구 어은동 109","openHours":"09:00~18:00","maleToilets":6,"femaleToilets":6,"disabled":true,"diaperTable":false,"emergencyBell":false,"cctv":false,"managerTel":"0426112525","source":"public","category":"public"},{"id":"202436700000102486","name":"유성구청 서관 3층","lat":36.362592,"lng":127.356741,"roadAddr":"대전광역시 유성구 대학로 211 (어은동)","jibunAddr":"대전광역시 유성구 어은동 109","openHours":"09:00~18:00","maleToilets":6,"femaleToilets":6,"disabled":true,"diaperTable":false,"emergencyBell":false,"cctv":false,"managerTel":"0426112525","source":"public","category":"public"},{"id":"202436700000102738","name":"한빛프라자","lat":36.363525,"lng":127.353659,"roadAddr":"대전광역시 유성구 어은로 57 (어은동, 한빛아파트)","openHours":"09:00~18:00","maleToilets":4,"femaleToilets":2,"disabled":false,"diaperTable":false,"emergencyBell":false,"cctv":false,"managerTel":"0426112369","source":"public","category":"public"},{"id":"202436700000102476","name":"유성구청 5층","lat":36.362592,"lng":127.356741,"roadAddr":"대전광역시 유성구 대학로 211 (어은동)","jibunAddr":"대전광역시 유성구 어은동 109","openHours":"09:00~18:00","maleToilets":8,"femaleToilets":4,"disabled":false,"diaperTable":false,"emergencyBell":false,"cctv":false,"managerTel":"0426112525","source":"public","category":"public"},{"id":"202436700000102861","name":"국제지식재산연수원 국가발명인재관 3층","lat":36.378093,"lng":127.364027,"roadAddr":"대전광역시 유성구 과학로 82","openHours":"09:30~17:30 월요일휴관","maleToilets":7,"femaleToilets":4,"disabled":false,"diaperTable":false,"emergencyBell":false,"cctv":false,"managerTel":"0426014308","source":"public","category":"public"},{"id":"202436700000102862","name":"국제지식재산연수원 본관 1층 102호 앞","lat":36.378093,"lng":127.364027,"roadAddr":"대전광역시 유성구 과학로 82","openHours":"09:00~18:00 주말휴관","maleToilets":5,"femaleToilets":2,"disabled":false,"diaperTable":false,"emergencyBell":false,"cctv":false,"managerTel":"0426014308","source":"public","category":"public"},{"id":"202436700000102814","name":"국립중앙과학관 과학캠프관 1층","lat":36.377131,"lng":127.37499,"roadAddr":"대전광역시 유성구 대덕대로 481","openHours":"09:00~18:00","maleToilets":11,"femaleToilets":10,"disabled":true,"diaperTable":false,"emergencyBell":false,"cctv":false,"managerTel":"0426017981","source":"public","category":"public"},{"id":"202436700000102668","name":"유림문화공원(2)","lat":36.36123,"lng":127.360358,"roadAddr":"대전광역시 유성구 봉명동 1013","openHours":"상시","maleToilets":3,"femaleToilets":3,"disabled":false,"diaperTable":false,"emergencyBell":true,"cctv":false,"managerTel":"0426112758","source":"public","category":"public"},{"id":"202436700000102482","name":"유성구청 별관2층","lat":36.362592,"lng":127.356741,"roadAddr":"대전광역시 유성구 대학로 211 (어은동)","jibunAddr":"대전광역시 유성구 어은동 109","openHours":"09:00~18:00","maleToilets":7,"femaleToilets":5,"disabled":false,"diaperTable":false,"emergencyBell":false,"cctv":false,"managerTel":"0426112525","source":"public","category":"public"},{"id":"202436700000102533","name":"유성도서관 3층","lat":36.378423,"lng":127.375913,"roadAddr":"대전광역시 유성구 대덕대로 507-38 (가정동)","jibunAddr":"대전광역시 유성구 가정동 37","openHours":"08:00~22:00","maleToilets":7,"femaleToilets":3,"disabled":false,"diaperTable":false,"emergencyBell":false,"cctv":false,"managerTel":"0426116530","source":"public","category":"public"},{"id":"202436700000102988","name":"대전컨벤션센터 제1전시장","lat":36.374984,"lng":127.391692,"roadAddr":"대전광역시 유성구 엑스포로 107 (도룡동)","openHours":"09:00~18:00","maleToilets":78,"femaleToilets":74,"disabled":true,"diaperTable":true,"emergencyBell":true,"cctv":true,"managerTel":"0422501577","source":"public","category":"public"},{"id":"202436700000102957","name":"대전교육과학연구원 1층","lat":36.378597,"lng":127.373235,"roadAddr":"대전광역시 유성구 대덕대로 507-50 (가정동)","jibunAddr":"대전광역시 유성구 가정동 36-1","openHours":"09:00~18:00","maleToilets":4,"femaleToilets":4,"disabled":true,"diaperTable":true,"emergencyBell":false,"cctv":false,"managerTel":"0428656300","source":"public","category":"public"},{"id":"202436700000102531","name":"유성도서관 1층","lat":36.378423,"lng":127.375913,"roadAddr":"대전광역시 유성구 대덕대로 507-38 (가정동)","jibunAddr":"대전광역시 유성구 가정동 37","openHours":"08:00~22:00","maleToilets":6,"femaleToilets":2,"disabled":false,"diaperTable":false,"emergencyBell":false,"cctv":false,"managerTel":"0426116530","source":"public","category":"public"},{"id":"202436700000102474","name":"유성구청 3층","lat":36.362592,"lng":127.356741,"roadAddr":"대전광역시 유성구 대학로 211 (어은동)","jibunAddr":"대전광역시 유성구 어은동 109","openHours":"09:00~18:00","maleToilets":8,"femaleToilets":4,"disabled":false,"diaperTable":false,"emergencyBell":false,"cctv":false,"managerTel":"0426112525","source":"public","category":"public"},{"id":"202436700000102958","name":"대전교육과학연구원 지하1층","lat":36.378597,"lng":127.373235,"roadAddr":"대전광역시 유성구 대덕대로 507-50 (가정동)","jibunAddr":"대전광역시 유성구 가정동 36-1","openHours":"09:00~18:00","maleToilets":5,"femaleToilets":6,"disabled":false,"diaperTable":false,"emergencyBell":false,"cctv":false,"managerTel":"0428656300","source":"public","category":"public"},{"id":"202436700000102810","name":"국립중앙과학관 야외주차장(구)","lat":36.377131,"lng":127.37499,"roadAddr":"대전광역시 유성구 대덕대로 481","openHours":"09:00~18:00","maleToilets":10,"femaleToilets":6,"disabled":false,"diaperTable":false,"emergencyBell":false,"cctv":false,"managerTel":"0426017981","source":"public","category":"public"},{"id":"202436700000102936","name":"대전광역시 보건환경연구원","lat":36.372433,"lng":127.373885,"roadAddr":"대전광역시 유성구 대학로 407 (구성동)","openHours":"09:00~18:00","maleToilets":3,"femaleToilets":1,"disabled":true,"diaperTable":false,"emergencyBell":false,"cctv":false,"managerTel":"0422706763","source":"public","category":"public"},{"id":"202436700000102869","name":"금강유역환경청","lat":36.373039,"lng":127.374204,"roadAddr":"대전광역시 유성구 대학로 417","openHours":"09:00~18:00","maleToilets":4,"femaleToilets":5,"disabled":true,"diaperTable":false,"emergencyBell":true,"cctv":true,"managerTel":"0428650728","source":"public","category":"public"},{"id":"202436700000102475","name":"유성구청 4층","lat":36.362592,"lng":127.356741,"roadAddr":"대전광역시 유성구 대학로 211 (어은동)","jibunAddr":"대전광역시 유성구 어은동 109","openHours":"09:00~18:00","maleToilets":8,"femaleToilets":4,"disabled":false,"diaperTable":false,"emergencyBell":false,"cctv":false,"managerTel":"0426112525","source":"public","category":"public"},{"id":"202436700000102866","name":"국제지식재산연수원 본관 2층 212호 앞","lat":36.378093,"lng":127.364027,"roadAddr":"대전광역시 유성구 과학로 82","openHours":"09:00~18:00 주말휴관","maleToilets":6,"femaleToilets":2,"disabled":false,"diaperTable":false,"emergencyBell":false,"cctv":false,"managerTel":"0426014308","source":"public","category":"public"},{"id":"202436700000102480","name":"유성구청 지하1층","lat":36.362592,"lng":127.356741,"roadAddr":"대전광역시 유성구 대학로 211 (어은동)","jibunAddr":"대전광역시 유성구 어은동 109","openHours":"09:00~18:00","maleToilets":8,"femaleToilets":4,"disabled":true,"diaperTable":false,"emergencyBell":false,"cctv":false,"managerTel":"0426112525","source":"public","category":"public"},{"id":"202436700000102852","name":"한국조폐공사 화폐박물관 본동 2층","lat":36.378471,"lng":127.370534,"roadAddr":"대전광역시 유성구 과학로 80-67(가정동)","openHours":"박물관 운영시 (10:00 ~ 17:00) 매주 월요일 휴무","maleToilets":5,"femaleToilets":2,"disabled":true,"diaperTable":true,"emergencyBell":false,"cctv":true,"managerTel":"0426112369","source":"public","category":"public"},{"id":"202436700000102808","name":"우체국 한빛프라자 화장실","lat":36.363525,"lng":127.353659,"roadAddr":"대전광역시 유성구 어은로 57, 한빛프라자 2층","openHours":"09:00~18:00","maleToilets":7,"femaleToilets":5,"disabled":false,"diaperTable":false,"emergencyBell":false,"cctv":false,"managerTel":"0428622005","source":"public","category":"public"},{"id":"202436700000102479","name":"유성구의회 1층","lat":36.362592,"lng":127.356741,"roadAddr":"대전광역시 유성구 대학로 211 (어은동)","jibunAddr":"대전광역시 유성구 어은동 109","openHours":"09:00~18:00","maleToilets":4,"femaleToilets":3,"disabled":false,"diaperTable":false,"emergencyBell":false,"cctv":false,"managerTel":"0426112525","source":"public","category":"public"},{"id":"202258050000100014","name":"두암제2근린공원","lat":36.346404,"lng":127.369197,"roadAddr":"갈마로 68 (산수동, 두암2근린공원)","openHours":"24시간","maleToilets":4,"femaleToilets":2,"disabled":true,"diaperTable":false,"emergencyBell":true,"cctv":false,"managerTel":"0626082961","source":"public","category":"public"}]