[{"id":"202536600000100062","name":"신선암공원","lat":36.298009,"lng":127.334377,"roadAddr":"대전광역시 서구 관저중로 65","openHours":"상시","maleToilets":5,"femaleToilets":2,"disabled":true,"diaperTable":false,"emergencyBell":true,"cctv":false,"source":"public","category":"public"},{"id":"202536600000100099","name":"가수원공원②","lat":36.298191,"lng":127.352494,"roadAddr":"대전광역시 서구 가수원중로65번길 22","openHours":"상시","maleToilets":3,"femaleToilets":1,"disabled":true,"diaperTable":false,"emergencyBell":true,"cctv":false,"source":"public","category":"public"},{"id":"202436600000100375","name":"서머나교회","lat":36.297537,"lng":127.335223,"roadAddr":"대전광역시 서구 관저중로 62","openHours":"정시","maleToilets":7,"femaleToilets":5,"disabled":false,"diaperTable":false,"emergencyBell":false,"cctv":true,"source":"public","category":"public"},{"id":"202536600000100239","name":"기성동행정복지센터","lat":36.255745,"lng":127.341833,"roadAddr":"대전광역시 서구 흑석1길 16","openHours":"정시","maleToilets":4,"femaleToilets":1,"disabled":false,"diaperTable":false,"emergencyBell":false,"cctv":false,"source":"public","category":"public"},{"id":"202636600000100008","name":"프레즈스테이션주유소","lat":36.294398,"lng":127.321534,"roadAddr":"대전광역시 서구 계백로 838, SK주유소 (관저동)","jibunAddr":"대전광역시 서구 관저동 1968-5 SK주유소","openHours":"정시","maleToilets":1,"femaleToilets":1,"disabled":false,"diaperTable":false,"emergencyBell":false,"cctv":false,"source":"public","category":"public"},{"id":"202436600000100765","name":"관저종합사회복지관","lat":36.298336,"lng":127.325373,"roadAddr":"대전광역시 서구 구봉로 13","openHours":"정시","maleToilets":4,"femaleToilets":2,"disabled":true,"diaperTable":false,"emergencyBell":false,"cctv":false,"source":"public","category":"public"},{"id":"202536600000100098","name":"가수원공원①","lat":36.298191,"lng":127.352494,"roadAddr":"대전광역시 서구 가수원중로65번길 22","openHours":"상시","maleToilets":1,"femaleToilets":1,"disabled":false,"diaperTable":false,"emergencyBell":true,"cctv":false,"source":"public","category":"public"},{"id":"202436700000102654","name":"진잠근린공원","lat":36.294612,"lng":127.320607,"roadAddr":"대전광역시 유성구 계백로 835 (원내동)","openHours":"상시","maleToilets":3,"femaleToilets":0,"disabled":false,"diaperTable":false,"emergencyBell":true,"cctv":false,"managerTel":"0426112758","source":"public","category":"public"},{"id":"202436700000102604","name":"청룡어린이공원","lat":36.298106,"lng":127.317819,"roadAddr":"대전광역시 유성구 진잠로70번길 30 (원내동)","openHours":"상시","maleToilets":2,"femaleToilets":0,"disabled":false,"diaperTable":false,"emergencyBell":false,"cctv":false,"managerTel":"0426112383","source":"public","category":"public"},{"id":"202436700000102731","name":"서대전충전소","lat":36.293529,"lng":127.319571,"roadAddr":"대전광역시 유성구 진잠로 9 (원내동)","openHours":"상시","maleToilets":3,"femaleToilets":1,"disabled":false,"diaperTable":false,"emergencyBell":false,"cctv":false,"managerTel":"0426112369","source":"public","category":"public"},{"id":"202436700000102947","name":"원내119안전센터 1층","lat":36.291895,"lng":127.318884,"roadAddr":"대전광역시 유성구 계백로801번길 17 (원내동)","openHours":"정시","maleToilets":2,"femaleToilets":1,"disabled":false,"diaperTable":false,"emergencyBell":false,"cctv":false,"managerTel":"0422701991","source":"public","category":"public"},{"id":"202436700000102558","name":"진잠다목적체육관","lat":36.294612,"lng":127.320607,"roadAddr":"대전광역시 유성구 계백로 835 (원내동)","jibunAddr":"대전광역시 유성구 원내동 358","openHours":"정시","maleToilets":4,"femaleToilets":6,"disabled":false,"diaperTable":false,"emergencyBell":false,"cctv":false,"managerTel":"0425425570","source":"public","category":"public"}]