[{"id":"202044300000100692","name":"금천리 공중화장실","lat":36.250358,"lng":127.550513,"roadAddr":"충청북도 옥천군 군서면 금산4길 5","jibunAddr":"충청북도 옥천군 군서면 금산리 718-60","openHours":"상시","maleToilets":2,"femaleToilets":2,"disabled":true,"diaperTable":false,"emergencyBell":false,"cctv":false,"source":"public","category":"public"},{"id":"202444300000101061","name":"금천1교 옆 간이화장실","lat":36.254166,"lng":127.545145,"jibunAddr":"충청북도 옥천군 군서면 금산리 산 28-2","openHours":"상시","maleToilets":1,"femaleToilets":1,"disabled":false,"diaperTable":false,"emergencyBell":false,"cctv":false,"source":"public","category":"public"},{"id":"202444300000100956","name":"장령산자연휴양림 야영장(1)","lat":36.244872,"lng":127.554717,"roadAddr":"충청북도 옥천군 군서면 장령산로 519","openHours":"상시","maleToilets":20,"femaleToilets":7,"disabled":true,"diaperTable":false,"emergencyBell":true,"cctv":true,"source":"public","category":"public"},{"id":"202444300000100954","name":"장령산자연휴양림 느티나무동","lat":36.244872,"lng":127.554717,"roadAddr":"충청북도 옥천군 군서면 장령산로 519","openHours":"상시","maleToilets":3,"femaleToilets":3,"disabled":false,"diaperTable":false,"emergencyBell":true,"cctv":true,"source":"public","category":"public"},{"id":"202444300000100955","name":"장령산자연휴양림 야영장(2)","lat":36.244872,"lng":127.554717,"roadAddr":"충청북도 옥천군 군서면 장령산로 519","openHours":"상시","maleToilets":8,"femaleToilets":3,"disabled":false,"diaperTable":false,"emergencyBell":true,"cctv":true,"source":"public","category":"public"},{"id":"202444300000101063","name":"그린펜션 간이화장실","lat":36.249375,"lng":127.552378,"jibunAddr":"충청북도 옥천군 군서면 금산리 154-16","openHours":"상시","maleToilets":1,"femaleToilets":1,"disabled":false,"diaperTable":false,"emergencyBell":false,"cctv":false,"source":"public","category":"public"},{"id":"202444300000100877","name":"금산4길 공중화장실","lat":36.250358,"lng":127.550513,"roadAddr":"충청북도 옥천군 군서면 금산4길 5","openHours":"상시","maleToilets":3,"femaleToilets":1,"disabled":true,"diaperTable":false,"emergencyBell":true,"cctv":true,"source":"public","category":"public"},{"id":"202444300000100953","name":"장령산자연휴양림 치유정원","lat":36.244872,"lng":127.554717,"roadAddr":"충청북도 옥천군 군서면 장령산로 519","openHours":"상시","maleToilets":5,"femaleToilets":3,"disabled":false,"diaperTable":false,"emergencyBell":true,"cctv":true,"source":"public","category":"public"},{"id":"202445500000100212","name":"국제인삼시장","lat":36.23939,"lng":127.53527,"jibunAddr":"충청남도 금산군 추부면 성당리9번지 5호","openHours":"상시","maleToilets":3,"femaleToilets":1,"disabled":false,"diaperTable":false,"emergencyBell":false,"cctv":false,"source":"public","category":"public"}]