[{"id":"202436400000100410","name":"옥토끼 어린이공원","lat":36.275438,"lng":127.467395,"roadAddr":"대전광역시 동구 석천로 99-16","jibunAddr":"대전광역시 동구 낭월동 810","openHours":"상시","maleToilets":2,"femaleToilets":2,"disabled":true,"diaperTable":false,"emergencyBell":true,"cctv":false,"managerTel":"0422514584","source":"public","category":"public"},{"id":"202436400000100346","name":"덕성셀프주유소","lat":36.293337,"lng":127.461584,"roadAddr":"대전광역시 동구 대전로283","jibunAddr":"대전광역시 동구 대성동 208-2","openHours":"상시","maleToilets":3,"femaleToilets":1,"disabled":false,"diaperTable":false,"emergencyBell":false,"cctv":false,"managerTel":"0422865151","source":"public","category":"public"},{"id":"202436400000100560","name":"산내119안전센터","lat":36.281852,"lng":127.467712,"roadAddr":"대전광역시 동구 산내로 1328","jibunAddr":"대전광역시?동구?낭월동 190-1","openHours":"상시","maleToilets":6,"femaleToilets":2,"disabled":false,"diaperTable":false,"emergencyBell":false,"cctv":false,"managerTel":"0422701261","source":"public","category":"public"},{"id":"202436400000100348","name":"태암주유소","lat":36.291913,"lng":127.463072,"roadAddr":"대전광역시 동구 대전로264","jibunAddr":"대전광역시 동구 대성동 271-1","openHours":"상시","maleToilets":3,"femaleToilets":1,"disabled":false,"diaperTable":false,"emergencyBell":false,"cctv":false,"managerTel":"0422710067","source":"public","category":"public"},{"id":"202436400000100541","name":"동구보건소 산내지소","lat":36.281846,"lng":127.467692,"roadAddr":"대전광역시 동구 산내로 1326","jibunAddr":"대전광역시?동구?낭월동 190-1","openHours":"정시(09:00~18:00)","maleToilets":2,"femaleToilets":1,"disabled":false,"diaperTable":false,"emergencyBell":false,"cctv":false,"managerTel":"0422514584","source":"public","category":"public"},{"id":"202436400000100615","name":"대전천(오투그란데아파트 앞)","lat":36.28324,"lng":127.463933,"roadAddr":"대전광역시 동구 대전로 167","jibunAddr":"대전광역시 동구 대별동 3-3","openHours":"상시","maleToilets":2,"femaleToilets":2,"disabled":true,"diaperTable":false,"emergencyBell":true,"cctv":false,"managerTel":"0422514584","source":"public","category":"public"},{"id":"202436400000100616","name":"대전천(별천지 앞)","lat":36.29251,"lng":127.460422,"jibunAddr":"대전광역시 동구 대성동 283-6","openHours":"상시","maleToilets":2,"femaleToilets":1,"disabled":true,"diaperTable":false,"emergencyBell":true,"cctv":false,"managerTel":"0422514584","source":"public","category":"public"},{"id":"202436400000100344","name":"내트럭하우스주유소","lat":36.272432,"lng":127.471098,"roadAddr":"대전광역시 동구 대전로15","jibunAddr":"대전광역시 동구 구도동 366","openHours":"상시","maleToilets":3,"femaleToilets":1,"disabled":false,"diaperTable":false,"emergencyBell":false,"cctv":false,"managerTel":"0422715673","source":"public","category":"public"},{"id":"202436400000100630","name":"운전면허시험장(특수시험장)","lat":36.28496,"lng":127.461753,"roadAddr":"대전광역시 동구 산서로 1660번길 90","jibunAddr":"대전광역시 동구 대별동 74-1","openHours":"정시(09:00~18:00)","maleToilets":6,"femaleToilets":2,"disabled":false,"diaperTable":false,"emergencyBell":false,"cctv":false,"managerTel":"15771120","source":"public","category":"public"},{"id":"202436400000100409","name":"구도근린공원","lat":36.270265,"lng":127.469009,"roadAddr":"대전광역시 동구 안골로28번길 51","jibunAddr":"대전광역시 동구 구도동 388","openHours":"상시","maleToilets":2,"femaleToilets":2,"disabled":true,"diaperTable":false,"emergencyBell":true,"cctv":false,"managerTel":"0422514584","source":"public","category":"public"},{"id":"202436400000100411","name":"낭월3호어린이공원","lat":36.282117,"lng":127.46627,"roadAddr":"대전광역시 동구 산내로1327번길 6-13","jibunAddr":"대전광역시 동구 낭월동 362","openHours":"상시","maleToilets":3,"femaleToilets":3,"disabled":true,"diaperTable":false,"emergencyBell":true,"cctv":false,"managerTel":"0422514584","source":"public","category":"public"},{"id":"202436400000100408","name":"초지공원(하)","lat":36.27667,"lng":127.462994,"roadAddr":"대전광역시 동구 대전로 93","jibunAddr":"대전광역시 동구 대별동 산5-8","openHours":"상시","maleToilets":3,"femaleToilets":2,"disabled":true,"diaperTable":true,"emergencyBell":true,"cctv":false,"managerTel":"0422514584","source":"public","category":"public"},{"id":"202436400000100632","name":"운전면허시험장(본관)","lat":36.28496,"lng":127.461753,"roadAddr":"대전광역시 동구 산서로 1660번길 90","jibunAddr":"대전광역시 동구 대별동 74-1","openHours":"정시(09:00~18:00)","maleToilets":5,"femaleToilets":4,"disabled":false,"diaperTable":false,"emergencyBell":false,"cctv":false,"managerTel":"15771120","source":"public","category":"public"},{"id":"202436400000100347","name":"대성셀프주유소","lat":36.294247,"lng":127.461796,"roadAddr":"대전광역시 동구 대전로292","jibunAddr":"대전광역시 동구 대성동 210-5","openHours":"상시","maleToilets":3,"femaleToilets":1,"disabled":false,"diaperTable":false,"emergencyBell":false,"cctv":false,"managerTel":"0422869505","source":"public","category":"public"},{"id":"202436400000100349","name":"산내 제일주유소","lat":36.292329,"lng":127.462143,"roadAddr":"대전광역시 동구 대전로269","jibunAddr":"대전광역시 동구 대성동 276-5","openHours":"상시","maleToilets":3,"femaleToilets":1,"disabled":false,"diaperTable":false,"emergencyBell":false,"cctv":false,"managerTel":"0422825189","source":"public","category":"public"},{"id":"202436400000100327","name":"대전동부경찰서 산내파출소","lat":36.282263,"lng":127.467507,"roadAddr":"대전광역시 동구 산내로1332","jibunAddr":"대전광역시 동구 낭월동 192-2","openHours":"09:00~18:00","maleToilets":2,"femaleToilets":1,"disabled":false,"diaperTable":false,"emergencyBell":false,"cctv":true,"managerTel":"0426002321","source":"public","category":"public"},{"id":"202436400000100542","name":"산내동주민센터","lat":36.281846,"lng":127.467692,"roadAddr":"대전광역시 동구 산내로 1326","jibunAddr":"대전광역시?동구?낭월동 190-1","openHours":"정시(09:00~18:00)","maleToilets":3,"femaleToilets":1,"disabled":true,"diaperTable":false,"emergencyBell":false,"cctv":false,"managerTel":"0422597651","source":"public","category":"public"},{"id":"202436400000100412","name":"낭월7호어린이공원","lat":36.278799,"lng":127.465088,"roadAddr":"대전광역시 동구 산내로1299번길 61-24","jibunAddr":"대전광역시 동구 낭월동 492","openHours":"상시","maleToilets":3,"femaleToilets":3,"disabled":true,"diaperTable":false,"emergencyBell":true,"cctv":false,"managerTel":"0422514584","source":"public","category":"public"},{"id":"202436400000100383","name":"중도가스충전소","lat":36.2945,"lng":127.460577,"roadAddr":"대전광역시 동구 대전로295","jibunAddr":"대전광역시 동구 대성동 206-1","openHours":"상시","maleToilets":3,"femaleToilets":1,"disabled":false,"diaperTable":false,"emergencyBell":false,"cctv":false,"managerTel":"0422822312","source":"public","category":"public"},{"id":"202436400000100577","name":"야외화장실","lat":36.276785,"lng":127.463953,"roadAddr":"대전광역시 동구 대전로 95","jibunAddr":"대전광역시?동구?낭월동 288-80","openHours":"상시","maleToilets":2,"femaleToilets":2,"disabled":true,"diaperTable":false,"emergencyBell":true,"cctv":false,"managerTel":"0422514584","source":"public","category":"public"},{"id":"202436400000100526","name":"대성동경노당","lat":36.296142,"lng":127.460975,"roadAddr":"대전광역시 동구 대전로 316","jibunAddr":"대전광역시?동구?대성동 228-1","openHours":"상시","maleToilets":1,"femaleToilets":1,"disabled":false,"diaperTable":false,"emergencyBell":false,"cctv":false,"managerTel":"0422825921","source":"public","category":"public"},{"id":"202436400000100617","name":"대전천디딜방아(구도교)","lat":36.272826,"lng":127.472321,"jibunAddr":"대전광역시 동구 구도동 164-18","openHours":"상시","maleToilets":1,"femaleToilets":1,"disabled":true,"diaperTable":false,"emergencyBell":true,"cctv":false,"managerTel":"0422514584","source":"public","category":"public"},{"id":"202436400000100384","name":"남대전IC충전소","lat":36.290104,"lng":127.463801,"roadAddr":"대전광역시 동구 대전로242","jibunAddr":"대전광역시 동구 대성동 266","openHours":"상시","maleToilets":3,"femaleToilets":1,"disabled":false,"diaperTable":false,"emergencyBell":false,"cctv":false,"managerTel":"0422710046","source":"public","category":"public"},{"id":"202436400000100421","name":"산내초등학교","lat":36.279238,"lng":127.47075,"roadAddr":"대전광역시 동구 산내로 1292","jibunAddr":"대전광역시 동구 낭월동 632","openHours":"정시","maleToilets":66,"femaleToilets":30,"disabled":false,"diaperTable":false,"emergencyBell":false,"cctv":false,"managerTel":"0422732301","source":"public","category":"public"},{"id":"202436400000100631","name":"운전면허시험장(시험계)","lat":36.28496,"lng":127.461753,"roadAddr":"대전광역시 동구 산서로 1660번길 90","jibunAddr":"대전광역시 동구 대별동 74-1","openHours":"정시(09:00~18:00)","maleToilets":1,"femaleToilets":0,"disabled":false,"diaperTable":false,"emergencyBell":false,"cctv":false,"managerTel":"15771120","source":"public","category":"public"},{"id":"202436400000100336","name":"대전낭월동우체국 1층","lat":36.281454,"lng":127.467237,"roadAddr":"대전광역시 동구 산내로 1323","jibunAddr":"대전광역시 동구 낭월동 458","openHours":"09:00 ~ 18:00","maleToilets":2,"femaleToilets":1,"disabled":false,"diaperTable":false,"emergencyBell":false,"cctv":false,"source":"public","category":"public"},{"id":"202436400000100406","name":"초지공원(상)","lat":36.27667,"lng":127.462994,"roadAddr":"대전광역시 동구 대전로 93","jibunAddr":"대전광역시 동구 대별동 산5-8","openHours":"상시","maleToilets":4,"femaleToilets":3,"disabled":true,"diaperTable":false,"emergencyBell":true,"cctv":false,"managerTel":"0422514584","source":"public","category":"public"},{"id":"202436500000101320","name":"천지인주유소 개방화장실","lat":36.297639,"lng":127.456061,"roadAddr":"대전광역시 중구 대종로 44(옥계동)","jibunAddr":"대전광역시 중구 옥계동 149-9","openHours":"상시","maleToilets":2,"femaleToilets":1,"disabled":false,"diaperTable":false,"emergencyBell":false,"cctv":true,"managerTel":"0422726100","source":"public","category":"public"}]