[{"id":"202436700000103097","name":"국립한밭대학교 N4동(산업정보관)","lat":36.345266,"lng":127.305262,"roadAddr":"대전광역시 유성구 동서대로 125 (덕명동, 국립한밭대학교)","jibunAddr":"대전광역시 유성구 덕명동 16-1","openHours":"정시","maleToilets":56,"femaleToilets":21,"disabled":true,"diaperTable":false,"emergencyBell":false,"cctv":true,"managerTel":"0428211114","source":"public","category":"public"},{"id":"202436700000102783","name":"동학사충전소","lat":36.36127,"lng":127.286656,"roadAddr":"대전광역시 유성구 현충원로 137 (갑동)","openHours":"상시","maleToilets":4,"femaleToilets":2,"disabled":false,"diaperTable":false,"emergencyBell":false,"cctv":false,"managerTel":"0426112369","source":"public","category":"public"},{"id":"202436700000102835","name":"국립대전현충원 현충탑 뒤","lat":36.369463,"lng":127.302591,"roadAddr":"대전광역시 유성구 현충원로 251","openHours":"정시","maleToilets":8,"femaleToilets":3,"disabled":true,"diaperTable":false,"emergencyBell":false,"cctv":false,"managerTel":"0428207037","source":"public","category":"public"},{"id":"202436700000102847","name":"국립대전현충원 보훈미래관","lat":36.369463,"lng":127.302591,"roadAddr":"대전광역시 유성구 현충원로 251","openHours":"정시","maleToilets":5,"femaleToilets":4,"disabled":true,"diaperTable":true,"emergencyBell":false,"cctv":false,"managerTel":"0428207037","source":"public","category":"public"},{"id":"202436700000102828","name":"국립대전현충원 장병4묘역","lat":36.369463,"lng":127.302591,"roadAddr":"대전광역시 유성구 현충원로 251","openHours":"정시","maleToilets":8,"femaleToilets":11,"disabled":true,"diaperTable":true,"emergencyBell":false,"cctv":false,"managerTel":"0428207037","source":"public","category":"public"},{"id":"202436700000102785","name":"계룡주유소","lat":36.360408,"lng":127.291095,"roadAddr":"대전광역시 유성구 현충원로 177 (갑동)","openHours":"상시","maleToilets":2,"femaleToilets":2,"disabled":false,"diaperTable":false,"emergencyBell":false,"cctv":false,"managerTel":"0426112369","source":"public","category":"public"},{"id":"202436700000102942","name":"복용승마장 3층","lat":36.351026,"lng":127.307093,"roadAddr":"대전광역시 유성구 덕명로56번길 199 (덕명동)","jibunAddr":"대전광역시 유성구 덕명동 산10-11","openHours":"정시","maleToilets":2,"femaleToilets":1,"disabled":false,"diaperTable":false,"emergencyBell":false,"cctv":false,"managerTel":"0427243551","source":"public","category":"public"},{"id":"202436700000103106","name":"국립한밭대학교 N13동(그린에너지관)","lat":36.345266,"lng":127.305262,"roadAddr":"대전광역시 유성구 동서대로 125 (덕명동, 국립한밭대학교)","jibunAddr":"대전광역시 유성구 덕명동 16-1","openHours":"정시","maleToilets":58,"femaleToilets":58,"disabled":true,"diaperTable":false,"emergencyBell":false,"cctv":true,"managerTel":"0428211114","source":"public","category":"public"},{"id":"202436700000102834","name":"국립대전현충원 장병2묘역","lat":36.369463,"lng":127.302591,"roadAddr":"대전광역시 유성구 현충원로 251","openHours":"정시","maleToilets":4,"femaleToilets":9,"disabled":true,"diaperTable":true,"emergencyBell":false,"cctv":false,"managerTel":"0428207037","source":"public","category":"public"},{"id":"202436700000102844","name":"국립대전현충원 현충관 2층","lat":36.369463,"lng":127.302591,"roadAddr":"대전광역시 유성구 현충원로 251","openHours":"정시","maleToilets":5,"femaleToilets":3,"disabled":false,"diaperTable":true,"emergencyBell":false,"cctv":false,"managerTel":"0428207037","source":"public","category":"public"},{"id":"202436700000102650","name":"수통골주차장","lat":36.345548,"lng":127.290509,"roadAddr":"대전광역시 유성구 수통골로 37(계산동)","openHours":"상시","maleToilets":3,"femaleToilets":4,"disabled":true,"diaperTable":true,"emergencyBell":true,"cctv":false,"managerTel":"0426112956","source":"public","category":"public"},{"id":"202436700000103111","name":"국립한밭대학교 테니스장 관리동","lat":36.345266,"lng":127.305262,"roadAddr":"대전광역시 유성구 동서대로 125 (덕명동, 국립한밭대학교)","jibunAddr":"대전광역시 유성구 덕명동 16-1","openHours":"정시","maleToilets":3,"femaleToilets":2,"disabled":false,"diaperTable":false,"emergencyBell":false,"cctv":false,"managerTel":"0428211114","source":"public","category":"public"},{"id":"202436700000103110","name":"국립한밭대학교 W1동(직장어린이집)","lat":36.351534,"lng":127.297514,"roadAddr":"대전광역시 유성구 동서대로 128 (덕명동, 국립한밭대학교)","jibunAddr":"대전광역시 유성구 덕명동 153","openHours":"정시","maleToilets":0,"femaleToilets":0,"disabled":true,"diaperTable":false,"emergencyBell":true,"cctv":false,"managerTel":"0428211114","source":"public","category":"public"},{"id":"202436700000102786","name":"계림주유소","lat":36.36049,"lng":127.293335,"roadAddr":"대전광역시 유성구 현충원로 201 (갑동)","openHours":"상시","maleToilets":2,"femaleToilets":1,"disabled":false,"diaperTable":false,"emergencyBell":false,"cctv":false,"managerTel":"0426112369","source":"public","category":"public"},{"id":"202436700000103095","name":"국립한밭대학교 N2동(아트홀)","lat":36.345266,"lng":127.305262,"roadAddr":"대전광역시 유성구 동서대로 125 (덕명동, 국립한밭대학교)","jibunAddr":"대전광역시 유성구 덕명동 16-1","openHours":"정시","maleToilets":22,"femaleToilets":14,"disabled":true,"diaperTable":false,"emergencyBell":false,"cctv":false,"managerTel":"0428211114","source":"public","category":"public"},{"id":"202436700000102842","name":"국립대전현충원 변전실 앞","lat":36.369463,"lng":127.302591,"roadAddr":"대전광역시 유성구 현충원로 251","openHours":"정시","maleToilets":6,"femaleToilets":6,"disabled":true,"diaperTable":true,"emergencyBell":false,"cctv":false,"managerTel":"0428207037","source":"public","category":"public"},{"id":"202436700000103087","name":"국립한밭대학교 S5동(산학연협동관)","lat":36.345266,"lng":127.305262,"roadAddr":"대전광역시 유성구 동서대로 125 (덕명동, 국립한밭대학교)","jibunAddr":"대전광역시 유성구 덕명동 16-1","openHours":"정시","maleToilets":66,"femaleToilets":67,"disabled":true,"diaperTable":true,"emergencyBell":false,"cctv":false,"managerTel":"0428211114","source":"public","category":"public"},{"id":"202436700000102831","name":"국립대전현충원 봉안관 뒤","lat":36.369463,"lng":127.302591,"roadAddr":"대전광역시 유성구 현충원로 251","openHours":"정시","maleToilets":8,"femaleToilets":3,"disabled":true,"diaperTable":false,"emergencyBell":false,"cctv":false,"managerTel":"0428207037","source":"public","category":"public"},{"id":"202436700000103100","name":"국립한밭대학교 N7동(기계관)","lat":36.345266,"lng":127.305262,"roadAddr":"대전광역시 유성구 동서대로 125 (덕명동, 국립한밭대학교)","jibunAddr":"대전광역시 유성구 덕명동 16-1","openHours":"정시","maleToilets":48,"femaleToilets":10,"disabled":true,"diaperTable":false,"emergencyBell":false,"cctv":true,"managerTel":"0428211114","source":"public","category":"public"},{"id":"202436700000103083","name":"국립한밭대학교 S1동(도서관)","lat":36.345266,"lng":127.305262,"roadAddr":"대전광역시 유성구 동서대로 125 (덕명동, 국립한밭대학교)","jibunAddr":"대전광역시 유성구 덕명동 16-1","openHours":"정시","maleToilets":63,"femaleToilets":51,"disabled":true,"diaperTable":false,"emergencyBell":true,"cctv":true,"managerTel":"0428211114","source":"public","category":"public"},{"id":"202436700000102964","name":"장애인체육센터","lat":36.353792,"lng":127.307346,"roadAddr":"대전광역시 유성구 덕명로 56번길 85","openHours":"정시","maleToilets":6,"femaleToilets":0,"disabled":true,"diaperTable":false,"emergencyBell":true,"cctv":false,"managerTel":"0427243570","source":"public","category":"public"},{"id":"202436700000103082","name":"국립한밭대학교 S0동(국제교류관)","lat":36.345266,"lng":127.305262,"roadAddr":"대전광역시 유성구 동서대로 125 (덕명동, 국립한밭대학교)","jibunAddr":"대전광역시 유성구 덕명동 16-1","openHours":"정시","maleToilets":66,"femaleToilets":70,"disabled":true,"diaperTable":true,"emergencyBell":false,"cctv":true,"managerTel":"0428211114","source":"public","category":"public"},{"id":"202436700000102836","name":"국립대전현충원 장군1묘역","lat":36.369463,"lng":127.302591,"roadAddr":"대전광역시 유성구 현충원로 251","openHours":"정시","maleToilets":4,"femaleToilets":3,"disabled":true,"diaperTable":true,"emergencyBell":false,"cctv":false,"managerTel":"0428207037","source":"public","category":"public"},{"id":"202436700000103092","name":"국립한밭대학교 S10동(디자인관)","lat":36.345266,"lng":127.305262,"roadAddr":"대전광역시 유성구 동서대로 125 (덕명동, 국립한밭대학교)","jibunAddr":"대전광역시 유성구 덕명동 16-1","openHours":"정시","maleToilets":43,"femaleToilets":20,"disabled":true,"diaperTable":false,"emergencyBell":false,"cctv":true,"managerTel":"0428211114","source":"public","category":"public"},{"id":"202436700000102829","name":"국립대전현충원 경찰관묘역","lat":36.369463,"lng":127.302591,"roadAddr":"대전광역시 유성구 현충원로 251","openHours":"정시","maleToilets":3,"femaleToilets":2,"disabled":true,"diaperTable":false,"emergencyBell":false,"cctv":false,"managerTel":"0428207037","source":"public","category":"public"},{"id":"202436700000102827","name":"국립대전현충원 양성평등화장실","lat":36.369463,"lng":127.302591,"roadAddr":"대전광역시 유성구 현충원로 251","openHours":"정시","maleToilets":3,"femaleToilets":10,"disabled":true,"diaperTable":true,"emergencyBell":false,"cctv":false,"managerTel":"0428207037","source":"public","category":"public"},{"id":"202436700000102782","name":"(주)퍼스트오일주유소","lat":36.36039,"lng":127.294563,"roadAddr":"대전광역시 유성구 현충원로 213 (갑동)","openHours":"상시","maleToilets":3,"femaleToilets":2,"disabled":false,"diaperTable":false,"emergencyBell":false,"cctv":false,"managerTel":"0426112369","source":"public","category":"public"},{"id":"202436700000103098","name":"국립한밭대학교 N5동(자동화관)","lat":36.345266,"lng":127.305262,"roadAddr":"대전광역시 유성구 동서대로 125 (덕명동, 국립한밭대학교)","jibunAddr":"대전광역시 유성구 덕명동 16-1","openHours":"정시","maleToilets":35,"femaleToilets":15,"disabled":true,"diaperTable":false,"emergencyBell":false,"cctv":true,"managerTel":"0428211114","source":"public","category":"public"},{"id":"202436700000102640","name":"시간공원","lat":36.357348,"lng":127.304578,"roadAddr":"대전광역시 유성구 덕명로 53 (덕명동)","openHours":"상시","maleToilets":4,"femaleToilets":5,"disabled":true,"diaperTable":true,"emergencyBell":true,"cctv":false,"managerTel":"0426112758","source":"public","category":"public"},{"id":"202436700000102837","name":"국립대전현충원 독립유공자1묘역","lat":36.369463,"lng":127.302591,"roadAddr":"대전광역시 유성구 현충원로 251","openHours":"정시","maleToilets":7,"femaleToilets":7,"disabled":true,"diaperTable":false,"emergencyBell":false,"cctv":false,"managerTel":"0428207037","source":"public","category":"public"},{"id":"202436700000103094","name":"국립한밭대학교 N1동(대학본부)","lat":36.345266,"lng":127.305262,"roadAddr":"대전광역시 유성구 동서대로 125 (덕명동, 국립한밭대학교)","jibunAddr":"대전광역시 유성구 덕명동 16-1","openHours":"정시","maleToilets":29,"femaleToilets":8,"disabled":true,"diaperTable":false,"emergencyBell":false,"cctv":false,"managerTel":"0428211114","source":"public","category":"public"},{"id":"202436700000102833","name":"국립대전현충원 장병3묘역","lat":36.369463,"lng":127.302591,"roadAddr":"대전광역시 유성구 현충원로 251","openHours":"정시","maleToilets":8,"femaleToilets":6,"disabled":true,"diaperTable":false,"emergencyBell":false,"cctv":false,"managerTel":"0428207037","source":"public","category":"public"},{"id":"202436700000102784","name":"SK가스유성충전소","lat":36.359757,"lng":127.29049,"roadAddr":"대전광역시 유성구 현충원로 168 (갑동)","openHours":"상시","maleToilets":4,"femaleToilets":2,"disabled":false,"diaperTable":false,"emergencyBell":false,"cctv":false,"managerTel":"0426112369","source":"public","category":"public"},{"id":"202436700000102944","name":"복용승마장 1층","lat":36.351026,"lng":127.307093,"roadAddr":"대전광역시 유성구 덕명로56번길 199 (덕명동)","jibunAddr":"대전광역시 유성구 덕명동 산10-11","openHours":"정시","maleToilets":2,"femaleToilets":1,"disabled":false,"diaperTable":false,"emergencyBell":false,"cctv":false,"managerTel":"0427243551","source":"public","category":"public"},{"id":"202436700000103088","name":"국립한밭대학교 S6동(공동실습관(1))","lat":36.345266,"lng":127.305262,"roadAddr":"대전광역시 유성구 동서대로 125 (덕명동, 국립한밭대학교)","jibunAddr":"대전광역시 유성구 덕명동 16-1","openHours":"정시","maleToilets":10,"femaleToilets":0,"disabled":false,"diaperTable":false,"emergencyBell":false,"cctv":false,"managerTel":"0428211114","source":"public","category":"public"},{"id":"202436700000102694","name":"덕명주유소","lat":36.360724,"lng":127.302312,"roadAddr":"대전광역시 유성구 현충원로 283(덕명동)","openHours":"상시","maleToilets":3,"femaleToilets":2,"disabled":false,"diaperTable":false,"emergencyBell":false,"cctv":false,"managerTel":"0426112369","source":"public","category":"public"},{"id":"202436700000103227","name":"수통골화장실","lat":36.34532,"lng":127.28856,"roadAddr":"대전광역시 유성구 수통골로 47-3(덕명동)","jibunAddr":"대전광역시 유성구 덕명동 219-8","openHours":"정시","maleToilets":8,"femaleToilets":14,"disabled":true,"diaperTable":true,"emergencyBell":true,"cctv":true,"managerTel":"0428253002","source":"public","category":"public"},{"id":"202436700000102843","name":"국립대전현충원 민원안내실","lat":36.369463,"lng":127.302591,"roadAddr":"대전광역시 유성구 현충원로 251","openHours":"정시","maleToilets":2,"femaleToilets":2,"disabled":true,"diaperTable":false,"emergencyBell":false,"cctv":false,"managerTel":"0428207037","source":"public","category":"public"},{"id":"202436700000102621","name":"화산천","lat":36.344442,"lng":127.302673,"roadAddr":"대전광역시 유성구 계산동 767","openHours":"상시","maleToilets":1,"femaleToilets":1,"disabled":true,"diaperTable":false,"emergencyBell":true,"cctv":false,"managerTel":"0426112553","source":"public","category":"public"},{"id":"202436700000102839","name":"국립대전현충원 보훈미래관 뒤","lat":36.369463,"lng":127.302591,"roadAddr":"대전광역시 유성구 현충원로 251","openHours":"정시","maleToilets":7,"femaleToilets":5,"disabled":true,"diaperTable":true,"emergencyBell":false,"cctv":false,"managerTel":"0428207037","source":"public","category":"public"},{"id":"202436700000102774","name":"SK온천주유소","lat":36.359024,"lng":127.308731,"roadAddr":"대전광역시 유성구 현충원로 342 (구암동)","openHours":"상시","maleToilets":4,"femaleToilets":3,"disabled":false,"diaperTable":false,"emergencyBell":false,"cctv":false,"managerTel":"0426112369","source":"public","category":"public"},{"id":"202436700000102838","name":"국립대전현충원 장병1묘역","lat":36.369463,"lng":127.302591,"roadAddr":"대전광역시 유성구 현충원로 251","openHours":"정시","maleToilets":5,"femaleToilets":4,"disabled":true,"diaperTable":true,"emergencyBell":false,"cctv":false,"managerTel":"0428207037","source":"public","category":"public"},{"id":"202436700000103091","name":"국립한밭대학교 S9동(한밭인큐베이터타운)","lat":36.345266,"lng":127.305262,"roadAddr":"대전광역시 유성구 동서대로 125 (덕명동, 국립한밭대학교)","jibunAddr":"대전광역시 유성구 덕명동 16-1","openHours":"정시","maleToilets":21,"femaleToilets":6,"disabled":true,"diaperTable":false,"emergencyBell":false,"cctv":false,"managerTel":"0428211114","source":"public","category":"public"},{"id":"202436700000102832","name":"국립대전현충원 장군2묘역","lat":36.369463,"lng":127.302591,"roadAddr":"대전광역시 유성구 현충원로 251","openHours":"정시","maleToilets":6,"femaleToilets":5,"disabled":true,"diaperTable":true,"emergencyBell":false,"cctv":false,"managerTel":"0428207037","source":"public","category":"public"},{"id":"202436700000102605","name":"해랑숲근린공원","lat":36.386432,"lng":127.30816,"roadAddr":"대전광역시 유성구 지족동로 141(지족동)","openHours":"상시","maleToilets":4,"femaleToilets":3,"disabled":true,"diaperTable":true,"emergencyBell":true,"cctv":false,"managerTel":"0426112758","source":"public","category":"public"},{"id":"202436700000103089","name":"국립한밭대학교 S7동(체육관)","lat":36.345266,"lng":127.305262,"roadAddr":"대전광역시 유성구 동서대로 125 (덕명동, 국립한밭대학교)","jibunAddr":"대전광역시 유성구 덕명동 16-1","openHours":"정시","maleToilets":19,"femaleToilets":21,"disabled":true,"diaperTable":false,"emergencyBell":false,"cctv":false,"managerTel":"0428211114","source":"public","category":"public"},{"id":"202436700000102849","name":"국립대전현충원 복지관 1층","lat":36.369463,"lng":127.302591,"roadAddr":"대전광역시 유성구 현충원로 251","openHours":"정시","maleToilets":4,"femaleToilets":2,"disabled":true,"diaperTable":false,"emergencyBell":false,"cctv":false,"managerTel":"0428207037","source":"public","category":"public"},{"id":"202436700000102846","name":"국립대전현충원 보훈유가족쉼터","lat":36.369463,"lng":127.302591,"roadAddr":"대전광역시 유성구 현충원로 251","openHours":"정시","maleToilets":3,"femaleToilets":2,"disabled":true,"diaperTable":false,"emergencyBell":false,"cctv":false,"managerTel":"0428207037","source":"public","category":"public"},{"id":"202436700000103103","name":"국립한밭대학교 N10동(파워플랜트)","lat":36.345266,"lng":127.305262,"roadAddr":"대전광역시 유성구 동서대로 125 (덕명동, 국립한밭대학교)","jibunAddr":"대전광역시 유성구 덕명동 16-1","openHours":"정시","maleToilets":3,"femaleToilets":0,"disabled":false,"diaperTable":false,"emergencyBell":false,"cctv":false,"managerTel":"0428211114","source":"public","category":"public"},{"id":"202436700000102943","name":"복용승마장 2층","lat":36.351026,"lng":127.307093,"roadAddr":"대전광역시 유성구 덕명로56번길 199 (덕명동)","jibunAddr":"대전광역시 유성구 덕명동 산10-11","openHours":"정시","maleToilets":2,"femaleToilets":1,"disabled":false,"diaperTable":false,"emergencyBell":false,"cctv":false,"managerTel":"0427243551","source":"public","category":"public"},{"id":"202436700000102845","name":"국립대전현충원 현충관 1층","lat":36.369463,"lng":127.302591,"roadAddr":"대전광역시 유성구 현충원로 251","openHours":"정시","maleToilets":5,"femaleToilets":5,"disabled":true,"diaperTable":true,"emergencyBell":false,"cctv":false,"managerTel":"0428207037","source":"public","category":"public"},{"id":"202436700000102841","name":"국립대전현충원 매점 앞","lat":36.369463,"lng":127.302591,"roadAddr":"대전광역시 유성구 현충원로 251","openHours":"정시","maleToilets":3,"femaleToilets":7,"disabled":true,"diaperTable":true,"emergencyBell":false,"cctv":false,"managerTel":"0428207037","source":"public","category":"public"},{"id":"202436700000103099","name":"국립한밭대학교 N6동(화학환경관)","lat":36.345266,"lng":127.305262,"roadAddr":"대전광역시 유성구 동서대로 125 (덕명동, 국립한밭대학교)","jibunAddr":"대전광역시 유성구 덕명동 16-1","openHours":"정시","maleToilets":42,"femaleToilets":17,"disabled":true,"diaperTable":false,"emergencyBell":false,"cctv":true,"managerTel":"0428211114","source":"public","category":"public"},{"id":"202436700000102850","name":"국립대전현충원 청사 1층","lat":36.369463,"lng":127.302591,"roadAddr":"대전광역시 유성구 현충원로 251","openHours":"정시","maleToilets":4,"femaleToilets":2,"disabled":true,"diaperTable":false,"emergencyBell":false,"cctv":false,"managerTel":"0428207037","source":"public","category":"public"},{"id":"202436700000103090","name":"국립한밭대학교 S8동(건설공학관)","lat":36.345266,"lng":127.305262,"roadAddr":"대전광역시 유성구 동서대로 125 (덕명동, 국립한밭대학교)","jibunAddr":"대전광역시 유성구 덕명동 16-1","openHours":"정시","maleToilets":78,"femaleToilets":27,"disabled":true,"diaperTable":false,"emergencyBell":false,"cctv":true,"managerTel":"0428211114","source":"public","category":"public"},{"id":"202436700000102556","name":"유성궁도장","lat":36.352919,"lng":127.307145,"roadAddr":"대전광역시 유성구 덕명로56번길 89 (덕명동)","jibunAddr":"대전광역시 유성구 덕명동 9-7","openHours":"정시","maleToilets":6,"femaleToilets":2,"disabled":false,"diaperTable":false,"emergencyBell":false,"cctv":false,"managerTel":"0428251130","source":"public","category":"public"},{"id":"202436700000103104","name":"국립한밭대학교 N11동(창의혁신관)","lat":36.345266,"lng":127.305262,"roadAddr":"대전광역시 유성구 동서대로 125 (덕명동, 국립한밭대학교)","jibunAddr":"대전광역시 유성구 덕명동 16-1","openHours":"정시","maleToilets":22,"femaleToilets":25,"disabled":true,"diaperTable":false,"emergencyBell":false,"cctv":true,"managerTel":"0428211114","source":"public","category":"public"},{"id":"202436700000103102","name":"국립한밭대학교 N9동(공동실습관(2))","lat":36.345266,"lng":127.305262,"roadAddr":"대전광역시 유성구 동서대로 125 (덕명동, 국립한밭대학교)","jibunAddr":"대전광역시 유성구 덕명동 16-1","openHours":"정시","maleToilets":15,"femaleToilets":6,"disabled":true,"diaperTable":false,"emergencyBell":false,"cctv":false,"managerTel":"0428211114","source":"public","category":"public"},{"id":"202436700000103101","name":"국립한밭대학교 N8동(소재관 및 공동실험실습관)","lat":36.345266,"lng":127.305262,"roadAddr":"대전광역시 유성구 동서대로 125 (덕명동, 국립한밭대학교)","jibunAddr":"대전광역시 유성구 덕명동 16-1","openHours":"정시","maleToilets":77,"femaleToilets":33,"disabled":true,"diaperTable":false,"emergencyBell":false,"cctv":false,"managerTel":"0428211114","source":"public","category":"public"},{"id":"202436700000103086","name":"국립한밭대학교 S4동(인문사회관)","lat":36.345266,"lng":127.305262,"roadAddr":"대전광역시 유성구 동서대로 125 (덕명동, 국립한밭대학교)","jibunAddr":"대전광역시 유성구 덕명동 16-1","openHours":"정시","maleToilets":55,"femaleToilets":23,"disabled":true,"diaperTable":false,"emergencyBell":false,"cctv":false,"managerTel":"0428211114","source":"public","category":"public"},{"id":"202436700000103085","name":"국립한밭대학교 S3동(경상학관)","lat":36.345266,"lng":127.305262,"roadAddr":"대전광역시 유성구 동서대로 125 (덕명동, 국립한밭대학교)","jibunAddr":"대전광역시 유성구 덕명동 16-1","openHours":"정시","maleToilets":57,"femaleToilets":56,"disabled":true,"diaperTable":false,"emergencyBell":false,"cctv":true,"managerTel":"0428211114","source":"public","category":"public"},{"id":"202436700000103107","name":"국립한밭대학교 정문수위실","lat":36.345266,"lng":127.305262,"roadAddr":"대전광역시 유성구 동서대로 125 (덕명동, 국립한밭대학교)","jibunAddr":"대전광역시 유성구 덕명동 16-1","openHours":"정시","maleToilets":2,"femaleToilets":0,"disabled":false,"diaperTable":false,"emergencyBell":false,"cctv":false,"managerTel":"0428211114","source":"public","category":"public"},{"id":"202436700000103096","name":"국립한밭대학교 N3동(전기전자관)","lat":36.345266,"lng":127.305262,"roadAddr":"대전광역시 유성구 동서대로 125 (덕명동, 국립한밭대학교)","jibunAddr":"대전광역시 유성구 덕명동 16-1","openHours":"정시","maleToilets":42,"femaleToilets":17,"disabled":true,"diaperTable":false,"emergencyBell":false,"cctv":true,"managerTel":"0428211114","source":"public","category":"public"},{"id":"202436700000102830","name":"국립대전현충원 현충관 옆","lat":36.369463,"lng":127.302591,"roadAddr":"대전광역시 유성구 현충원로 251","openHours":"정시","maleToilets":7,"femaleToilets":5,"disabled":true,"diaperTable":true,"emergencyBell":false,"cctv":false,"managerTel":"0428207037","source":"public","category":"public"},{"id":"202436700000103093","name":"국립한밭대학교 S11동(학군단)","lat":36.345266,"lng":127.305262,"roadAddr":"대전광역시 유성구 동서대로 125 (덕명동, 국립한밭대학교)","jibunAddr":"대전광역시 유성구 덕명동 16-1","openHours":"정시","maleToilets":27,"femaleToilets":27,"disabled":true,"diaperTable":false,"emergencyBell":false,"cctv":true,"managerTel":"0428211114","source":"public","category":"public"},{"id":"202436700000102848","name":"국립대전현충원 복지관 2층","lat":36.369463,"lng":127.302591,"roadAddr":"대전광역시 유성구 현충원로 251","openHours":"정시","maleToilets":5,"femaleToilets":0,"disabled":false,"diaperTable":false,"emergencyBell":false,"cctv":false,"managerTel":"0428207037","source":"public","category":"public"},{"id":"202436700000102641","name":"미로공원","lat":36.356113,"lng":127.308565,"roadAddr":"대전광역시 유성구 덕명로98번길 6 (덕명동)","openHours":"상시","maleToilets":1,"femaleToilets":2,"disabled":true,"diaperTable":false,"emergencyBell":true,"cctv":false,"managerTel":"0426112758","source":"public","category":"public"},{"id":"202436700000103105","name":"국립한밭대학교 N12동(동아리관)","lat":36.345266,"lng":127.305262,"roadAddr":"대전광역시 유성구 동서대로 125 (덕명동, 국립한밭대학교)","jibunAddr":"대전광역시 유성구 덕명동 16-1","openHours":"정시","maleToilets":39,"femaleToilets":20,"disabled":true,"diaperTable":false,"emergencyBell":false,"cctv":false,"managerTel":"0428211114","source":"public","category":"public"},{"id":"202436700000103084","name":"국립한밭대학교 S2동(학생회관)","lat":36.345266,"lng":127.305262,"roadAddr":"대전광역시 유성구 동서대로 125 (덕명동, 국립한밭대학교)","jibunAddr":"대전광역시 유성구 덕명동 16-1","openHours":"정시","maleToilets":29,"femaleToilets":17,"disabled":true,"diaperTable":false,"emergencyBell":true,"cctv":false,"managerTel":"0428211114","source":"public","category":"public"}]