[{"id":"202436700000102978","name":"대전테크노파크 바이오벤처타운 2층","lat":36.397785,"lng":127.393404,"roadAddr":"대전광역시 유성구 유성대로 1662 (전민동)","openHours":"09:00~18:00","maleToilets":9,"femaleToilets":4,"disabled":false,"diaperTable":false,"emergencyBell":false,"cctv":false,"managerTel":"0422512841","source":"public","category":"public"},{"id":"202436700000102638","name":"도룡동 화장실","lat":36.389068,"lng":127.37704,"roadAddr":"대전광역시 유성구 도룡동 401-2 (도룡동)","openHours":"상시","maleToilets":2,"femaleToilets":1,"disabled":false,"diaperTable":false,"emergencyBell":true,"cctv":false,"managerTel":"0426112758","source":"public","category":"public"},{"id":"202436700000102929","name":"대전광역시 인재개발원 생활관동 1층","lat":36.401856,"lng":127.367479,"roadAddr":"대전광역시 유성구 유성대로1312번길 83 (장동)","openHours":"09:00~18:00","maleToilets":6,"femaleToilets":2,"disabled":false,"diaperTable":false,"emergencyBell":false,"cctv":false,"managerTel":"0422706635","source":"public","category":"public"},{"id":"202436700000102889","name":"대전과학수사연구소 본관1층","lat":36.407472,"lng":127.382412,"roadAddr":"대전광역시 유성구 유성대로 1524 (화암동)","openHours":"09:00~18:00","maleToilets":4,"femaleToilets":1,"disabled":false,"diaperTable":false,"emergencyBell":false,"cctv":false,"managerTel":"0428664500","source":"public","category":"public"},{"id":"202436700000102696","name":"북대전주유소","lat":36.409546,"lng":127.380396,"roadAddr":"대전광역시 유성구 유성대로 1495 (화암동)","openHours":"상시","maleToilets":2,"femaleToilets":1,"disabled":false,"diaperTable":false,"emergencyBell":false,"cctv":false,"managerTel":"0426112369","source":"public","category":"public"},{"id":"202436700000102780","name":"나음타워","lat":36.422585,"lng":127.388016,"roadAddr":"대전광역시 유성구 테크노4로 137 (관평동)","openHours":"상시","maleToilets":8,"femaleToilets":4,"disabled":true,"diaperTable":false,"emergencyBell":false,"cctv":false,"managerTel":"0426112369","source":"public","category":"public"},{"id":"202436700000102977","name":"대전테크노파크 바이오벤처타운 3층","lat":36.397785,"lng":127.393404,"roadAddr":"대전광역시 유성구 유성대로 1662 (전민동)","openHours":"09:00~18:00","maleToilets":9,"femaleToilets":4,"disabled":false,"diaperTable":false,"emergencyBell":false,"cctv":false,"managerTel":"0422512841","source":"public","category":"public"},{"id":"202436700000102933","name":"대전광역시 인재개발원 본관동 2층(대강당 방향)","lat":36.401856,"lng":127.367479,"roadAddr":"대전광역시 유성구 유성대로1312번길 83 (장동)","openHours":"09:00~18:00","maleToilets":7,"femaleToilets":4,"disabled":false,"diaperTable":false,"emergencyBell":false,"cctv":false,"managerTel":"0422706635","source":"public","category":"public"},{"id":"202436700000102536","name":"관평도서관 3층","lat":36.423183,"lng":127.388468,"roadAddr":"대전광역시 유성구 테크노4로 131 (관평동)","jibunAddr":"대전광역시 유성구 관평동 917","openHours":"08:00~22:00","maleToilets":4,"femaleToilets":3,"disabled":false,"diaperTable":false,"emergencyBell":false,"cctv":false,"managerTel":"0427160350","source":"public","category":"public"},{"id":"202436700000102979","name":"대전테크노파크 바이오벤처타운 1층","lat":36.397785,"lng":127.393404,"roadAddr":"대전광역시 유성구 유성대로 1662 (전민동)","openHours":"09:00~18:00","maleToilets":8,"femaleToilets":4,"disabled":true,"diaperTable":false,"emergencyBell":true,"cctv":false,"managerTel":"0422512841","source":"public","category":"public"},{"id":"202436700000102518","name":"관평동 행정복지센터 3층","lat":36.423172,"lng":127.388755,"roadAddr":"대전광역시 유성구 관평2로 42 (관평동)","jibunAddr":"대전광역시 유성구 관평동 905","openHours":"(평일)09:00-18:00","maleToilets":6,"femaleToilets":5,"disabled":false,"diaperTable":false,"emergencyBell":false,"cctv":false,"managerTel":"0426116892","source":"public","category":"public"},{"id":"202436700000102855","name":"대전세종지방중소벤처기업청 2층(중)","lat":36.39294,"lng":127.359432,"roadAddr":"대전광역시 유성구 가정북로 104 (장동)","openHours":"정시(09:00∼18:00)","maleToilets":3,"femaleToilets":1,"disabled":false,"diaperTable":false,"emergencyBell":false,"cctv":false,"managerTel":"0426112369","source":"public","category":"public"},{"id":"202436700000102976","name":"대전테크노파크 바이오벤처타운 4층","lat":36.397785,"lng":127.393404,"roadAddr":"대전광역시 유성구 유성대로 1662 (전민동)","openHours":"09:00~18:00","maleToilets":9,"femaleToilets":4,"disabled":false,"diaperTable":false,"emergencyBell":false,"cctv":false,"managerTel":"0422512841","source":"public","category":"public"},{"id":"202436700000102911","name":"대전광역시 건강가정지원센터 2층","lat":36.426506,"lng":127.394444,"roadAddr":"대전광역시 유성구 테크노6로 40-17 (관평동)","openHours":"09:00~18:00","maleToilets":5,"femaleToilets":5,"disabled":false,"diaperTable":false,"emergencyBell":false,"cctv":false,"managerTel":"0422529989","source":"public","category":"public"},{"id":"202436700000102697","name":"황제주유소","lat":36.412185,"lng":127.378621,"roadAddr":"대전광역시 유성구 대덕대로 934 (화암동)","openHours":"상시","maleToilets":3,"femaleToilets":1,"disabled":false,"diaperTable":false,"emergencyBell":false,"cctv":false,"managerTel":"0426112369","source":"public","category":"public"},{"id":"202436700000102534","name":"관평도서관 1층","lat":36.423183,"lng":127.388468,"roadAddr":"대전광역시 유성구 테크노4로 131 (관평동)","jibunAddr":"대전광역시 유성구 관평동 917","openHours":"08:00~22:00","maleToilets":2,"femaleToilets":1,"disabled":true,"diaperTable":false,"emergencyBell":true,"cctv":false,"managerTel":"0427160350","source":"public","category":"public"},{"id":"202436700000102716","name":"SK선경주유소","lat":36.400734,"lng":127.392026,"roadAddr":"대전광역시 유성구 유성대로 1647 (전민동)","openHours":"상시","maleToilets":3,"femaleToilets":1,"disabled":false,"diaperTable":false,"emergencyBell":false,"cctv":false,"managerTel":"0426112369","source":"public","category":"public"},{"id":"202436700000102537","name":"구즉도서관 1층","lat":36.429471,"lng":127.380447,"roadAddr":"대전광역시 유성구 와룡로37번길 20 (송강동)","jibunAddr":"대전광역시 유성구 송강동 157","openHours":"(화-일)08:00~22:00","maleToilets":6,"femaleToilets":4,"disabled":true,"diaperTable":true,"emergencyBell":false,"cctv":false,"managerTel":"0426116517","source":"public","category":"public"},{"id":"202436700000102699","name":"GS화암주유소","lat":36.408944,"lng":127.375442,"roadAddr":"대전광역시 유성구 대덕대로 887 (화암동)","openHours":"상시","maleToilets":2,"femaleToilets":1,"disabled":false,"diaperTable":false,"emergencyBell":false,"cctv":false,"managerTel":"0426112369","source":"public","category":"public"},{"id":"202436700000102651","name":"동화울수변공원","lat":36.424397,"lng":127.394099,"roadAddr":"대전광역시 유성구 테크노중앙로 88 (관평동)","openHours":"상시","maleToilets":6,"femaleToilets":5,"disabled":true,"diaperTable":false,"emergencyBell":true,"cctv":false,"managerTel":"0426112758","source":"public","category":"public"},{"id":"202436700000103006","name":"롯데쇼핑(주)롯데마트 대덕테크노밸리점","lat":36.426927,"lng":127.386979,"roadAddr":"대전광역시 유성구 테크노중앙로 14(관평동)","jibunAddr":"대전광역시 유성구 관평동 887","openHours":"10:00~23:00","maleToilets":42,"femaleToilets":41,"disabled":true,"diaperTable":true,"emergencyBell":false,"cctv":false,"managerTel":"0429302501","source":"public","category":"public"},{"id":"202436700000102975","name":"대전테크노파크 바이오벤처타운 5층","lat":36.397785,"lng":127.393404,"roadAddr":"대전광역시 유성구 유성대로 1662 (전민동)","openHours":"09:00~18:00","maleToilets":9,"femaleToilets":4,"disabled":false,"diaperTable":false,"emergencyBell":false,"cctv":false,"managerTel":"0422512841","source":"public","category":"public"},{"id":"202436700000102934","name":"대전광역시 인재개발원 본관동 1층(생활관 방향)","lat":36.401856,"lng":127.367479,"roadAddr":"대전광역시 유성구 유성대로1312번길 83 (장동)","openHours":"09:00~18:00","maleToilets":6,"femaleToilets":3,"disabled":true,"diaperTable":false,"emergencyBell":false,"cctv":false,"managerTel":"0422706635","source":"public","category":"public"},{"id":"202436700000102698","name":"GS대덕밸리주유소","lat":36.412456,"lng":127.378568,"roadAddr":"대전광역시 유성구 대덕대로 938 (화암동)","openHours":"상시","maleToilets":3,"femaleToilets":1,"disabled":false,"diaperTable":false,"emergencyBell":false,"cctv":false,"managerTel":"0426112369","source":"public","category":"public"},{"id":"202436700000102739","name":"신성주유소","lat":36.396147,"lng":127.355359,"roadAddr":"대전광역시 유성구 가정북로 163 (신성동)","openHours":"상시","maleToilets":3,"femaleToilets":2,"disabled":false,"diaperTable":false,"emergencyBell":false,"cctv":false,"managerTel":"0426112369","source":"public","category":"public"},{"id":"202436700000102982","name":"대전과학산업진흥원 2층","lat":36.387139,"lng":127.355257,"roadAddr":"대전광역시 유성구 가정로 99(신성동)","jibunAddr":"대전광역시 유성구 신성동 100","openHours":"09:00~18:00","maleToilets":7,"femaleToilets":2,"disabled":false,"diaperTable":false,"emergencyBell":false,"cctv":false,"managerTel":"0428650590","source":"public","category":"public"},{"id":"202436700000102909","name":"대전광역시 근로종합복지회관 4층","lat":36.426506,"lng":127.394444,"roadAddr":"대전광역시 유성구 테크노6로 40-17 (관평동)","openHours":"09:00~18:00","maleToilets":6,"femaleToilets":6,"disabled":false,"diaperTable":false,"emergencyBell":false,"cctv":false,"managerTel":"0426700541","source":"public","category":"public"},{"id":"202436700000102945","name":"대전광역시립제1노인전문병원","lat":36.405135,"lng":127.373472,"roadAddr":"대전광역시 유성구 유성대로 1422 (방현동)","jibunAddr":"대전광역시 유성구 방현동 30","openHours":"09:00~18:00","maleToilets":1,"femaleToilets":3,"disabled":true,"diaperTable":true,"emergencyBell":true,"cctv":false,"managerTel":"0422805000","source":"public","category":"public"},{"id":"202436700000102876","name":"한국도로공사 북대전영업소","lat":36.415284,"lng":127.380059,"roadAddr":"대전광역시 유성구 호남지선고속도로 51 (화암동)","openHours":"상시","maleToilets":5,"femaleToilets":2,"disabled":false,"diaperTable":false,"emergencyBell":false,"cctv":false,"managerTel":"0427142497","source":"public","category":"public"},{"id":"202436700000102967","name":"대전일자리경제진흥원","lat":36.392594,"lng":127.360263,"roadAddr":"대전광역시 유성구 가정북로 96 (장동)","openHours":"09:00~18:00","maleToilets":48,"femaleToilets":24,"disabled":true,"diaperTable":true,"emergencyBell":false,"cctv":false,"managerTel":"0423803000","source":"public","category":"public"},{"id":"202436700000102744","name":"현대송강주유소","lat":36.428094,"lng":127.385472,"roadAddr":"대전광역시 유성구 대덕대로 1131 (송강동)","openHours":"상시","maleToilets":2,"femaleToilets":1,"disabled":false,"diaperTable":false,"emergencyBell":false,"cctv":false,"managerTel":"0426112369","source":"public","category":"public"},{"id":"202436700000102857","name":"대전세종지방중소벤처기업청 1층(중)","lat":36.39294,"lng":127.359432,"roadAddr":"대전광역시 유성구 가정북로 104 (장동)","openHours":"정시(09:00∼18:00)","maleToilets":5,"femaleToilets":3,"disabled":false,"diaperTable":false,"emergencyBell":false,"cctv":true,"managerTel":"0426112369","source":"public","category":"public"},{"id":"202436700000102516","name":"관평동 행정복지센터 1층","lat":36.423172,"lng":127.388755,"roadAddr":"대전광역시 유성구 관평2로 42 (관평동)","jibunAddr":"대전광역시 유성구 관평동 905","openHours":"(평일)09:00-18:00","maleToilets":3,"femaleToilets":2,"disabled":true,"diaperTable":true,"emergencyBell":false,"cctv":false,"managerTel":"0426116890","source":"public","category":"public"},{"id":"202436700000102538","name":"구즉도서관 2층","lat":36.429471,"lng":127.380447,"roadAddr":"대전광역시 유성구 와룡로37번길 20 (송강동)","jibunAddr":"대전광역시 유성구 송강동 157","openHours":"(화-일)08:00~22:00","maleToilets":6,"femaleToilets":4,"disabled":false,"diaperTable":false,"emergencyBell":false,"cctv":false,"managerTel":"0426116517","source":"public","category":"public"},{"id":"202436700000102930","name":"대전광역시 인재개발원 본관동 3층(생활관 방향)","lat":36.401856,"lng":127.367479,"roadAddr":"대전광역시 유성구 유성대로1312번길 83 (장동)","openHours":"09:00~18:00","maleToilets":6,"femaleToilets":3,"disabled":true,"diaperTable":false,"emergencyBell":false,"cctv":false,"managerTel":"0422706635","source":"public","category":"public"},{"id":"202436700000102935","name":"대전광역시 인재개발원 본관동 1층(대강당 방향)","lat":36.401856,"lng":127.367479,"roadAddr":"대전광역시 유성구 유성대로1312번길 83 (장동)","openHours":"09:00~18:00","maleToilets":7,"femaleToilets":4,"disabled":false,"diaperTable":false,"emergencyBell":false,"cctv":false,"managerTel":"0422706635","source":"public","category":"public"},{"id":"202436700000102931","name":"대전광역시 인재개발원 본관동 3층(대강당 방향)","lat":36.401856,"lng":127.367479,"roadAddr":"대전광역시 유성구 유성대로1312번길 83 (장동)","openHours":"09:00~18:00","maleToilets":7,"femaleToilets":4,"disabled":false,"diaperTable":false,"emergencyBell":false,"cctv":false,"managerTel":"0422706635","source":"public","category":"public"},{"id":"202436700000102803","name":"대덕테크노밸리우체국 1층 화장실","lat":36.423439,"lng":127.38857,"roadAddr":"대전광역시 유성구 테크노4로 127","openHours":"09:00~18:00","maleToilets":3,"femaleToilets":2,"disabled":true,"diaperTable":false,"emergencyBell":false,"cctv":false,"source":"public","category":"public"},{"id":"202436700000102517","name":"관평동 행정복지센터 2층","lat":36.423172,"lng":127.388755,"roadAddr":"대전광역시 유성구 관평2로 42 (관평동)","jibunAddr":"대전광역시 유성구 관평동 905","openHours":"(평일)09:00-18:00","maleToilets":6,"femaleToilets":4,"disabled":false,"diaperTable":false,"emergencyBell":false,"cctv":false,"managerTel":"0426116891","source":"public","category":"public"},{"id":"202436700000102910","name":"대전광역시 근로종합복지회관 3층","lat":36.426506,"lng":127.394444,"roadAddr":"대전광역시 유성구 테크노6로 40-17 (관평동)","openHours":"09:00~18:00","maleToilets":5,"femaleToilets":4,"disabled":true,"diaperTable":false,"emergencyBell":false,"cctv":false,"managerTel":"0426700541","source":"public","category":"public"},{"id":"202436700000102912","name":"대전광역시 건강가정지원센터 1층","lat":36.426506,"lng":127.394444,"roadAddr":"대전광역시 유성구 테크노6로 40-17 (관평동)","openHours":"09:00~18:00","maleToilets":5,"femaleToilets":4,"disabled":true,"diaperTable":false,"emergencyBell":false,"cctv":false,"managerTel":"0422529989","source":"public","category":"public"},{"id":"202436700000102695","name":"(주)화암동주유소","lat":36.401718,"lng":127.375055,"roadAddr":"대전광역시 유성구 대덕대로 804 (화암동)","openHours":"상시","maleToilets":2,"femaleToilets":1,"disabled":false,"diaperTable":false,"emergencyBell":false,"cctv":false,"managerTel":"0426112369","source":"public","category":"public"},{"id":"202436700000102932","name":"대전광역시 인재개발원 본관동 2층(생활관 방향)","lat":36.401856,"lng":127.367479,"roadAddr":"대전광역시 유성구 유성대로1312번길 83 (장동)","openHours":"09:00~18:00","maleToilets":6,"femaleToilets":3,"disabled":true,"diaperTable":false,"emergencyBell":false,"cctv":false,"managerTel":"0422706635","source":"public","category":"public"},{"id":"202436700000102611","name":"북대전IC광장","lat":36.41649,"lng":127.376879,"roadAddr":"대전광역시 유성구 대덕대로 977 (화암동)","openHours":"상시","maleToilets":6,"femaleToilets":5,"disabled":true,"diaperTable":false,"emergencyBell":true,"cctv":false,"managerTel":"0426112758","source":"public","category":"public"},{"id":"202436700000102888","name":"대전과학수사연구소 별관1층","lat":36.407472,"lng":127.382412,"roadAddr":"대전광역시 유성구 유성대로 1524 (화암동)","openHours":"09:00~18:00","maleToilets":4,"femaleToilets":2,"disabled":false,"diaperTable":false,"emergencyBell":false,"cctv":false,"managerTel":"0428664500","source":"public","category":"public"},{"id":"202436700000102767","name":"황제충전소","lat":36.419582,"lng":127.379555,"roadAddr":"대전광역시 유성구 대덕대로 1021 (덕진동)","openHours":"상시","maleToilets":3,"femaleToilets":2,"disabled":false,"diaperTable":false,"emergencyBell":false,"cctv":false,"managerTel":"0426112369","source":"public","category":"public"},{"id":"202436700000102858","name":"대전세종지방중소벤처기업청 1층(좌)","lat":36.39294,"lng":127.359432,"roadAddr":"대전광역시 유성구 가정북로 104 (장동)","openHours":"정시(09:00∼18:00)","maleToilets":6,"femaleToilets":2,"disabled":false,"diaperTable":false,"emergencyBell":false,"cctv":true,"managerTel":"0426112369","source":"public","category":"public"},{"id":"202436700000102535","name":"관평도서관 2층","lat":36.423183,"lng":127.388468,"roadAddr":"대전광역시 유성구 테크노4로 131 (관평동)","jibunAddr":"대전광역시 유성구 관평동 917","openHours":"08:00~22:00","maleToilets":3,"femaleToilets":3,"disabled":false,"diaperTable":false,"emergencyBell":false,"cctv":false,"managerTel":"0427160350","source":"public","category":"public"},{"id":"202436700000102856","name":"대전세종지방중소벤처기업청 2층(좌)","lat":36.39294,"lng":127.359432,"roadAddr":"대전광역시 유성구 가정북로 104 (장동)","openHours":"정시(09:00∼18:00)","maleToilets":3,"femaleToilets":2,"disabled":false,"diaperTable":false,"emergencyBell":false,"cctv":false,"managerTel":"0426112369","source":"public","category":"public"},{"id":"202436700000103108","name":"국립한밭대학교 대덕캠퍼스","lat":36.428349,"lng":127.395789,"roadAddr":"대전광역시 유성구 테크노1로 75 (관평동, 국립한밭대학교 대덕산학융합캠퍼스)","jibunAddr":"대전광역시 유성구 관평동 705","openHours":"(평일)06:00-24:00+(주말)상시닫힘","maleToilets":50,"femaleToilets":51,"disabled":true,"diaperTable":false,"emergencyBell":false,"cctv":false,"managerTel":"0428211114","source":"public","category":"public"},{"id":"202436700000102981","name":"대전과학산업진흥원 1층","lat":36.387139,"lng":127.355257,"roadAddr":"대전광역시 유성구 가정로 99(신성동)","jibunAddr":"대전광역시 유성구 신성동 100","openHours":"09:00~18:00","maleToilets":4,"femaleToilets":2,"disabled":false,"diaperTable":false,"emergencyBell":false,"cctv":false,"managerTel":"0428650590","source":"public","category":"public"},{"id":"202436700000102908","name":"대전광역시 근로종합복지회관 5층","lat":36.426506,"lng":127.394444,"roadAddr":"대전광역시 유성구 테크노6로 40-17 (관평동)","openHours":"09:00~18:00","maleToilets":6,"femaleToilets":6,"disabled":false,"diaperTable":false,"emergencyBell":false,"cctv":false,"managerTel":"0426700541","source":"public","category":"public"},{"id":"202436700000102643","name":"윗관들어린이공원","lat":36.42313,"lng":127.390834,"roadAddr":"대전광역시 유성구 관들3길 46 (관평동)","openHours":"상시","maleToilets":1,"femaleToilets":1,"disabled":true,"diaperTable":false,"emergencyBell":true,"cctv":false,"managerTel":"0426112758","source":"public","category":"public"},{"id":"202436700000102652","name":"장배기공원","lat":36.427723,"lng":127.386258,"roadAddr":"대전광역시 유성구 테크노중앙로 4 (관평동)","openHours":"상시","maleToilets":6,"femaleToilets":5,"disabled":true,"diaperTable":false,"emergencyBell":true,"cctv":false,"managerTel":"0426112758","source":"public","category":"public"}]