[{"id":"202456900000101464","name":"세종특별자치시의회","lat":36.480021,"lng":127.290451,"roadAddr":"세종특별자치시 한누리대로 2120, 세종특별자치시의회 (보람동)","jibunAddr":"세종특별자치시 보람동 718 세종특별자치시의회","openHours":"09:00~18:00","maleToilets":3,"femaleToilets":4,"disabled":true,"diaperTable":false,"emergencyBell":true,"cctv":false,"managerTel":"0443007215","source":"public","category":"public"},{"id":"202456900000101846","name":"세종예술의전당","lat":36.486617,"lng":127.26738,"roadAddr":"세종특별자치시 국립박물관로 21, 세종 예술의 전당 (나성동)","jibunAddr":"세종특별자치시 나성동 857 세종 예술의 전당","openHours":"공연시 개방","maleToilets":37,"femaleToilets":55,"disabled":true,"diaperTable":true,"emergencyBell":true,"cctv":true,"managerTel":"0448508932","source":"public","category":"public"},{"id":"202456900000101476","name":"소담동복합커뮤니티센터","lat":36.484053,"lng":127.300348,"roadAddr":"세종특별자치시 한누리대로 2023, 소담동주민센터 (소담동)","jibunAddr":"세종특별자치시 소담동 579 소담동주민센터","openHours":"평일)09:00~22:00 주말)09:00~18:00","maleToilets":28,"femaleToilets":39,"disabled":true,"diaperTable":true,"emergencyBell":false,"cctv":true,"managerTel":"0443017016","source":"public","category":"public"},{"id":"202456900000101229","name":"국책연구단지2청사","lat":36.495797,"lng":127.304465,"roadAddr":"세종특별자치시 시청대로 370, 나라키움 세종국책연구단지 (반곡동)","jibunAddr":"세종특별자치시 반곡동 850 나라키움 세종국책연구단지","openHours":"09:00~18:00","maleToilets":7,"femaleToilets":7,"disabled":true,"diaperTable":false,"emergencyBell":false,"cctv":false,"source":"public","category":"public"},{"id":"202456900000101226","name":"국립세종수목원 옥외화장실F","lat":36.498096,"lng":127.285789,"roadAddr":"세종특별자치시 세종동 수목원로 136","openHours":"하절기(3~10월) 09:00~18:00, 동절기(11.~2월) 09:00~17:00","maleToilets":4,"femaleToilets":5,"disabled":true,"diaperTable":true,"emergencyBell":true,"cctv":false,"managerTel":"0442510136","source":"public","category":"public"},{"id":"202456900000101228","name":"국책연구단지1청사","lat":36.495797,"lng":127.304465,"roadAddr":"세종특별자치시 시청대로 370, 나라키움 세종국책연구단지 (반곡동)","jibunAddr":"세종특별자치시 반곡동 850 나라키움 세종국책연구단지","openHours":"09:00~18:00","maleToilets":7,"femaleToilets":7,"disabled":true,"diaperTable":false,"emergencyBell":false,"cctv":false,"source":"public","category":"public"},{"id":"202456900000101677","name":"펠리체타워3","lat":36.485447,"lng":127.301111,"roadAddr":"세종특별자치시 한누리대로 2003, 펠리체타워3 (소담동)","jibunAddr":"세종특별자치시 소담동 574 펠리체타워3","openHours":"상시","maleToilets":32,"femaleToilets":24,"disabled":true,"diaperTable":false,"emergencyBell":true,"cctv":true,"managerTel":"0448679586","source":"public","category":"public"},{"id":"202456900000101218","name":"국립세종도서관","lat":36.498825,"lng":127.268388,"roadAddr":"세종특별자치시 다솜3로 48, 국립세종도서관 (어진동)","jibunAddr":"세종특별자치시 어진동 637 국립세종도서관","openHours":"평일(09:00~21:00), 주말(09:00~18:00)","maleToilets":29,"femaleToilets":21,"disabled":true,"diaperTable":false,"emergencyBell":false,"cctv":false,"managerTel":"0449009114","source":"public","category":"public"},{"id":"202456900000101312","name":"로이어즈타워","lat":36.488951,"lng":127.301885,"roadAddr":"세종특별자치시 한누리대로 1966, 로이어즈타워 (소담동)","jibunAddr":"세종특별자치시 소담동 526 로이어즈타워","openHours":"09:00~18:00","maleToilets":3,"femaleToilets":3,"disabled":true,"diaperTable":false,"emergencyBell":false,"cctv":false,"source":"public","category":"public"},{"id":"202456900000101221","name":"국립세종수목원 옥외화장실A","lat":36.498096,"lng":127.285789,"roadAddr":"세종특별자치시 세종동 수목원로 136","openHours":"하절기(3~10월) 09:00~18:00, 동절기(11.~2월) 09:00~17:00","maleToilets":7,"femaleToilets":12,"disabled":true,"diaperTable":false,"emergencyBell":true,"cctv":false,"managerTel":"0442510136","source":"public","category":"public"},{"id":"202456900000101477","name":"소담셀프주유소","lat":36.483693,"lng":127.306976,"roadAddr":"세종특별자치시 소담로 40, 소담셀프주유소 (소담동)","jibunAddr":"세종특별자치시 소담동 570 소담셀프주유소","openHours":"-","maleToilets":3,"femaleToilets":2,"disabled":false,"diaperTable":false,"emergencyBell":false,"cctv":true,"managerTel":"0448645145","source":"public","category":"public"},{"id":"202456900000101739","name":"호수공원 수상무대섬 화장실","lat":36.498823,"lng":127.270076,"roadAddr":"세종특별자치시 다솜로 216","jibunAddr":"세종특별자치시 세종동 1201","openHours":"상시","maleToilets":4,"femaleToilets":4,"disabled":true,"diaperTable":true,"emergencyBell":true,"cctv":false,"managerTel":"0448504370","source":"public","category":"public"},{"id":"202456900000101356","name":"보람119안전센터","lat":36.477911,"lng":127.291388,"roadAddr":"세종특별자치시 남세종로 436, 보람동 119안전센터 (보람동)","jibunAddr":"세종특별자치시 보람동 765 보람동 119안전센터","openHours":"09:00~18:00","maleToilets":4,"femaleToilets":2,"disabled":true,"diaperTable":false,"emergencyBell":false,"cctv":false,"managerTel":"0443008422","source":"public","category":"public"},{"id":"202456900000101235","name":"금강노을","lat":36.479054,"lng":127.284606,"roadAddr":"세종특별자치시 시청대로 115, 금강노을 (보람동)","jibunAddr":"세종특별자치시 보람동 703 금강노을","openHours":"09:00~18:00","maleToilets":2,"femaleToilets":2,"disabled":true,"diaperTable":false,"emergencyBell":false,"cctv":false,"source":"public","category":"public"},{"id":"202456900000101353","name":"법조타운B","lat":36.489275,"lng":127.30203,"roadAddr":"세종특별자치시 한누리대로 1962, 법조타운B (소담동)","jibunAddr":"세종특별자치시 소담동 525 법조타운B","openHours":"09:00~18:00","maleToilets":0,"femaleToilets":0,"disabled":true,"diaperTable":false,"emergencyBell":false,"cctv":false,"source":"public","category":"public"},{"id":"202456900000101359","name":"보람빌딩","lat":36.477415,"lng":127.290104,"roadAddr":"세종특별자치시 남세종로 450, 보람빌딩 (보람동)","jibunAddr":"세종특별자치시 보람동 760 보람빌딩","openHours":"상시","maleToilets":31,"femaleToilets":23,"disabled":true,"diaperTable":false,"emergencyBell":true,"cctv":false,"managerTel":"0444176553","source":"public","category":"public"},{"id":"202456900000101454","name":"중앙공원1단계 스포츠지원센터1","lat":36.491774,"lng":127.271737,"roadAddr":"세종특별자치시 중앙공원로 60 (세종동)","jibunAddr":"세종특별자치시 세종동 1204","openHours":"상시","maleToilets":8,"femaleToilets":8,"disabled":true,"diaperTable":true,"emergencyBell":true,"cctv":false,"managerTel":"0448504370","source":"public","category":"public"},{"id":"202456900000101442","name":"세종우체국","lat":36.480549,"lng":127.291856,"roadAddr":"세종특별자치시 시청대로 180, 세종우체국 (보람동)","jibunAddr":"세종특별자치시 보람동 716 세종우체국","openHours":"09:00~18:00(휴일미개방)","maleToilets":3,"femaleToilets":4,"disabled":true,"diaperTable":true,"emergencyBell":true,"cctv":true,"managerTel":"0444101073","source":"public","category":"public"},{"id":"202456900000101742","name":"호수공원 푸른들판 화장실","lat":36.498823,"lng":127.270076,"roadAddr":"세종특별자치시 다솜로 216","jibunAddr":"세종특별자치시 세종동 1201","openHours":"상시","maleToilets":12,"femaleToilets":18,"disabled":true,"diaperTable":true,"emergencyBell":true,"cctv":false,"managerTel":"0448504370","source":"public","category":"public"},{"id":"202456900000101240","name":"금강시티타워","lat":36.478056,"lng":127.288441,"roadAddr":"세종특별자치시 한누리대로 2143, 금강시티타워 (보람동)","jibunAddr":"세종특별자치시 보람동 742 금강시티타워","openHours":"상시","maleToilets":39,"femaleToilets":24,"disabled":true,"diaperTable":false,"emergencyBell":false,"cctv":false,"managerTel":"0448680782","source":"public","category":"public"},{"id":"202456900000101332","name":"물빛문화공원","lat":36.487635,"lng":127.295894,"jibunAddr":"세종특별자치시 소담동 510-1","openHours":"상시","maleToilets":3,"femaleToilets":2,"disabled":true,"diaperTable":true,"emergencyBell":true,"cctv":false,"managerTel":"0443013624","source":"public","category":"public"},{"id":"202456900000101434","name":"세종시드니","lat":36.47791,"lng":127.290238,"roadAddr":"세종특별자치시 호려울로 29, 세종시드니 (보람동)","jibunAddr":"세종특별자치시 보람동 747 세종시드니","openHours":"상시","maleToilets":31,"femaleToilets":31,"disabled":true,"diaperTable":false,"emergencyBell":false,"cctv":false,"managerTel":"0448620529","source":"public","category":"public"},{"id":"202456900000101672","name":"퍼스트시티(소담동)","lat":36.485187,"lng":127.300926,"roadAddr":"세종특별자치시 한누리대로 2007, 퍼스트시티 (소담동)","jibunAddr":"세종특별자치시 소담동 575 퍼스트시티","openHours":"09:00~18:00","maleToilets":0,"femaleToilets":0,"disabled":true,"diaperTable":false,"emergencyBell":false,"cctv":true,"source":"public","category":"public"},{"id":"202456900000101829","name":"무궁화테마공원1","lat":36.514524,"lng":127.28921,"roadAddr":"세종특별자치시 임난수로 176, 무궁화공원 전시장 (세종동)","jibunAddr":"세종특별자치시 세종동 644 무궁화공원 전시장","openHours":"상시","maleToilets":3,"femaleToilets":5,"disabled":true,"diaperTable":true,"emergencyBell":false,"cctv":false,"managerTel":"0443013634","source":"public","category":"public"},{"id":"202456900000101497","name":"스마트허브1","lat":36.478511,"lng":127.287328,"roadAddr":"세종특별자치시 한누리대로 2150, 스마트허브Ⅰ (보람동)","jibunAddr":"세종특별자치시 보람동 664-10 스마트허브Ⅰ","openHours":"상시","maleToilets":64,"femaleToilets":44,"disabled":true,"diaperTable":false,"emergencyBell":true,"cctv":false,"managerTel":"0448627722","source":"public","category":"public"},{"id":"202456900000101578","name":"원수산 생태공원 공원입구","lat":36.514045,"lng":127.26843,"roadAddr":"세종특별자치시 도담1길 3-4 (세종동)","jibunAddr":"세종특별자치시 세종동 734-16","openHours":"상시","maleToilets":7,"femaleToilets":7,"disabled":true,"diaperTable":true,"emergencyBell":false,"cctv":false,"managerTel":"0443013652","source":"public","category":"public"},{"id":"202456900000101225","name":"국립세종수목원 옥외화장실E","lat":36.498096,"lng":127.285789,"roadAddr":"세종특별자치시 세종동 수목원로 136","openHours":"하절기(3~10월) 9~18시, 동절기(11.~2월) 9~17시","maleToilets":0,"femaleToilets":0,"disabled":true,"diaperTable":true,"emergencyBell":true,"cctv":false,"managerTel":"0442510136","source":"public","category":"public"},{"id":"202456900000101316","name":"리버에비뉴","lat":36.481123,"lng":127.289426,"roadAddr":"세종특별자치시 시청대로 163, 리버에비뉴 (보람동)","jibunAddr":"세종특별자치시 보람동 707 리버에비뉴","openHours":"상시","maleToilets":13,"femaleToilets":8,"disabled":false,"diaperTable":false,"emergencyBell":false,"cctv":true,"managerTel":"0448659931","source":"public","category":"public"},{"id":"202456900000101357","name":"보람동 경찰지구대","lat":36.477769,"lng":127.291017,"roadAddr":"세종특별자치시 남세종로 440, 보람동 경찰지구대 (보람동)","jibunAddr":"세종특별자치시 보람동 764 보람동 경찰지구대","openHours":"09:00~18:00","maleToilets":3,"femaleToilets":1,"disabled":true,"diaperTable":false,"emergencyBell":false,"cctv":false,"managerTel":"0443208103","source":"public","category":"public"},{"id":"202456900000101439","name":"세종특별자치시청","lat":36.480058,"lng":127.289039,"roadAddr":"세종특별자치시 한누리대로 2130, 세종특별자치시청 (보람동)","jibunAddr":"세종특별자치시 보람동 718 세종특별자치시청","openHours":"09:00~18:00","maleToilets":79,"femaleToilets":63,"disabled":true,"diaperTable":true,"emergencyBell":true,"cctv":false,"managerTel":"0443006541","source":"public","category":"public"},{"id":"202456900000101687","name":"한국법제연구원","lat":36.492258,"lng":127.302343,"roadAddr":"세종특별자치시 국책연구원로 15, 한국법제연구원 (반곡동)","jibunAddr":"세종특별자치시 반곡동 835 한국법제연구원","openHours":"09:00~18:00","maleToilets":8,"femaleToilets":5,"disabled":true,"diaperTable":false,"emergencyBell":false,"cctv":true,"managerTel":"0448610346","source":"public","category":"public"},{"id":"202456900000101309","name":"땀범벅놀이터","lat":36.480283,"lng":127.288067,"jibunAddr":"세종특별자치시 보람동 788","openHours":"상시","maleToilets":5,"femaleToilets":5,"disabled":true,"diaperTable":true,"emergencyBell":true,"cctv":false,"managerTel":"0443013624","source":"public","category":"public"},{"id":"202456900000101525","name":"아리랑빌딩","lat":36.477034,"lng":127.289238,"roadAddr":"세종특별자치시 남세종로 458, 아리랑빌딩 (보람동)","jibunAddr":"세종특별자치시 보람동 628번지 7호 아리랑빌딩","openHours":"상시","maleToilets":5,"femaleToilets":3,"disabled":true,"diaperTable":false,"emergencyBell":false,"cctv":false,"managerTel":"0448653839","source":"public","category":"public"},{"id":"202456900000101664","name":"코끼리타워(소담동)","lat":36.485311,"lng":127.299851,"roadAddr":"세종특별자치시 한누리대로 2012, 코끼리타워 (소담동)","jibunAddr":"세종특별자치시 소담동 540 코끼리타워","openHours":"09:00~18:00","maleToilets":0,"femaleToilets":0,"disabled":true,"diaperTable":false,"emergencyBell":false,"cctv":true,"source":"public","category":"public"},{"id":"202456900000101270","name":"네이버타워","lat":36.47709,"lng":127.288242,"roadAddr":"세종특별자치시 호려울로 9, 네이버타워 (보람동)","jibunAddr":"세종특별자치시 보람동 755 네이버타워","openHours":"09:00~18:00","maleToilets":4,"femaleToilets":3,"disabled":true,"diaperTable":false,"emergencyBell":false,"cctv":false,"source":"public","category":"public"},{"id":"202456900000101506","name":"시드니하트","lat":36.483935,"lng":127.293809,"roadAddr":"세종특별자치시 시청대로 219, 시드니하트 (보람동)","jibunAddr":"세종특별자치시 보람동 712 시드니하트","openHours":"상시","maleToilets":4,"femaleToilets":4,"disabled":true,"diaperTable":false,"emergencyBell":false,"cctv":false,"managerTel":"0448623020","source":"public","category":"public"},{"id":"202456900000101242","name":"위너스타워","lat":36.476857,"lng":127.288827,"roadAddr":"세종특별자치시 남세종로 462, 위너스타워 (보람동)","jibunAddr":"세종특별자치시 보람동 757 위너스타워","openHours":"상시","maleToilets":27,"femaleToilets":19,"disabled":true,"diaperTable":false,"emergencyBell":true,"cctv":false,"managerTel":"0448640442","source":"public","category":"public"},{"id":"202456900000101592","name":"이응다리 남측 화장실","lat":36.481013,"lng":127.288678,"roadAddr":"세종특별자치시 보람동 626-7","openHours":"상시","maleToilets":7,"femaleToilets":13,"disabled":true,"diaperTable":true,"emergencyBell":true,"cctv":false,"managerTel":"0443013522","source":"public","category":"public"},{"id":"202456900000101720","name":"해오름빌딩","lat":36.479368,"lng":127.285338,"roadAddr":"세종특별자치시 시청대로 123, 해오름빌딩 (보람동)","jibunAddr":"세종특별자치시 보람동 704 해오름빌딩","openHours":"09:00~18:00","maleToilets":5,"femaleToilets":3,"disabled":true,"diaperTable":false,"emergencyBell":false,"cctv":true,"source":"public","category":"public"},{"id":"202456900000101458","name":"중앙공원1단계 커뮤니티센터","lat":36.491774,"lng":127.271737,"roadAddr":"세종특별자치시 중앙공원로 60 (세종동)","jibunAddr":"세종특별자치시 세종동 1204","openHours":"상시","maleToilets":7,"femaleToilets":11,"disabled":true,"diaperTable":true,"emergencyBell":true,"cctv":false,"managerTel":"0448504370","source":"public","category":"public"},{"id":"202456900000101676","name":"펠리체타워2","lat":36.484942,"lng":127.300698,"roadAddr":"세종특별자치시 한누리대로 2009, 펠리체타워2 (소담동)","jibunAddr":"세종특별자치시 소담동 576 펠리체타워2","openHours":"상시","maleToilets":20,"femaleToilets":14,"disabled":true,"diaperTable":false,"emergencyBell":true,"cctv":false,"managerTel":"0448679586","source":"public","category":"public"},{"id":"202456900000101666","name":"타임빌딩(소담동)","lat":36.485017,"lng":127.29963,"roadAddr":"세종특별자치시 한누리대로 2016, 타임빌딩 (소담동)","jibunAddr":"세종특별자치시 소담동 541 타임빌딩","openHours":"09:00~18:00","maleToilets":0,"femaleToilets":3,"disabled":true,"diaperTable":false,"emergencyBell":false,"cctv":false,"source":"public","category":"public"},{"id":"202556900000100438","name":"세종펠리스","lat":36.49114,"lng":127.303225,"roadAddr":"세종특별자치시 한누리대로 1940, 세종펠리스 (반곡동)","jibunAddr":"세종특별자치시 반곡동 843 세종펠리스","openHours":"상시","maleToilets":8,"femaleToilets":6,"disabled":true,"diaperTable":false,"emergencyBell":false,"cctv":true,"managerTel":"0448641943","source":"public","category":"public"},{"id":"202456900000101176","name":"CJ소담프라자","lat":36.48787,"lng":127.301583,"roadAddr":"세종특별자치시 한누리대로 1978, CJ소담프라자 (소담동)","jibunAddr":"세종특별자치시 소담동 530 CJ소담프라자","openHours":"09:00~18:00","maleToilets":3,"femaleToilets":3,"disabled":true,"diaperTable":false,"emergencyBell":false,"cctv":false,"source":"public","category":"public"},{"id":"202456900000101858","name":"보람종합복지센터","lat":36.479298,"lng":127.292541,"roadAddr":"세종특별자치시 한누리대로 2107, 보람종합복지센터 (보람동)","jibunAddr":"세종특별자치시 보람동 767 보람종합복지센터","openHours":"09:00~18:00","maleToilets":53,"femaleToilets":58,"disabled":true,"diaperTable":false,"emergencyBell":true,"cctv":false,"managerTel":"0448508188","source":"public","category":"public"},{"id":"202456900000101507","name":"시드니힐","lat":36.475591,"lng":127.276401,"roadAddr":"세종특별자치시 시청대로 35, 시드니힐 (대평동)","jibunAddr":"세종특별자치시 대평동 665 시드니힐","openHours":"09:00~18:00","maleToilets":4,"femaleToilets":3,"disabled":true,"diaperTable":false,"emergencyBell":false,"cctv":false,"source":"public","category":"public"},{"id":"202456900000101383","name":"세종사이언스타운","lat":36.484745,"lng":127.299405,"roadAddr":"세종특별자치시 한누리대로 2018, 사이언스타운 (소담동)","jibunAddr":"세종특별자치시 소담동 543 사이언스타운","openHours":"상시","maleToilets":28,"femaleToilets":28,"disabled":true,"diaperTable":false,"emergencyBell":false,"cctv":false,"managerTel":"0448684225","source":"public","category":"public"},{"id":"202456900000101778","name":"세종1번가","lat":36.50469,"lng":127.270851,"roadAddr":"세종특별자치시 도움8로 81, 세종일번가 (어진동)","jibunAddr":"세종특별자치시 어진동 608 세종일번가","openHours":"상시","maleToilets":25,"femaleToilets":27,"disabled":true,"diaperTable":false,"emergencyBell":false,"cctv":false,"managerTel":"0448686856","source":"public","category":"public"},{"id":"202456900000101247","name":"금남프라자","lat":36.478231,"lng":127.290015,"roadAddr":"세종특별자치시 호려울로 45, 금남프라자 (보람동)","jibunAddr":"세종특별자치시 보람동 745 금남프라자","openHours":"09:00~18:00","maleToilets":4,"femaleToilets":2,"disabled":true,"diaperTable":false,"emergencyBell":false,"cctv":false,"source":"public","category":"public"},{"id":"202456900000101455","name":"중앙공원1단계 스포츠지원센터2","lat":36.491774,"lng":127.271737,"roadAddr":"세종특별자치시 중앙공원로 60 (세종동)","jibunAddr":"세종특별자치시 세종동 1204","openHours":"상시","maleToilets":8,"femaleToilets":8,"disabled":true,"diaperTable":true,"emergencyBell":true,"cctv":false,"managerTel":"0448504370","source":"public","category":"public"},{"id":"202456900000101292","name":"더스테이","lat":36.490568,"lng":127.302848,"roadAddr":"세종특별자치시 한누리대로 1948, 더스테이빌딩 (반곡동)","jibunAddr":"세종특별자치시 반곡동 840 더스테이빌딩","openHours":"09:00~18:00","maleToilets":0,"femaleToilets":0,"disabled":true,"diaperTable":false,"emergencyBell":false,"cctv":false,"source":"public","category":"public"},{"id":"202456900000101579","name":"원수산 생태습지1","lat":36.515719,"lng":127.275839,"jibunAddr":"세종특별자치시 세종동 산 429","openHours":"상시","maleToilets":3,"femaleToilets":2,"disabled":false,"diaperTable":false,"emergencyBell":false,"cctv":false,"managerTel":"0443013652","source":"public","category":"public"},{"id":"202456900000101533","name":"아평빌딩","lat":36.476722,"lng":127.288384,"roadAddr":"세종특별자치시 남세종로 466, 아평빌딩 (보람동)","jibunAddr":"세종특별자치시 보람동 756 아평빌딩","openHours":"상시","maleToilets":32,"femaleToilets":24,"disabled":true,"diaperTable":false,"emergencyBell":true,"cctv":false,"managerTel":"0448635674","source":"public","category":"public"},{"id":"202456900000101196","name":"강남프라자","lat":36.479674,"lng":127.286072,"roadAddr":"세종특별자치시 시청대로 127, 강남프라자 (보람동)","jibunAddr":"세종특별자치시 보람동 705 강남프라자","openHours":"09:00~18:00","maleToilets":4,"femaleToilets":2,"disabled":true,"diaperTable":false,"emergencyBell":false,"cctv":false,"source":"public","category":"public"},{"id":"202456900000101593","name":"이응다리 북측 화장실","lat":36.486492,"lng":127.282927,"roadAddr":"세종특별자치시 세종동 114-401","openHours":"상시","maleToilets":6,"femaleToilets":6,"disabled":true,"diaperTable":true,"emergencyBell":true,"cctv":false,"managerTel":"0443013522","source":"public","category":"public"},{"id":"202456900000101352","name":"법조타운A","lat":36.489604,"lng":127.302199,"roadAddr":"세종특별자치시 한누리대로 1958, 법조타운A (소담동)","jibunAddr":"세종특별자치시 소담동 524 법조타운A","openHours":"09:00~18:00","maleToilets":4,"femaleToilets":4,"disabled":true,"diaperTable":false,"emergencyBell":false,"cctv":false,"source":"public","category":"public"},{"id":"202456900000101457","name":"중앙공원1단계 화장실2","lat":36.491774,"lng":127.271737,"roadAddr":"세종특별자치시 중앙공원로 60 (세종동)","jibunAddr":"세종특별자치시 세종동 1204","openHours":"상시","maleToilets":5,"femaleToilets":6,"disabled":true,"diaperTable":true,"emergencyBell":true,"cctv":false,"managerTel":"0448504370","source":"public","category":"public"},{"id":"202456900000101498","name":"스마트허브2","lat":36.478783,"lng":127.287965,"roadAddr":"세종특별자치시 한누리대로 2144, 스마트허브Ⅱ (보람동)","jibunAddr":"세종특별자치시 보람동 627-5 스마트허브Ⅱ","openHours":"상시","maleToilets":64,"femaleToilets":44,"disabled":true,"diaperTable":false,"emergencyBell":true,"cctv":false,"managerTel":"0448627722","source":"public","category":"public"},{"id":"202456900000101463","name":"세종특별자치시교육청","lat":36.478089,"lng":127.286369,"roadAddr":"세종특별자치시 한누리대로 2154, 세종특별자치시교육청 (보람동)","jibunAddr":"세종특별자치시 보람동 725 세종특별자치시교육청","openHours":"09:00~18:00","maleToilets":4,"femaleToilets":5,"disabled":true,"diaperTable":false,"emergencyBell":false,"cctv":false,"managerTel":"0443201000","source":"public","category":"public"},{"id":"202456900000101426","name":"세종세무서","lat":36.478797,"lng":127.285998,"roadAddr":"세종특별자치시 시청대로 126, 세종 세무서 (보람동)","jibunAddr":"세종특별자치시 보람동 724 세종 세무서","openHours":"09:00~18:00","maleToilets":8,"femaleToilets":8,"disabled":true,"diaperTable":true,"emergencyBell":true,"cctv":true,"managerTel":"0448508243","source":"public","category":"public"},{"id":"202456900000101500","name":"스마트허브4","lat":36.477579,"lng":127.290492,"roadAddr":"세종특별자치시 남세종로 446, 스마트허브Ⅳ (보람동)","jibunAddr":"세종특별자치시 보람동 761 스마트허브Ⅳ","openHours":"상시","maleToilets":5,"femaleToilets":4,"disabled":true,"diaperTable":false,"emergencyBell":false,"cctv":false,"managerTel":"0448689561","source":"public","category":"public"},{"id":"202456900000101740","name":"호수공원 수질정화센터 화장실","lat":36.498823,"lng":127.270076,"roadAddr":"세종특별자치시 다솜로 216","jibunAddr":"세종특별자치시 세종동 1201","openHours":"상시","maleToilets":5,"femaleToilets":6,"disabled":true,"diaperTable":true,"emergencyBell":true,"cctv":false,"managerTel":"0448504370","source":"public","category":"public"},{"id":"202456900000101224","name":"국립세종수목원 옥외화장실D","lat":36.498096,"lng":127.285789,"roadAddr":"세종특별자치시 세종동 수목원로 136","openHours":"하절기(3~10월) 09:00~18:00, 동절기(11.~2월) 09:00~17:00","maleToilets":3,"femaleToilets":4,"disabled":true,"diaperTable":true,"emergencyBell":true,"cctv":false,"managerTel":"0442510136","source":"public","category":"public"},{"id":"202456900000101212","name":"골드타워","lat":36.477957,"lng":127.289354,"roadAddr":"세종특별자치시 호려울로 51, 골드타워 (보람동)","jibunAddr":"세종특별자치시 보람동 751 골드타워","openHours":"09:00~18:00","maleToilets":5,"femaleToilets":3,"disabled":true,"diaperTable":false,"emergencyBell":false,"cctv":false,"source":"public","category":"public"},{"id":"202456900000101456","name":"중앙공원1단계 화장실1","lat":36.491774,"lng":127.271737,"roadAddr":"세종특별자치시 중앙공원로 60 (세종동)","jibunAddr":"세종특별자치시 세종동 1204","openHours":"상시","maleToilets":4,"femaleToilets":6,"disabled":true,"diaperTable":true,"emergencyBell":true,"cctv":false,"managerTel":"0448504370","source":"public","category":"public"},{"id":"202456900000101499","name":"스마트허브3","lat":36.477368,"lng":127.288904,"roadAddr":"세종특별자치시 호려울로 19, 스마트허브Ⅲ (보람동)","jibunAddr":"세종특별자치시 보람동 628번지 5호 스마트허브Ⅲ","openHours":"상시","maleToilets":4,"femaleToilets":2,"disabled":true,"diaperTable":false,"emergencyBell":false,"cctv":false,"managerTel":"0448687382","source":"public","category":"public"},{"id":"202456900000101430","name":"세종소방서 119구조대","lat":36.506149,"lng":127.274216,"roadAddr":"세종특별자치시 절재로 303, 세종119특수구조단청사 (어진동)","jibunAddr":"세종특별자치시 어진동 3-78 세종119특수구조단청사","openHours":"09:00~18:00","maleToilets":4,"femaleToilets":1,"disabled":true,"diaperTable":false,"emergencyBell":false,"cctv":false,"managerTel":"0443008422","source":"public","category":"public"},{"id":"202456900000101528","name":"아이콤스타시티(소담동)","lat":36.485824,"lng":127.301401,"roadAddr":"세종특별자치시 소담로 93, 아이콤스타시티타워 (소담동)","jibunAddr":"세종특별자치시 소담동 572 아이콤스타시티타워","openHours":"09:00~18:00","maleToilets":0,"femaleToilets":0,"disabled":true,"diaperTable":false,"emergencyBell":false,"cctv":false,"source":"public","category":"public"},{"id":"202456900000101453","name":"중앙공원1단계 방문자센터","lat":36.491774,"lng":127.271737,"roadAddr":"세종특별자치시 중앙공원로 60 (세종동)","jibunAddr":"세종특별자치시 세종동 1204","openHours":"상시","maleToilets":7,"femaleToilets":11,"disabled":true,"diaperTable":true,"emergencyBell":true,"cctv":false,"managerTel":"0448504370","source":"public","category":"public"},{"id":"202456900000101741","name":"호수공원 제1주차장 공중화장실","lat":36.498823,"lng":127.270076,"roadAddr":"세종특별자치시 다솜로 216","jibunAddr":"세종특별자치시 세종동 1201","openHours":"상시","maleToilets":5,"femaleToilets":6,"disabled":true,"diaperTable":true,"emergencyBell":true,"cctv":false,"managerTel":"0448504370","source":"public","category":"public"},{"id":"202456900000101317","name":"리버피크닉","lat":36.479995,"lng":127.286782,"roadAddr":"세종특별자치시 시청대로 137, 리버피크닉 (보람동)","jibunAddr":"세종특별자치시 보람동 706 리버피크닉","openHours":"09:00~18:00","maleToilets":0,"femaleToilets":0,"disabled":true,"diaperTable":false,"emergencyBell":false,"cctv":false,"source":"public","category":"public"},{"id":"202456900000101223","name":"국립세종수목원 옥외화장실C","lat":36.498096,"lng":127.285789,"roadAddr":"세종특별자치시 세종동 수목원로 136","openHours":"하절기(3~10월) 09:00~18:00, 동절기(11.~2월) 09:00~17:00","maleToilets":3,"femaleToilets":4,"disabled":true,"diaperTable":true,"emergencyBell":true,"cctv":false,"managerTel":"0442510136","source":"public","category":"public"},{"id":"202456900000101424","name":"세종선거관리위원회","lat":36.478414,"lng":127.292404,"roadAddr":"세종특별자치시 남세종로 426, 세종선거관리위원회 (보람동)","jibunAddr":"세종특별자치시 보람동 768 세종선거관리위원회","openHours":"09:00~18:00","maleToilets":6,"femaleToilets":3,"disabled":true,"diaperTable":false,"emergencyBell":true,"cctv":false,"managerTel":"0448651390","source":"public","category":"public"},{"id":"202456900000101535","name":"알파타워","lat":36.4907,"lng":127.301624,"roadAddr":"세종특별자치시 국책연구원2로 18, 알파타워 (반곡동)","jibunAddr":"세종특별자치시 반곡동 836 알파타워","openHours":"09:00~18:00","maleToilets":4,"femaleToilets":4,"disabled":true,"diaperTable":false,"emergencyBell":false,"cctv":false,"source":"public","category":"public"},{"id":"202456900000101729","name":"햇무리교 좌안","lat":36.495631,"lng":127.301799,"roadAddr":"세종특별자치시 세종동 27-118","openHours":"상시","maleToilets":3,"femaleToilets":2,"disabled":false,"diaperTable":false,"emergencyBell":false,"cctv":false,"managerTel":"0443005344","source":"public","category":"public"},{"id":"202456900000101341","name":"방울새어린이공원","lat":36.496068,"lng":127.268955,"roadAddr":"세종특별자치시 다솜로 175 (어진동)","jibunAddr":"세종특별자치시 어진동 642","openHours":"상시","maleToilets":4,"femaleToilets":4,"disabled":true,"diaperTable":true,"emergencyBell":true,"cctv":false,"managerTel":"0443013622","source":"public","category":"public"},{"id":"202456900000101409","name":"세종남부경찰서","lat":36.480968,"lng":127.292779,"roadAddr":"세종특별자치시 시청대로 190, 세종남부경찰서 (보람동)","jibunAddr":"세종특별자치시 보람동 0 세종남부경찰서","openHours":"상시","maleToilets":0,"femaleToilets":0,"disabled":true,"diaperTable":true,"emergencyBell":true,"cctv":true,"managerTel":"0443208723","source":"public","category":"public"},{"id":"202456900000101239","name":"금강수변공원(보람동)","lat":36.482272,"lng":127.29192,"jibunAddr":"세종특별자치시 보람동 623-24","openHours":"상시","maleToilets":4,"femaleToilets":3,"disabled":true,"diaperTable":true,"emergencyBell":true,"cctv":false,"managerTel":"0443013624","source":"public","category":"public"},{"id":"202456900000101295","name":"도경프라자","lat":36.488198,"lng":127.301657,"roadAddr":"세종특별자치시 한누리대로 1974, 도경프라자 (소담동)","jibunAddr":"세종특별자치시 소담동 529 도경프라자","openHours":"09:00~18:00","maleToilets":4,"femaleToilets":4,"disabled":true,"diaperTable":false,"emergencyBell":false,"cctv":false,"source":"public","category":"public"},{"id":"202456900000101830","name":"무궁화테마공원2","lat":36.515131,"lng":127.291701,"roadAddr":"세종특별자치시 임난수로 194, 무궁화공원 화장실 (세종동)","jibunAddr":"세종특별자치시 세종동 644-555 무궁화공원 화장실","openHours":"상시","maleToilets":4,"femaleToilets":5,"disabled":true,"diaperTable":true,"emergencyBell":false,"cctv":false,"managerTel":"0443013634","source":"public","category":"public"},{"id":"202456900000101379","name":"비오케이아트센터","lat":36.492362,"lng":127.303271,"roadAddr":"세종특별자치시 국책연구원3로 12, 비오케이아트센터 (반곡동)","jibunAddr":"세종특별자치시 반곡동 848 비오케이아트센터","openHours":"09:00~18:00","maleToilets":4,"femaleToilets":4,"disabled":true,"diaperTable":false,"emergencyBell":false,"cctv":false,"source":"public","category":"public"},{"id":"202456900000101237","name":"금강베네치아","lat":36.483629,"lng":127.293551,"roadAddr":"세종특별자치시 시청대로 213, 금강베네치아 (보람동)","jibunAddr":"세종특별자치시 보람동 616-3 금강베네치아","openHours":"상시","maleToilets":20,"femaleToilets":20,"disabled":true,"diaperTable":false,"emergencyBell":true,"cctv":true,"source":"public","category":"public"},{"id":"202456900000101361","name":"보람수영장(화장실)","lat":36.478747,"lng":127.290465,"roadAddr":"세종특별자치시 호려울로 42, 보람동주민센터 (보람동)","jibunAddr":"세종특별자치시 보람동 763 보람동주민센터","openHours":"(평일)06:00~22:00 (토요일)06:00~17:00","maleToilets":2,"femaleToilets":2,"disabled":true,"diaperTable":true,"emergencyBell":true,"cctv":false,"managerTel":"0448504286","source":"public","category":"public"},{"id":"202456900000101690","name":"한국조세재정연구원","lat":36.492627,"lng":127.301176,"roadAddr":"세종특별자치시 시청대로 336, 한국조세재정연구원 (반곡동)","jibunAddr":"세종특별자치시 반곡동 834 한국조세재정연구원","openHours":"09:00~18:00","maleToilets":3,"femaleToilets":3,"disabled":true,"diaperTable":false,"emergencyBell":false,"cctv":false,"managerTel":"0444142114","source":"public","category":"public"},{"id":"202456900000101412","name":"세종드림빌딩","lat":36.48131,"lng":127.289896,"roadAddr":"세종특별자치시 시청대로 167, 세종드림빌딩 (보람동)","jibunAddr":"세종특별자치시 보람동 708 세종드림빌딩","openHours":"상시","maleToilets":11,"femaleToilets":11,"disabled":true,"diaperTable":true,"emergencyBell":false,"cctv":false,"managerTel":"0448638158","source":"public","category":"public"},{"id":"202456900000101452","name":"중앙공원1단계 도시전망대","lat":36.491774,"lng":127.271737,"roadAddr":"세종특별자치시 중앙공원로 60 (세종동)","jibunAddr":"세종특별자치시 세종동 1204","openHours":"상시","maleToilets":3,"femaleToilets":4,"disabled":true,"diaperTable":true,"emergencyBell":true,"cctv":false,"managerTel":"0448504370","source":"public","category":"public"},{"id":"202456900000101429","name":"세종남부소방서","lat":36.506283,"lng":127.273661,"roadAddr":"세종특별자치시 절재로 301, 세종소방서 (어진동)","jibunAddr":"세종특별자치시 어진동 3-78 세종소방서","openHours":"09:00~18:00","maleToilets":4,"femaleToilets":5,"disabled":true,"diaperTable":false,"emergencyBell":false,"cctv":false,"managerTel":"0443008422","source":"public","category":"public"},{"id":"202456900000101738","name":"호수공원 관리센터 공중화장실","lat":36.498823,"lng":127.270076,"roadAddr":"세종특별자치시 다솜로 216","jibunAddr":"세종특별자치시 세종동 1201","openHours":"상시","maleToilets":11,"femaleToilets":11,"disabled":true,"diaperTable":true,"emergencyBell":true,"cctv":false,"managerTel":"0448504370","source":"public","category":"public"},{"id":"202456900000101728","name":"햇무리교 우안","lat":36.498441,"lng":127.294856,"roadAddr":"세종특별자치시 세종동 764","openHours":"상시","maleToilets":3,"femaleToilets":2,"disabled":false,"diaperTable":false,"emergencyBell":false,"cctv":false,"managerTel":"0443005344","source":"public","category":"public"},{"id":"202456900000101358","name":"보람동행정복지센터","lat":36.478747,"lng":127.290465,"roadAddr":"세종특별자치시 호려울로 42, 보람동주민센터 (보람동)","jibunAddr":"세종특별자치시 보람동 763 보람동주민센터","openHours":"09:00~18:00","maleToilets":32,"femaleToilets":36,"disabled":true,"diaperTable":true,"emergencyBell":false,"cctv":false,"managerTel":"0443016700","source":"public","category":"public"},{"id":"202656900000100012","name":"한나래공원","lat":36.503681,"lng":127.300287,"jibunAddr":"세종특별자치시 세종동 7-19","openHours":"상시","maleToilets":2,"femaleToilets":1,"disabled":false,"diaperTable":false,"emergencyBell":true,"cctv":false,"source":"public","category":"public"},{"id":"202656900000100010","name":"반다비빙상장","lat":36.50008,"lng":127.28172,"roadAddr":"세종특별자치시 수목원로 94, 반다비 빙상장 (세종동)","jibunAddr":"세종특별자치시 세종동 1204 반다비 빙상장","openHours":"상시","maleToilets":10,"femaleToilets":10,"disabled":true,"diaperTable":true,"emergencyBell":true,"cctv":false,"source":"public","category":"public"},{"id":"202456900000101219","name":"국립세종수목원 방문자센터","lat":36.498096,"lng":127.285789,"roadAddr":"세종특별자치시 세종동 수목원로 136","openHours":"하절기(3~10월) : 9~18시,동절기(11~2월) : 9~17시","maleToilets":16,"femaleToilets":21,"disabled":true,"diaperTable":true,"emergencyBell":true,"cctv":false,"managerTel":"0442510136","source":"public","category":"public"},{"id":"202456900000101230","name":"국토연구원","lat":36.491773,"lng":127.300566,"roadAddr":"세종특별자치시 국책연구원로 5, 국토연구원 (반곡동)","jibunAddr":"세종특별자치시 반곡동 833 국토연구원","openHours":"(평일)09:00~18:00","maleToilets":6,"femaleToilets":8,"disabled":true,"diaperTable":false,"emergencyBell":true,"cctv":false,"managerTel":"0449600496","source":"public","category":"public"},{"id":"202456900000101220","name":"국립세종수목원 사계절전시온실","lat":36.498096,"lng":127.285789,"roadAddr":"세종특별자치시 세종동 수목원로 136","openHours":"하절기(3~10월) 09:00~18:00, 동절기(11.~2월) 09:00~17:00","maleToilets":18,"femaleToilets":19,"disabled":true,"diaperTable":true,"emergencyBell":true,"cctv":false,"managerTel":"0442510136","source":"public","category":"public"},{"id":"202456900000101222","name":"국립세종수목원 옥외화장실B","lat":36.498096,"lng":127.285789,"roadAddr":"세종특별자치시 세종동 수목원로 136","openHours":"하절기(3~10월) 09:00~18:00, 동절기(11.~2월) 09:00~17:00","maleToilets":7,"femaleToilets":12,"disabled":true,"diaperTable":false,"emergencyBell":true,"cctv":false,"managerTel":"0442510136","source":"public","category":"public"},{"id":"202456900000101580","name":"원수산 생태습지2","lat":36.515719,"lng":127.275839,"jibunAddr":"세종특별자치시 세종동 산 429","openHours":"상시","maleToilets":3,"femaleToilets":2,"disabled":false,"diaperTable":false,"emergencyBell":false,"cctv":false,"managerTel":"0443013652","source":"public","category":"public"},{"id":"202456900000101545","name":"엔젤타워","lat":36.477805,"lng":127.28784,"roadAddr":"세종특별자치시 한누리대로 2149, 엔젤타워 (보람동)","jibunAddr":"세종특별자치시 보람동 741 엔젤타워","openHours":"상시","maleToilets":32,"femaleToilets":24,"disabled":true,"diaperTable":false,"emergencyBell":true,"cctv":false,"managerTel":"0448683856","source":"public","category":"public"}]