[{"id":"202456900000101845","name":"부강119안전센터","lat":36.528351,"lng":127.372116,"roadAddr":"세종특별자치시 부강면 청연로 7, 부강119안전센터","jibunAddr":"세종특별자치시 부강면 부강리 96-1 부강119안전센터","openHours":"정시","maleToilets":10,"femaleToilets":1,"disabled":true,"diaperTable":false,"emergencyBell":false,"cctv":false,"managerTel":"0443008544","source":"public","category":"public"},{"id":"202456900000101369","name":"부강로또","lat":36.529217,"lng":127.366468,"roadAddr":"세종특별자치시 부강면 부강로 36","jibunAddr":"세종특별자치시 부강면 부강리 431번지","openHours":"상시","maleToilets":2,"femaleToilets":1,"disabled":false,"diaperTable":false,"emergencyBell":false,"cctv":false,"source":"public","category":"public"},{"id":"202456900000101373","name":"부강약수터","lat":36.526669,"lng":127.378305,"roadAddr":"세종특별자치시 부강면 부강외천로 104","jibunAddr":"세종특별자치시 부강면 문곡리 1072-1","openHours":"상시","maleToilets":3,"femaleToilets":3,"disabled":true,"diaperTable":true,"emergencyBell":true,"cctv":false,"managerTel":"0443015431","source":"public","category":"public"},{"id":"202456900000101346","name":"백천제방공중화장실","lat":36.531031,"lng":127.355742,"roadAddr":"세종특별자치시 부강면 부강리 1214","openHours":"상시","maleToilets":1,"femaleToilets":0,"disabled":true,"diaperTable":true,"emergencyBell":true,"cctv":false,"managerTel":"0443015431","source":"public","category":"public"},{"id":"202456900000101808","name":"중부터미널주유소","lat":36.541913,"lng":127.354914,"roadAddr":"세종특별자치시 부강면 연청로 745-46","jibunAddr":"세종특별자치시 부강면 갈산리 470-2","openHours":"불규칙","maleToilets":4,"femaleToilets":1,"disabled":false,"diaperTable":false,"emergencyBell":false,"cctv":false,"managerTel":"0442605189","source":"public","category":"public"},{"id":"202456900000101372","name":"부강면사무소","lat":36.529426,"lng":127.370753,"roadAddr":"세종특별자치시 부강면 부강5길 38, 부강면사무소","jibunAddr":"세종특별자치시 부강면 부강리 138 부강면사무소","openHours":"정시","maleToilets":3,"femaleToilets":1,"disabled":true,"diaperTable":false,"emergencyBell":false,"cctv":false,"managerTel":"0443015415","source":"public","category":"public"},{"id":"202656900000100016","name":"부강전통시장(고객지원센터)","lat":36.528501,"lng":127.368882,"roadAddr":"세종특별자치시 부강면 부강5길 18","jibunAddr":"세종특별자치시 부강면 부강리 475-1","openHours":"상시","maleToilets":1,"femaleToilets":0,"disabled":false,"diaperTable":false,"emergencyBell":false,"cctv":false,"source":"public","category":"public"},{"id":"202456900000101374","name":"부강전통시장","lat":36.529639,"lng":127.367861,"roadAddr":"세종특별자치시 부강면 부강리 458-4","openHours":"상시","maleToilets":4,"femaleToilets":2,"disabled":false,"diaperTable":false,"emergencyBell":true,"cctv":false,"managerTel":"0443015431","source":"public","category":"public"},{"id":"202456900000101370","name":"부강면 웰빙산책로","lat":36.527353,"lng":127.360017,"roadAddr":"세종특별자치시 부강면 부강리 893-1","openHours":"상시","maleToilets":2,"femaleToilets":1,"disabled":false,"diaperTable":false,"emergencyBell":false,"cctv":false,"managerTel":"0443015431","source":"public","category":"public"},{"id":"202456900000101371","name":"부강면문화복지회관","lat":36.527065,"lng":127.370356,"roadAddr":"세종특별자치시 부강면 부강외천로 20, 문화복지회관","jibunAddr":"세종특별자치시 부강면 부강리 522-6 문화복지회관","openHours":"정시","maleToilets":3,"femaleToilets":3,"disabled":false,"diaperTable":false,"emergencyBell":false,"cctv":true,"managerTel":"0443015415","source":"public","category":"public"},{"id":"202456900000101368","name":"부강꿈뜰근린공원","lat":36.528202,"lng":127.370874,"roadAddr":"세종특별자치시 부강면 태산길 33","jibunAddr":"세종특별자치시 부강면 부강리 101","openHours":"상시","maleToilets":2,"femaleToilets":1,"disabled":true,"diaperTable":true,"emergencyBell":true,"cctv":false,"managerTel":"0443015431","source":"public","category":"public"}]