[{"id":"202456900000101671","name":"판타지타워","lat":36.472614,"lng":127.277998,"roadAddr":"세종특별자치시 한누리대로 2257, 판타지타워 (대평동)","jibunAddr":"세종특별자치시 대평동 699 판타지타워","openHours":"상시","maleToilets":24,"femaleToilets":18,"disabled":true,"diaperTable":false,"emergencyBell":false,"cctv":false,"managerTel":"0448663701","source":"public","category":"public"},{"id":"202456900000101572","name":"용포리 제설창고 화장실","lat":36.465233,"lng":127.27584,"jibunAddr":"세종특별자치시 금남면 용포리 486","openHours":"상시","maleToilets":2,"femaleToilets":0,"disabled":false,"diaperTable":false,"emergencyBell":false,"cctv":false,"managerTel":"0443015543","source":"public","category":"public"},{"id":"202456900000101782","name":"알파메디컬센터","lat":36.471558,"lng":127.276387,"roadAddr":"세종특별자치시 한누리대로 2275, 알파메디컬센터 (대평동)","jibunAddr":"세종특별자치시 대평동 694 알파메디컬센터","openHours":"상시","maleToilets":38,"femaleToilets":45,"disabled":true,"diaperTable":false,"emergencyBell":false,"cctv":false,"managerTel":"0448667055","source":"public","category":"public"},{"id":"202456900000101668","name":"태양빌딩","lat":36.474446,"lng":127.275869,"roadAddr":"세종특별자치시 대평로 87, 태양빌딩 (대평동)","jibunAddr":"세종특별자치시 대평동 671 태양빌딩","openHours":"상시","maleToilets":28,"femaleToilets":21,"disabled":true,"diaperTable":false,"emergencyBell":false,"cctv":false,"managerTel":"0448648238","source":"public","category":"public"},{"id":"202456900000101360","name":"보람셀프주유소","lat":36.469492,"lng":127.283081,"roadAddr":"세종특별자치시 금남구즉로 19 (대평동)","jibunAddr":"세종특별자치시 대평동 732","openHours":"07:00~21:00","maleToilets":3,"femaleToilets":1,"disabled":false,"diaperTable":false,"emergencyBell":false,"cctv":true,"managerTel":"0448687250","source":"public","category":"public"},{"id":"202456900000101675","name":"펠리체타워1","lat":36.473279,"lng":127.277222,"roadAddr":"세종특별자치시 대평로 71, 펠리체타워1 (대평동)","jibunAddr":"세종특별자치시 대평동 687 펠리체타워1","openHours":"09:00~18:00","maleToilets":4,"femaleToilets":4,"disabled":true,"diaperTable":false,"emergencyBell":false,"cctv":false,"source":"public","category":"public"},{"id":"202456900000101244","name":"금남면체육공원화장실","lat":36.463895,"lng":127.286998,"roadAddr":"세종특별자치시 금남면 용포중앙1길 56, 용포리주차장 화장실","jibunAddr":"세종특별자치시 금남면 용포리 440-22 용포리주차장 화장실","openHours":"상시","maleToilets":3,"femaleToilets":2,"disabled":true,"diaperTable":true,"emergencyBell":true,"cctv":false,"managerTel":"0443015543","source":"public","category":"public"},{"id":"202456900000101417","name":"세종메디컬센터","lat":36.472101,"lng":127.277143,"roadAddr":"세종특별자치시 한누리대로 2265, 세종메디컬센터 (대평동)","jibunAddr":"세종특별자치시 대평동 697 세종메디컬센터","openHours":"09:00~18:00","maleToilets":5,"femaleToilets":4,"disabled":true,"diaperTable":false,"emergencyBell":false,"cctv":false,"source":"public","category":"public"},{"id":"202456900000101665","name":"코스트코 세종점","lat":36.467545,"lng":127.269162,"roadAddr":"세종특별자치시 종합운동장1로 14, 코스트코 세종점 (대평동)","jibunAddr":"세종특별자치시 대평동 659 코스트코 세종점","openHours":"10:00~22:00","maleToilets":9,"femaleToilets":13,"disabled":true,"diaperTable":false,"emergencyBell":false,"cctv":false,"source":"public","category":"public"},{"id":"202456900000101238","name":"금강수변공원(대평동)","lat":36.47435,"lng":127.273589,"jibunAddr":"세종특별자치시 대평동 63-21","openHours":"상시","maleToilets":6,"femaleToilets":7,"disabled":true,"diaperTable":true,"emergencyBell":true,"cctv":false,"managerTel":"0443013624","source":"public","category":"public"},{"id":"202456900000101513","name":"신촌리쉼터 화장실","lat":36.472475,"lng":127.292028,"jibunAddr":"세종특별자치시 금남면 신촌리 8-7","openHours":"상시","maleToilets":1,"femaleToilets":1,"disabled":true,"diaperTable":false,"emergencyBell":true,"cctv":false,"managerTel":"0443015543","source":"public","category":"public"},{"id":"202456900000101725","name":"해피라움블루","lat":36.473687,"lng":127.274934,"roadAddr":"세종특별자치시 대평3길 18, 해피라움블루 (대평동)","jibunAddr":"세종특별자치시 대평동 674 해피라움블루","openHours":"09:00~18:00","maleToilets":4,"femaleToilets":4,"disabled":true,"diaperTable":false,"emergencyBell":false,"cctv":false,"source":"public","category":"public"},{"id":"202456900000101503","name":"스타뷰타워","lat":36.472728,"lng":127.27637,"roadAddr":"세종특별자치시 한누리대로 2270, 스타뷰타워 (대평동)","jibunAddr":"세종특별자치시 대평동 684 스타뷰타워","openHours":"07:30~21:30","maleToilets":24,"femaleToilets":18,"disabled":true,"diaperTable":false,"emergencyBell":true,"cctv":true,"managerTel":"0448685179","source":"public","category":"public"},{"id":"202456900000101410","name":"세종대평시장(고객지원센터)","lat":36.467281,"lng":127.28206,"roadAddr":"세종특별자치시 금남면 대평시장1길 17-2","jibunAddr":"세종특별자치시 금남면 용포리 205-42","openHours":"상시","maleToilets":5,"femaleToilets":4,"disabled":true,"diaperTable":true,"emergencyBell":true,"cctv":false,"managerTel":"0443004134","source":"public","category":"public"},{"id":"202456900000101382","name":"쁘띠테라스","lat":36.473806,"lng":127.275729,"roadAddr":"세종특별자치시 대평3길 10, 쁘띠테라스 (대평동)","jibunAddr":"세종특별자치시 대평동 676 쁘띠테라스","openHours":"09:00~18:00","maleToilets":6,"femaleToilets":4,"disabled":true,"diaperTable":false,"emergencyBell":false,"cctv":false,"source":"public","category":"public"},{"id":"202456900000101245","name":"금남면행정복지센터","lat":36.463767,"lng":127.280232,"roadAddr":"세종특별자치시 금남면 용포로 57 (용포리, 금남면사무소)","jibunAddr":"세종특별자치시 금남면 용포리 122-1","openHours":"09:00~18:00","maleToilets":9,"femaleToilets":5,"disabled":true,"diaperTable":false,"emergencyBell":true,"cctv":false,"managerTel":"0443015513","source":"public","category":"public"},{"id":"202456900000101243","name":"금남근린공원","lat":36.464354,"lng":127.280075,"roadAddr":"세종특별자치시 금남면 용포로 63-9","jibunAddr":"세종특별자치시 금남면 용포리 123-2","openHours":"상시","maleToilets":5,"femaleToilets":5,"disabled":true,"diaperTable":true,"emergencyBell":false,"cctv":false,"managerTel":"0443013634","source":"public","category":"public"},{"id":"202456900000101526","name":"아마존타워","lat":36.474475,"lng":127.275325,"roadAddr":"세종특별자치시 시청대로 20, 아마존타워 (대평동)","jibunAddr":"세종특별자치시 대평동 672 아마존타워","openHours":"09:00~18:00","maleToilets":4,"femaleToilets":3,"disabled":true,"diaperTable":false,"emergencyBell":false,"cctv":false,"source":"public","category":"public"},{"id":"202456900000101717","name":"해들빌딩","lat":36.473472,"lng":127.276322,"roadAddr":"세종특별자치시 대평4길 33, 해들빌딩 (대평동)","jibunAddr":"세종특별자치시 대평동 678 해들빌딩","openHours":"09:00~18:00","maleToilets":5,"femaleToilets":4,"disabled":true,"diaperTable":false,"emergencyBell":false,"cctv":false,"source":"public","category":"public"},{"id":"202456900000101483","name":"솔바람공원","lat":36.474363,"lng":127.291033,"jibunAddr":"세종특별자치시 보람동 643-9","openHours":"상시","maleToilets":7,"femaleToilets":7,"disabled":true,"diaperTable":true,"emergencyBell":false,"cctv":false,"managerTel":"0443013624","source":"public","category":"public"},{"id":"202656900000100009","name":"금남119","lat":36.442078,"lng":127.288191,"jibunAddr":"세종특별자치시 금남면 감성리 61-1","openHours":"상시","maleToilets":4,"femaleToilets":4,"disabled":true,"diaperTable":false,"emergencyBell":false,"cctv":false,"source":"public","category":"public"},{"id":"202456900000101289","name":"대평시장 공중화장실","lat":36.465395,"lng":127.282057,"roadAddr":"세종특별자치시 금남면 용포느티나무길 22","jibunAddr":"세종특별자치시 금남면 용포리 146-2","openHours":"상시","maleToilets":6,"femaleToilets":3,"disabled":true,"diaperTable":false,"emergencyBell":true,"cctv":false,"managerTel":"0443015543","source":"public","category":"public"},{"id":"202456900000101411","name":"세종대평주유소","lat":36.469049,"lng":127.268182,"roadAddr":"세종특별자치시 종합운동장로 29, JB 빌딩 (대평동)","jibunAddr":"세종특별자치시 대평동 576-10 JB 빌딩","openHours":"07:00~22:00","maleToilets":2,"femaleToilets":1,"disabled":false,"diaperTable":true,"emergencyBell":false,"cctv":true,"managerTel":"07041967002","source":"public","category":"public"},{"id":"202456900000101288","name":"대평동복합커뮤니티센터","lat":36.470979,"lng":127.279315,"roadAddr":"세종특별자치시 대평1길 10 (대평동, 대평동복합커뮤니티센터)","jibunAddr":"세종특별자치시 대평동 710","openHours":"09:00~22:00(평일) 09:00~18:00(공휴일)","maleToilets":40,"femaleToilets":24,"disabled":true,"diaperTable":true,"emergencyBell":false,"cctv":false,"managerTel":"0443016914","source":"public","category":"public"},{"id":"202456900000101493","name":"숲바람수변공원","lat":36.474462,"lng":127.273354,"roadAddr":"세종특별자치시 시청대로 3 (대평동)","jibunAddr":"세종특별자치시 대평동 65-17","openHours":"상시","maleToilets":8,"femaleToilets":8,"disabled":true,"diaperTable":false,"emergencyBell":true,"cctv":false,"source":"public","category":"public"}]