[{"id":"202636600000100037","name":"타임셀프주유소","lat":36.444333,"lng":127.41114,"roadAddr":"대전광역시 대덕구 대덕대로1486번길 188 (목상동)","jibunAddr":"대전광역시 대덕구 목상동 864-6","openHours":"정시","maleToilets":3,"femaleToilets":1,"disabled":false,"diaperTable":false,"emergencyBell":false,"cctv":false,"source":"public","category":"public"},{"id":"202436800000100774","name":"산호빛공원(2)","lat":36.45375,"lng":127.421021,"jibunAddr":"대전광역시 대덕구 석봉동 780","openHours":"상시","maleToilets":1,"femaleToilets":0,"disabled":true,"diaperTable":true,"emergencyBell":true,"cctv":false,"managerTel":"0426085135","source":"public","category":"public"},{"id":"202436800000101019","name":"구도일주유소 스마일","lat":36.434934,"lng":127.424606,"roadAddr":"대전광역시 대덕구 신탄진로 633(상서동)","jibunAddr":"대전광역시 대덕구 평촌동539-4번지","openHours":"상시","maleToilets":3,"femaleToilets":2,"disabled":false,"diaperTable":false,"emergencyBell":false,"cctv":false,"managerTel":"0426086854","source":"public","category":"public"},{"id":"202436800000100941","name":"북부노인복지관","lat":36.439369,"lng":127.426123,"roadAddr":"대전광역시 대덕구 신탄진로681번길 6 (덕암동)","jibunAddr":"대전광역시 대덕구 덕암동48-16번지","openHours":"정시","maleToilets":3,"femaleToilets":3,"disabled":false,"diaperTable":false,"emergencyBell":false,"cctv":false,"managerTel":"0426086775","source":"public","category":"public"},{"id":"202436800000100896","name":"신탄어린이공원 공중화장실","lat":36.450096,"lng":127.435787,"roadAddr":"대전광역시 대덕구 신탄진동21","jibunAddr":"대전광역시 대덕구 신탄진동21","openHours":"상시","maleToilets":2,"femaleToilets":2,"disabled":false,"diaperTable":true,"emergencyBell":true,"cctv":false,"managerTel":"0426085135","source":"public","category":"public"},{"id":"202436800000101022","name":"공단LPG충전소","lat":36.445619,"lng":127.406293,"roadAddr":"대전광역시 대덕구 대덕대로 1408(신일동)","jibunAddr":"대전광역시 대덕구 신일동1684-1번지","openHours":"상시","maleToilets":4,"femaleToilets":2,"disabled":false,"diaperTable":false,"emergencyBell":false,"cctv":false,"managerTel":"0426086854","source":"public","category":"public"},{"id":"202436800000100991","name":"대도주유소","lat":36.44461,"lng":127.429834,"roadAddr":"대전광역시 대덕구 신탄진로756번길 2(신탄진동)","jibunAddr":"대전광역시 대덕구 신탄진동286-23번지","openHours":"상시","maleToilets":3,"femaleToilets":1,"disabled":false,"diaperTable":false,"emergencyBell":false,"cctv":false,"managerTel":"0426086854","source":"public","category":"public"},{"id":"202436800000100997","name":"대덕국민체육센터","lat":36.445528,"lng":127.413594,"roadAddr":"대전광역시 대덕구 대덕대로1486번길 101 (목상동)","jibunAddr":"대전광역시 대덕구 목상동871번지","openHours":"정시","maleToilets":8,"femaleToilets":8,"disabled":false,"diaperTable":false,"emergencyBell":false,"cctv":false,"managerTel":"0427163000","source":"public","category":"public"},{"id":"202436800000100869","name":"용정이어린이공원 공중화장실","lat":36.45009,"lng":127.433002,"roadAddr":"대전광역시 대덕구 신탄진동132-1","jibunAddr":"대전광역시 대덕구 신탄진동132-1","openHours":"상시","maleToilets":2,"femaleToilets":1,"disabled":true,"diaperTable":true,"emergencyBell":true,"cctv":false,"managerTel":"0426085135","source":"public","category":"public"},{"id":"202436800000100895","name":"신탄진 현도교밑","lat":36.455759,"lng":127.429985,"roadAddr":"대전광역시 대덕구 대덕대로1527번길 321 (신탄진동)","jibunAddr":"대전광역시 대덕구 신탄진동463-1번지","openHours":"상시","maleToilets":2,"femaleToilets":0,"disabled":false,"diaperTable":false,"emergencyBell":false,"cctv":false,"managerTel":"0426086273","source":"public","category":"public"},{"id":"202436800000100799","name":"대전직업능력개발원 실습동 1층","lat":36.439743,"lng":127.410064,"roadAddr":"대전광역시 대덕구 신일동로 70","openHours":"정시","maleToilets":2,"femaleToilets":2,"disabled":true,"diaperTable":false,"emergencyBell":true,"cctv":false,"managerTel":"0423660703","source":"public","category":"public"},{"id":"202436800000100897","name":"신일주유소","lat":36.431001,"lng":127.409643,"roadAddr":"대전광역시 대덕구 산업단지로 112(신일동)","jibunAddr":"대전광역시 대덕구 신일동65-3번지","openHours":"상시","maleToilets":4,"femaleToilets":2,"disabled":false,"diaperTable":false,"emergencyBell":false,"cctv":false,"managerTel":"0426086854","source":"public","category":"public"},{"id":"202436800000100968","name":"덕암셀프주유소","lat":36.440095,"lng":127.423407,"roadAddr":"대전광역시 대덕구 덕암로 219(덕암동)","jibunAddr":"대전광역시 대덕구 덕암동54-5번지","openHours":"상시","maleToilets":3,"femaleToilets":1,"disabled":false,"diaperTable":false,"emergencyBell":false,"cctv":false,"managerTel":"0426086854","source":"public","category":"public"},{"id":"202436800000100795","name":"대전대덕우체국 1층","lat":36.446122,"lng":127.403592,"roadAddr":"대전광역시 대덕구 문평동로 16","openHours":"정시","maleToilets":3,"femaleToilets":2,"disabled":true,"diaperTable":false,"emergencyBell":false,"cctv":false,"managerTel":"0429302460","source":"public","category":"public"},{"id":"202436800000100892","name":"신탄진도서관","lat":36.446505,"lng":127.437329,"roadAddr":"대전광역시 대덕구 신탄진동로 64 (신탄진동, 신탄진평생학습도서관)","jibunAddr":"대전광역시 대덕구 신탄진동150-9번지 신탄진평생학습도서관","openHours":"정시","maleToilets":31,"femaleToilets":18,"disabled":true,"diaperTable":true,"emergencyBell":true,"cctv":false,"managerTel":"0426086296","source":"public","category":"public"},{"id":"202436800000100954","name":"목상동행정복지센터","lat":36.448362,"lng":127.412219,"roadAddr":"대전광역시 대덕구 대덕대로1470번길 7 (목상동, 목상동행정복지센터)","jibunAddr":"대전광역시 대덕구 목상동184-2번지 목상동행정복지센터","openHours":"정시","maleToilets":5,"femaleToilets":3,"disabled":true,"diaperTable":false,"emergencyBell":true,"cctv":false,"managerTel":"0426085848","source":"public","category":"public"},{"id":"202436800000100797","name":"대전직업능력개발원 실습동 3층","lat":36.439743,"lng":127.410064,"roadAddr":"대전광역시 대덕구 신일동로 70","openHours":"정시","maleToilets":2,"femaleToilets":2,"disabled":true,"diaperTable":false,"emergencyBell":true,"cctv":false,"managerTel":"0423660703","source":"public","category":"public"},{"id":"202436800000100791","name":"대전덕암동우체국","lat":36.434766,"lng":127.421789,"roadAddr":"대전광역시 대덕구 덕암로 157","openHours":"정시","maleToilets":0,"femaleToilets":0,"disabled":false,"diaperTable":false,"emergencyBell":false,"cctv":false,"managerTel":"0429327400","source":"public","category":"public"},{"id":"202436800000100955","name":"목상근린공원","lat":36.444392,"lng":127.41234,"roadAddr":"대전광역시 대덕구 목상동875","jibunAddr":"대전광역시 대덕구 목상동875","openHours":"상시","maleToilets":2,"femaleToilets":1,"disabled":true,"diaperTable":false,"emergencyBell":true,"cctv":false,"managerTel":"0426085133","source":"public","category":"public"},{"id":"202436800000100917","name":"성찬셀프주유소","lat":36.445645,"lng":127.429904,"roadAddr":"대전광역시 대덕구 신탄진로 764(신탄진동)","jibunAddr":"대전광역시 대덕구 신탄진동174-16번지","openHours":"상시","maleToilets":3,"femaleToilets":2,"disabled":false,"diaperTable":false,"emergencyBell":false,"cctv":false,"managerTel":"0426086854","source":"public","category":"public"},{"id":"202436800000100942","name":"보훈병원 뒷산쉼터","lat":36.45002,"lng":127.439485,"roadAddr":"대전광역시 대덕구 신탄진동산2-35번기","jibunAddr":"대전광역시 대덕구 신탄진동산2-35번기","openHours":"상시","maleToilets":2,"femaleToilets":1,"disabled":false,"diaperTable":false,"emergencyBell":false,"cctv":false,"managerTel":"0426086854","source":"public","category":"public"},{"id":"202436800000100992","name":"대덕산업단지관리공단 주유사업소","lat":36.445441,"lng":127.404371,"roadAddr":"대전광역시 대덕구 문평동로 2 (문평동)","jibunAddr":"대전광역시 대덕구 문평동81-3번지","openHours":"상시","maleToilets":0,"femaleToilets":0,"disabled":false,"diaperTable":false,"emergencyBell":false,"cctv":false,"managerTel":"0426086854","source":"public","category":"public"},{"id":"202436800000100930","name":"삼천리자전거","lat":36.445381,"lng":127.424137,"roadAddr":"대전광역시 대덕구 덕암북로 57(석봉동)","jibunAddr":"대전광역시 대덕구 석봉동316-27번지","openHours":"상시","maleToilets":2,"femaleToilets":1,"disabled":false,"diaperTable":false,"emergencyBell":false,"cctv":false,"managerTel":"0426086854","source":"public","category":"public"},{"id":"202436800000100845","name":"㈜SH에너지 세종주유소","lat":36.44932,"lng":127.414196,"roadAddr":"대전광역시 대덕구 대덕대로 1494(목상동)","jibunAddr":"대전광역시 대덕구 목상동31-4번지","openHours":"상시","maleToilets":2,"femaleToilets":0,"disabled":false,"diaperTable":false,"emergencyBell":false,"cctv":false,"managerTel":"0426086854","source":"public","category":"public"},{"id":"202436800000100876","name":"여태말어린이공원 공중화장실","lat":36.446402,"lng":127.410692,"roadAddr":"대전광역시 대덕구 대덕대로1454번길 39 (목상동)","jibunAddr":"대전광역시 대덕구 목상동174","openHours":"상시","maleToilets":2,"femaleToilets":2,"disabled":false,"diaperTable":true,"emergencyBell":true,"cctv":false,"managerTel":"0426085135","source":"public","category":"public"},{"id":"202436800000100953","name":"목상어린이공원 공중화장실","lat":36.446241,"lng":127.412735,"roadAddr":"대전광역시 대덕구 목상동185-3","jibunAddr":"대전광역시 대덕구 목상동185-3","openHours":"상시","maleToilets":2,"femaleToilets":2,"disabled":true,"diaperTable":false,"emergencyBell":true,"cctv":false,"managerTel":"0426085135","source":"public","category":"public"},{"id":"202436800000100860","name":"을미기공원(1) 공중화장실","lat":36.442725,"lng":127.411326,"roadAddr":"대전광역시 대덕구 대덕대로 1448번길 120","jibunAddr":"대전광역시 대덕구 목상동1681-8","openHours":"상시","maleToilets":5,"femaleToilets":3,"disabled":false,"diaperTable":false,"emergencyBell":true,"cctv":false,"managerTel":"0426085135","source":"public","category":"public"},{"id":"202436800000100885","name":"신탄진한일병원","lat":36.434088,"lng":127.424127,"roadAddr":"대전광역시 대덕구 신탄진로 623(상서동)","jibunAddr":"대전광역시 대덕구 상서동833-6번지","openHours":"상시","maleToilets":4,"femaleToilets":2,"disabled":false,"diaperTable":false,"emergencyBell":false,"cctv":false,"managerTel":"0426086854","source":"public","category":"public"},{"id":"202436800000100802","name":"대전직업능력개발원 본관 1층","lat":36.439743,"lng":127.410064,"roadAddr":"대전광역시 대덕구 신일동로 70","openHours":"정시","maleToilets":2,"femaleToilets":2,"disabled":true,"diaperTable":false,"emergencyBell":true,"cctv":false,"managerTel":"0423660703","source":"public","category":"public"},{"id":"202436800000100816","name":"한솔제지 정문화장실","lat":36.436766,"lng":127.399062,"roadAddr":"대전광역시 대덕구 신일서로68번길 50(신일동)","jibunAddr":"대전광역시 대덕구 신일동1674-2번지","openHours":"상시","maleToilets":3,"femaleToilets":1,"disabled":false,"diaperTable":false,"emergencyBell":false,"cctv":false,"managerTel":"0426086854","source":"public","category":"public"},{"id":"202436800000101001","name":"대덕구 보건소","lat":36.444828,"lng":127.426551,"roadAddr":"대전광역시 대덕구 석봉로38번길 55 (석봉동)","jibunAddr":"대전광역시 대덕구 석봉동318-1번지","openHours":"정시","maleToilets":3,"femaleToilets":1,"disabled":true,"diaperTable":false,"emergencyBell":false,"cctv":false,"managerTel":"0426085456","source":"public","category":"public"},{"id":"202436800000100983","name":"대전북부새마을금고주유소","lat":36.448185,"lng":127.429781,"roadAddr":"대전광역시 대덕구 신탄진로 792(신탄진동)","jibunAddr":"대전광역시 대덕구 신탄진동152-32번지","openHours":"상시","maleToilets":2,"femaleToilets":1,"disabled":false,"diaperTable":false,"emergencyBell":false,"cctv":false,"managerTel":"0426086854","source":"public","category":"public"},{"id":"202436800000100891","name":"신탄진동 등산로","lat":36.443842,"lng":127.437782,"roadAddr":"대전광역시 대덕구 신탄진동산29-3번지","jibunAddr":"대전광역시 대덕구 신탄진동산29-3번지","openHours":"상시","maleToilets":1,"femaleToilets":1,"disabled":false,"diaperTable":false,"emergencyBell":false,"cctv":false,"managerTel":"0426086854","source":"public","category":"public"},{"id":"202436800000100919","name":"석봉어린이공원 공중화장실","lat":36.449474,"lng":127.427605,"roadAddr":"대전광역시 대덕구 석봉동415-33","jibunAddr":"대전광역시 대덕구 석봉동415-33","openHours":"상시","maleToilets":2,"femaleToilets":2,"disabled":false,"diaperTable":false,"emergencyBell":true,"cctv":false,"managerTel":"0426085135","source":"public","category":"public"},{"id":"202436800000100798","name":"대전직업능력개발원 실습동 2층","lat":36.439743,"lng":127.410064,"roadAddr":"대전광역시 대덕구 신일동로 70","openHours":"정시","maleToilets":2,"femaleToilets":2,"disabled":true,"diaperTable":false,"emergencyBell":true,"cctv":false,"managerTel":"0423660703","source":"public","category":"public"},{"id":"202436800000100894","name":"신탄진IC주유소","lat":36.437521,"lng":127.425804,"roadAddr":"대전광역시 대덕구 신탄진로 665(평촌동)","jibunAddr":"대전광역시 대덕구 평촌동542-43번지","openHours":"상시","maleToilets":2,"femaleToilets":2,"disabled":false,"diaperTable":false,"emergencyBell":false,"cctv":false,"managerTel":"0426086854","source":"public","category":"public"},{"id":"202436800000100920","name":"석봉동행정복지센터","lat":36.448117,"lng":127.425671,"roadAddr":"대전광역시 대덕구 석봉로37번길 15 (석봉동, 석봉동행정복지센터)","jibunAddr":"대전광역시 대덕구 석봉동189-24번지 석봉동행정복지센터","openHours":"정시","maleToilets":3,"femaleToilets":2,"disabled":false,"diaperTable":false,"emergencyBell":false,"cctv":false,"managerTel":"0426085803","source":"public","category":"public"},{"id":"202436800000100794","name":"신탄진우체국 2층","lat":36.450234,"lng":127.426369,"roadAddr":"대전광역시 대덕구 석봉로37번길 62","openHours":"정시","maleToilets":3,"femaleToilets":2,"disabled":false,"diaperTable":false,"emergencyBell":false,"cctv":false,"managerTel":"0429312005","source":"public","category":"public"},{"id":"202436800000100778","name":"무지개어린이공원(경로당)","lat":36.435553,"lng":127.422863,"roadAddr":"대전광역시 대덕구 덕암로168번길 11 (평촌동)","jibunAddr":"대전광역시 대덕구 평촌동 537-1","openHours":"상시","maleToilets":2,"femaleToilets":1,"disabled":false,"diaperTable":false,"emergencyBell":true,"cctv":false,"managerTel":"0426085135","source":"public","category":"public"},{"id":"202436800000100888","name":"신탄진주유소","lat":36.45348,"lng":127.428374,"roadAddr":"대전광역시 대덕구 대덕대로1527번길 374 (신탄진동)","jibunAddr":"대전광역시 대덕구 신탄진동114-21번지","openHours":"상시","maleToilets":2,"femaleToilets":1,"disabled":false,"diaperTable":false,"emergencyBell":false,"cctv":false,"managerTel":"0426086854","source":"public","category":"public"},{"id":"202436800000100800","name":"대전직업능력개발원 본관 3층","lat":36.439743,"lng":127.410064,"roadAddr":"대전광역시 대덕구 신일동로 70","openHours":"정시","maleToilets":1,"femaleToilets":1,"disabled":true,"diaperTable":false,"emergencyBell":true,"cctv":false,"managerTel":"0423660703","source":"public","category":"public"},{"id":"202436800000101004","name":"대덕경찰서 신탄진지구대","lat":36.448796,"lng":127.412089,"roadAddr":"대전광역시 대덕구 대덕대로 1472(목상동)","jibunAddr":"대전광역시 대덕구 목상동184-1번지","openHours":"상시","maleToilets":2,"femaleToilets":1,"disabled":false,"diaperTable":false,"emergencyBell":false,"cctv":false,"managerTel":"0426004321","source":"public","category":"public"},{"id":"202436800000100994","name":"대덕문화체육관","lat":36.445417,"lng":127.415328,"roadAddr":"대전광역시 대덕구 대덕대로1486번길 85 (목상동, 대덕문화체육관)","jibunAddr":"대전광역시 대덕구 목상동산6-2번지 대덕문화체육관","openHours":"정시","maleToilets":24,"femaleToilets":11,"disabled":false,"diaperTable":false,"emergencyBell":false,"cctv":false,"managerTel":"0426085582","source":"public","category":"public"},{"id":"202436800000100967","name":"덕암어린이공원 공중화장실","lat":36.442448,"lng":127.426152,"roadAddr":"대전광역시 대덕구 덕암로246번길 21(덕암동)","jibunAddr":"대전광역시 대덕구 덕암동16-1","openHours":"상시","maleToilets":1,"femaleToilets":1,"disabled":true,"diaperTable":false,"emergencyBell":true,"cctv":false,"managerTel":"0426085135","source":"public","category":"public"},{"id":"202436800000100801","name":"대전직업능력개발원 본관 2층","lat":36.439743,"lng":127.410064,"roadAddr":"대전광역시 대덕구 신일동로 70","openHours":"정시","maleToilets":1,"femaleToilets":1,"disabled":true,"diaperTable":false,"emergencyBell":true,"cctv":false,"managerTel":"0423660703","source":"public","category":"public"},{"id":"202436800000100887","name":"신탄진주차장","lat":36.450358,"lng":127.430243,"roadAddr":"대전광역시 대덕구 신탄진동140-25","jibunAddr":"대전광역시 대덕구 신탄진동140-25","openHours":"상시","maleToilets":3,"femaleToilets":2,"disabled":true,"diaperTable":true,"emergencyBell":true,"cctv":true,"managerTel":"0426086854","source":"public","category":"public"},{"id":"202436800000100970","name":"덕암119안전센터","lat":36.437284,"lng":127.425651,"roadAddr":"대전광역시 대덕구 신탄진로661(평촌동)","jibunAddr":"대전광역시 대덕구 평촌동542-41번지","openHours":"상시","maleToilets":7,"femaleToilets":2,"disabled":true,"diaperTable":false,"emergencyBell":false,"cctv":false,"managerTel":"0422701871","source":"public","category":"public"},{"id":"202436800000100889","name":"신탄진역","lat":36.449451,"lng":127.428858,"roadAddr":"대전광역시 대덕구 신탄진로 805(신탄진동)","jibunAddr":"대전광역시 대덕구 신탄진동145-17번지","openHours":"상시","maleToilets":7,"femaleToilets":4,"disabled":false,"diaperTable":false,"emergencyBell":false,"cctv":false,"managerTel":"0426086854","source":"public","category":"public"},{"id":"202436800000100877","name":"에스오일 목상셀프주유소","lat":36.449397,"lng":127.414964,"roadAddr":"대전광역시 대덕구 대덕대로 1500(목상동)","jibunAddr":"대전광역시 대덕구 목상동34-1번지","openHours":"상시","maleToilets":3,"femaleToilets":1,"disabled":false,"diaperTable":false,"emergencyBell":false,"cctv":false,"managerTel":"0426086854","source":"public","category":"public"},{"id":"202436800000100893","name":"신탄진농협 주유소","lat":36.435319,"lng":127.422483,"roadAddr":"대전광역시 대덕구 덕암로 164(평촌동)","jibunAddr":"대전광역시 대덕구 평촌동538-1번지","openHours":"상시","maleToilets":2,"femaleToilets":1,"disabled":false,"diaperTable":false,"emergencyBell":false,"cctv":false,"managerTel":"0426086854","source":"public","category":"public"},{"id":"202436800000100928","name":"상서동(2) 공중화장실","lat":36.431121,"lng":127.422111,"roadAddr":"대전광역시 대덕구 신탄진로583번길 4","jibunAddr":"대전광역시 대덕구 상서동189-1번지","openHours":"상시","maleToilets":0,"femaleToilets":1,"disabled":true,"diaperTable":true,"emergencyBell":false,"cctv":false,"managerTel":"0426086854","source":"public","category":"public"},{"id":"202436800000100813","name":"현대오일뱅크㈜ 직영4공단주유소","lat":36.445776,"lng":127.406664,"roadAddr":"대전광역시 대덕구 대덕대로 1412(신일동)","jibunAddr":"대전광역시 대덕구 신일동1684번지","openHours":"상시","maleToilets":3,"femaleToilets":1,"disabled":false,"diaperTable":false,"emergencyBell":false,"cctv":false,"managerTel":"0426086854","source":"public","category":"public"},{"id":"202436800000100890","name":"신탄진시장","lat":36.449859,"lng":127.426729,"roadAddr":"대전광역시 대덕구 석봉동415-5","jibunAddr":"대전광역시 대덕구 석봉동415-5","openHours":"상시","maleToilets":5,"femaleToilets":4,"disabled":false,"diaperTable":true,"emergencyBell":true,"cctv":true,"managerTel":"0426086925","source":"public","category":"public"},{"id":"202436800000100923","name":"새일근린공원 공중화장실","lat":36.448045,"lng":127.403022,"roadAddr":"대전광역시 대덕구 문평동로18번길 21 (문평동)","jibunAddr":"대전광역시 대덕구 문평동78-5","openHours":"상시","maleToilets":5,"femaleToilets":2,"disabled":true,"diaperTable":false,"emergencyBell":true,"cctv":false,"managerTel":"0426085135","source":"public","category":"public"},{"id":"202436800000100951","name":"문평근린공원 공중화장실","lat":36.443032,"lng":127.397932,"roadAddr":"대전광역시 대덕구 문평동42-4","jibunAddr":"대전광역시 대덕구 문평동42-4","openHours":"상시","maleToilets":7,"femaleToilets":3,"disabled":true,"diaperTable":false,"emergencyBell":true,"cctv":false,"managerTel":"0426085135","source":"public","category":"public"},{"id":"202436800000100984","name":"대전보훈병원","lat":36.447316,"lng":127.439694,"roadAddr":"대전광역시 대덕구 대청로82번길 147(신탄진동)","jibunAddr":"대전광역시 대덕구 신탄진동220번지","openHours":"상시","maleToilets":6,"femaleToilets":3,"disabled":false,"diaperTable":false,"emergencyBell":false,"cctv":false,"managerTel":"0426086854","source":"public","category":"public"},{"id":"202436800000100925","name":"새뜸어린이공원 공중화장실","lat":36.442942,"lng":127.42144,"roadAddr":"대전광역시 대덕구 덕암로249번길 52(덕암동)","jibunAddr":"대전광역시 대덕구 덕암동22-5","openHours":"상시","maleToilets":2,"femaleToilets":3,"disabled":true,"diaperTable":false,"emergencyBell":true,"cctv":false,"managerTel":"0426085135","source":"public","category":"public"},{"id":"202436800000100969","name":"덕암동행정복지센터","lat":36.440053,"lng":127.426986,"roadAddr":"대전광역시 대덕구 덕암북로104번길 60 (덕암동, 덕암동행정복지센터)","jibunAddr":"대전광역시 대덕구 덕암동48-2번지 덕암동행정복지센터","openHours":"정시","maleToilets":3,"femaleToilets":2,"disabled":false,"diaperTable":false,"emergencyBell":false,"cctv":false,"managerTel":"0426085823","source":"public","category":"public"},{"id":"202436800000100809","name":"현대오일뱅크㈜직영신탄진주유소","lat":36.43939,"lng":127.425195,"roadAddr":"대전광역시 대덕구 신탄진로681번길 22(덕암동)","jibunAddr":"대전광역시 대덕구 덕암동49-8번지","openHours":"상시","maleToilets":2,"femaleToilets":1,"disabled":false,"diaperTable":false,"emergencyBell":false,"cctv":false,"managerTel":"0426086854","source":"public","category":"public"},{"id":"202436800000100856","name":"일등주유소","lat":36.435044,"lng":127.425406,"roadAddr":"대전광역시 대덕구 신탄진로 636(평촌동)","jibunAddr":"대전광역시 대덕구 평촌동226-7번지","openHours":"상시","maleToilets":2,"femaleToilets":1,"disabled":false,"diaperTable":false,"emergencyBell":false,"cctv":false,"managerTel":"0426086854","source":"public","category":"public"},{"id":"202436800000100859","name":"을미기공원(2) 공중화장실","lat":36.442725,"lng":127.411326,"roadAddr":"대전광역시 대덕구 대덕대로1448번길 120 (신일동)","jibunAddr":"대전광역시 대덕구 목상동1681-8","openHours":"상시","maleToilets":0,"femaleToilets":1,"disabled":true,"diaperTable":false,"emergencyBell":true,"cctv":false,"managerTel":"0426085135","source":"public","category":"public"},{"id":"202436800000100858","name":"이마트에브리데이 신탄진지점","lat":36.452745,"lng":127.435186,"roadAddr":"대전광역시 대덕구 대청로 62(신탄진동)","jibunAddr":"대전광역시 대덕구 신탄진동16-2번지","openHours":"상시","maleToilets":3,"femaleToilets":2,"disabled":false,"diaperTable":false,"emergencyBell":false,"cctv":false,"managerTel":"0427162341","source":"public","category":"public"},{"id":"202436800000100960","name":"드림빌딩","lat":36.452041,"lng":127.429109,"roadAddr":"대전광역시 대덕구 신탄진로 836(신탄진동)","jibunAddr":"대전광역시 대덕구 신탄진동117-39번지","openHours":"상시","maleToilets":2,"femaleToilets":1,"disabled":false,"diaperTable":false,"emergencyBell":false,"cctv":false,"managerTel":"0426086854","source":"public","category":"public"},{"id":"202436800000100796","name":"대전직업능력개발원 실습동 4층","lat":36.439743,"lng":127.410064,"roadAddr":"대전광역시 대덕구 신일동로 70","openHours":"정시","maleToilets":2,"femaleToilets":2,"disabled":true,"diaperTable":false,"emergencyBell":true,"cctv":false,"managerTel":"0423660703","source":"public","category":"public"},{"id":"202436800000100820","name":"평안정형외과의원","lat":36.444433,"lng":127.424356,"roadAddr":"대전광역시 대덕구 덕암로265번길 25(덕암동)","jibunAddr":"대전광역시 대덕구 덕암동10-6번지","openHours":"상시","maleToilets":2,"femaleToilets":1,"disabled":false,"diaperTable":false,"emergencyBell":false,"cctv":false,"managerTel":"0426086854","source":"public","category":"public"},{"id":"202436800000100993","name":"대덕밸리LPG충전소","lat":36.436086,"lng":127.425934,"roadAddr":"대전광역시 대덕구 신탄진로 650(평촌동)","jibunAddr":"대전광역시 대덕구 평촌동226-5번지","openHours":"상시","maleToilets":2,"femaleToilets":1,"disabled":false,"diaperTable":false,"emergencyBell":false,"cctv":false,"managerTel":"0426086854","source":"public","category":"public"},{"id":"202436800000100952","name":"문평119안전센터","lat":36.446917,"lng":127.404716,"roadAddr":"대전광역시 대덕구 문평동로18번길 34(문평동)","jibunAddr":"대전광역시 대덕구 문평동79-1번지","openHours":"상시","maleToilets":7,"femaleToilets":1,"disabled":false,"diaperTable":false,"emergencyBell":false,"cctv":false,"managerTel":"0422701881","source":"public","category":"public"},{"id":"202457100000100098","name":"남청주 양지주유소","lat":36.463273,"lng":127.424573,"roadAddr":"충청북도 청주시 서원구 현도면 청남로 80","openHours":"정시","maleToilets":2,"femaleToilets":0,"disabled":true,"diaperTable":false,"emergencyBell":false,"cctv":false,"managerTel":"0439322000","source":"public","category":"public"},{"id":"202457100000100097","name":"매봉주유소","lat":36.472309,"lng":127.424906,"roadAddr":"충청북도 청주시 서원구 현도면 청남로 193","openHours":"정시","maleToilets":2,"femaleToilets":0,"disabled":true,"diaperTable":false,"emergencyBell":false,"cctv":false,"managerTel":"0432608878","source":"public","category":"public"}]