[{"id":"202456900000101489","name":"수문강길공중화장실","lat":36.55656,"lng":127.29798,"roadAddr":"세종특별자치시 연서면  봉암리 1044번지","jibunAddr":"세종특별자치시 연서면 봉암리 1044번지","openHours":"상시","maleToilets":3,"femaleToilets":3,"disabled":false,"diaperTable":false,"emergencyBell":true,"cctv":false,"managerTel":"0443015731","source":"public","category":"public"},{"id":"202456900000101551","name":"연기면119지역대","lat":36.544123,"lng":127.275888,"roadAddr":"세종특별자치시 연기면 당산로 113-3, 연기면119지역대","jibunAddr":"세종특별자치시 연기면 연기리 412-38 연기면119지역대","openHours":"09:00~18:00","maleToilets":2,"femaleToilets":0,"disabled":false,"diaperTable":false,"emergencyBell":false,"cctv":false,"managerTel":"0443008422","source":"public","category":"public"},{"id":"202456900000101552","name":"연기면사무소","lat":36.544496,"lng":127.268828,"roadAddr":"세종특별자치시 연기면 수왕로 56-9, 연기면사무소","jibunAddr":"세종특별자치시 연기면 연기리 134-11 연기면사무소","openHours":"(평일)09:00~18:00","maleToilets":4,"femaleToilets":2,"disabled":false,"diaperTable":false,"emergencyBell":false,"cctv":false,"managerTel":"0443015231","source":"public","category":"public"},{"id":"202456900000101559","name":"연서우체국","lat":36.562032,"lng":127.28244,"roadAddr":"세종특별자치시 연서면 당산로 342, 세종연서우체국","jibunAddr":"세종특별자치시 연서면 봉암리 192-1 세종연서우체국","openHours":"09:00~22:00","maleToilets":2,"femaleToilets":1,"disabled":false,"diaperTable":false,"emergencyBell":false,"cctv":false,"managerTel":"0448674004","source":"public","category":"public"},{"id":"202456900000101752","name":"봉암주민자치센터","lat":36.559141,"lng":127.278036,"roadAddr":"세종특별자치시 연서면 당산로 291, 연서면사무소 봉암출장소","jibunAddr":"세종특별자치시 연서면 봉암리 638-10 연서면사무소 봉암출장소","openHours":"09:00~18:00(평일)","maleToilets":4,"femaleToilets":2,"disabled":false,"diaperTable":false,"emergencyBell":false,"cctv":false,"managerTel":"0443015714","source":"public","category":"public"},{"id":"202456900000101769","name":"해밀마을 행복주택 상가","lat":36.530819,"lng":127.267704,"roadAddr":"세종특별자치시 해밀3로 85 (해밀동, 해밀마을 행복주택)","jibunAddr":"세종특별자치시 해밀동 산 1-2 해밀마을 행복주택","openHours":"상시","maleToilets":18,"femaleToilets":22,"disabled":true,"diaperTable":false,"emergencyBell":false,"cctv":false,"managerTel":"0448631223","source":"public","category":"public"},{"id":"202656900000100017","name":"해밀한빛공원","lat":36.525837,"lng":127.270173,"roadAddr":"세종특별자치시 갈매로 721-1 (해밀동)","jibunAddr":"세종특별자치시 해밀동 102","openHours":"상시","maleToilets":5,"femaleToilets":8,"disabled":true,"diaperTable":false,"emergencyBell":false,"cctv":false,"source":"public","category":"public"},{"id":"202456900000101828","name":"BMX경기장","lat":36.522384,"lng":127.267535,"roadAddr":"세종특별자치시 갈매로 680 (세종동)","jibunAddr":"세종특별자치시 세종동 659-31","openHours":"상시","maleToilets":3,"femaleToilets":7,"disabled":true,"diaperTable":true,"emergencyBell":false,"cctv":false,"managerTel":"0443013642","source":"public","category":"public"},{"id":"202456900000101553","name":"연기주유소","lat":36.544076,"lng":127.276628,"roadAddr":"세종특별자치시 연기면 당산로 116","jibunAddr":"세종특별자치시 연기면 연기리 387-6","openHours":"-","maleToilets":2,"femaleToilets":1,"disabled":false,"diaperTable":false,"emergencyBell":false,"cctv":true,"managerTel":"0448637600","source":"public","category":"public"},{"id":"202456900000101366","name":"봉암주유소","lat":36.559416,"lng":127.281354,"roadAddr":"세종특별자치시 연서면 세종로 1899","jibunAddr":"세종특별자치시 연서면 봉암리 620-93","openHours":"상시","maleToilets":2,"femaleToilets":2,"disabled":false,"diaperTable":false,"emergencyBell":false,"cctv":false,"managerTel":"0448685189","source":"public","category":"public"},{"id":"202456900000101718","name":"해밀동복합커뮤니티센터","lat":36.526894,"lng":127.26829,"roadAddr":"세종특별자치시 해밀1로 45, 해밀동 복합커뮤니티센터 (해밀동)","jibunAddr":"세종특별자치시 해밀동 325 해밀동 복합커뮤니티센터","openHours":"평일)09:00~22:00 주말)09:00~18:00","maleToilets":28,"femaleToilets":38,"disabled":true,"diaperTable":true,"emergencyBell":false,"cctv":true,"managerTel":"0443017415","source":"public","category":"public"}]