[{"id":"202044300000100691","name":"동이힐링센터 화장실","lat":36.284634,"lng":127.621415,"roadAddr":"충청북도 옥천군 동이면 옥천동이로 531","jibunAddr":"충청북도 옥천군 동이면 평산리 966","openHours":"09:00~18:00","maleToilets":3,"femaleToilets":1,"disabled":false,"diaperTable":false,"emergencyBell":false,"cctv":false,"source":"public","category":"public"},{"id":"202344300000100116","name":"금강친수공원화장실","lat":36.281634,"lng":127.644924,"jibunAddr":"충청북도 옥천군 동이면 금암리 산 82-6","openHours":"상시","maleToilets":2,"femaleToilets":2,"disabled":true,"diaperTable":false,"emergencyBell":true,"cctv":false,"source":"public","category":"public"},{"id":"202244300000100358","name":"금강쉼터 화장실","lat":36.289754,"lng":127.647853,"jibunAddr":"충청북도 옥천군 동이면 적하리 산 3-12","openHours":"상시","maleToilets":4,"femaleToilets":4,"disabled":true,"diaperTable":true,"emergencyBell":true,"cctv":true,"source":"public","category":"public"},{"id":"202444300000100892","name":"동이면사무소","lat":36.283561,"lng":127.62028,"roadAddr":"충청북도 옥천군 동이면 평산4길 2","openHours":"상시","maleToilets":3,"femaleToilets":2,"disabled":true,"diaperTable":false,"emergencyBell":true,"cctv":true,"source":"public","category":"public"},{"id":"202444300000100934","name":"동이보건지소","lat":36.284849,"lng":127.619448,"roadAddr":"충청북도 옥천군 동이면 평산길 14","openHours":"상시","maleToilets":4,"femaleToilets":2,"disabled":true,"diaperTable":false,"emergencyBell":true,"cctv":false,"source":"public","category":"public"},{"id":"202444300000101034","name":"금암리 간이화장실","lat":36.28595,"lng":127.644311,"jibunAddr":"충청북도 옥천군 동이면 금암리 1139-1","openHours":"상시","maleToilets":1,"femaleToilets":1,"disabled":false,"diaperTable":false,"emergencyBell":false,"cctv":false,"source":"public","category":"public"},{"id":"202444300000100891","name":"동이면 다목적회관","lat":36.283561,"lng":127.62028,"roadAddr":"충청북도 옥천군 동이면 평산4길 2","openHours":"상시","maleToilets":5,"femaleToilets":2,"disabled":true,"diaperTable":false,"emergencyBell":true,"cctv":true,"source":"public","category":"public"}]