[{"id":"202444300000100883","name":"청산면사무소","lat":36.346384,"lng":127.791927,"roadAddr":"충청북도 옥천군 청산면 지전1길 29","openHours":"상시","maleToilets":1,"femaleToilets":1,"disabled":true,"diaperTable":false,"emergencyBell":true,"cctv":false,"source":"public","category":"public"},{"id":"202444300000100881","name":"청산시장 공중화장실","lat":36.344709,"lng":127.792461,"roadAddr":"충청북도 옥천군 청산면 지전길 47-19","openHours":"상시","maleToilets":4,"femaleToilets":2,"disabled":false,"diaperTable":false,"emergencyBell":true,"cctv":true,"source":"public","category":"public"},{"id":"202444300000100882","name":"청산면 다목적회관","lat":36.34438,"lng":127.792146,"roadAddr":"충청북도 옥천군 청산면 지전1길 5","openHours":"상시","maleToilets":6,"femaleToilets":4,"disabled":true,"diaperTable":false,"emergencyBell":false,"cctv":true,"source":"public","category":"public"},{"id":"202444300000100923","name":"청산보건지소","lat":36.345823,"lng":127.792896,"roadAddr":"충청북도 옥천군 청산면 지전길 42","openHours":"상시","maleToilets":3,"femaleToilets":1,"disabled":true,"diaperTable":false,"emergencyBell":true,"cctv":false,"source":"public","category":"public"},{"id":"202444300000100905","name":"농업기계임대사업소 청산분소","lat":36.344959,"lng":127.785939,"roadAddr":"충청북도 옥천군 청산면 남부로 2257","openHours":"상시","maleToilets":3,"femaleToilets":2,"disabled":false,"diaperTable":false,"emergencyBell":true,"cctv":false,"source":"public","category":"public"}]