[{"id":"202244200000100336","name":"장신공원 공중화장실","lat":36.483298,"lng":127.70896,"jibunAddr":"충청북도 보은군 보은읍 장신리 130-2","openHours":"24시간","maleToilets":1,"femaleToilets":2,"disabled":true,"diaperTable":false,"emergencyBell":false,"cctv":false,"managerTel":"0435403213","source":"public","category":"public"},{"id":"202244200000100388","name":"삼년산성 내 화장실","lat":36.488535,"lng":127.742375,"roadAddr":"충청북도 보은군 보은읍 어암리 산1-1","openHours":"24시간","maleToilets":3,"femaleToilets":2,"disabled":false,"diaperTable":false,"emergencyBell":false,"cctv":false,"managerTel":"0435403409","source":"public","category":"public"},{"id":"202244200000100292","name":"보은군청서관","lat":36.489704,"lng":127.729748,"roadAddr":"충청북도 보은군 보은읍 군청길 38","openHours":"9시간","maleToilets":9,"femaleToilets":2,"disabled":false,"diaperTable":false,"emergencyBell":false,"cctv":false,"source":"public","category":"public"},{"id":"202244200000100302","name":"보은스포츠파크 주경기장본부석","lat":36.484157,"lng":127.730646,"roadAddr":"충청북도 보은군 보은읍 군청길 71","openHours":"24시간","maleToilets":2,"femaleToilets":1,"disabled":true,"diaperTable":false,"emergencyBell":false,"cctv":false,"source":"public","category":"public"},{"id":"202244200000100298","name":"특전사 사무실","lat":36.486159,"lng":127.732646,"roadAddr":"충청북도 보은군 보은읍 군청길 59-13","openHours":"24시간","maleToilets":3,"femaleToilets":2,"disabled":false,"diaperTable":false,"emergencyBell":false,"cctv":false,"source":"public","category":"public"},{"id":"202244200000100311","name":"충혼탑공중화장실","lat":36.478937,"lng":127.717296,"roadAddr":"충청북도 보은군 보은읍 죽전6길 39-17","jibunAddr":"충청북도 보은군 보은군 보은읍 죽전리 205-1","openHours":"24시간","maleToilets":2,"femaleToilets":2,"disabled":false,"diaperTable":true,"emergencyBell":true,"cctv":false,"managerTel":"0435403804","source":"public","category":"public"},{"id":"202244200000100345","name":"동다리하상주차장 공중화장실","lat":36.497211,"lng":127.718513,"jibunAddr":"충청북도 보은군 보은읍 교사리 440-1","openHours":"24시간","maleToilets":3,"femaleToilets":2,"disabled":false,"diaperTable":false,"emergencyBell":false,"cctv":false,"managerTel":"0435404008","source":"public","category":"public"},{"id":"202244200000100376","name":"보은전통시장 공중화장실","lat":36.483955,"lng":127.720588,"roadAddr":"충청북도 보은군 삼산로1길8","jibunAddr":"충청북도 보은군 보은읍 삼산리 139-13","openHours":"24시간","maleToilets":5,"femaleToilets":3,"disabled":true,"diaperTable":false,"emergencyBell":false,"cctv":false,"managerTel":"0435403232","source":"public","category":"public"},{"id":"202244200000100300","name":"보은스포츠파크 B야구장본부석","lat":36.484157,"lng":127.730646,"roadAddr":"충청북도 보은군 보은읍 군청길 71","openHours":"24시간","maleToilets":5,"femaleToilets":6,"disabled":true,"diaperTable":false,"emergencyBell":false,"cctv":false,"source":"public","category":"public"},{"id":"202244200000100301","name":"보은스포츠파크 씨름경기장앞","lat":36.484157,"lng":127.730646,"roadAddr":"충청북도 보은군 보은읍 군청길 71","openHours":"24시간","maleToilets":5,"femaleToilets":6,"disabled":true,"diaperTable":false,"emergencyBell":true,"cctv":false,"source":"public","category":"public"},{"id":"202244200000100295","name":"공설운동장","lat":36.488195,"lng":127.729119,"roadAddr":"충청북도 보은군 보은읍 군청길 38-1","openHours":"24시간","maleToilets":5,"femaleToilets":4,"disabled":true,"diaperTable":false,"emergencyBell":false,"cctv":false,"source":"public","category":"public"},{"id":"202244200000100377","name":"중앙사거리","lat":36.483024,"lng":127.718499,"roadAddr":"충청북도 보은군 보은읍 보은로 100-4","jibunAddr":"충청북도 보은군 보은읍 삼산리 34번지","openHours":"24시간","maleToilets":5,"femaleToilets":4,"disabled":true,"diaperTable":true,"emergencyBell":false,"cctv":true,"source":"public","category":"public"},{"id":"202244200000100257","name":"생활체육공원 인조구장B구장","lat":36.486159,"lng":127.732646,"roadAddr":"충청북도 보은군 보은읍 군청길 59-13","jibunAddr":"충청북도 보은군 보은읍 성주리 346","openHours":"24시간","maleToilets":6,"femaleToilets":3,"disabled":true,"diaperTable":false,"emergencyBell":true,"cctv":false,"source":"public","category":"public"},{"id":"202244200000100303","name":"보은스포츠파크 야구장본부석","lat":36.484157,"lng":127.730646,"roadAddr":"충청북도 보은군 보은읍 군청길 71","openHours":"24시간","maleToilets":5,"femaleToilets":6,"disabled":true,"diaperTable":false,"emergencyBell":true,"cctv":false,"source":"public","category":"public"},{"id":"202244200000100344","name":"보은대교 공중화장실","lat":36.48215,"lng":127.723382,"jibunAddr":"충청북도 보은군 보은읍 삼산리 211","openHours":"24시간","maleToilets":3,"femaleToilets":2,"disabled":false,"diaperTable":false,"emergencyBell":false,"cctv":false,"managerTel":"0435404008","source":"public","category":"public"},{"id":"202244200000100320","name":"상하수도사업소","lat":36.492877,"lng":127.723272,"roadAddr":"충청북도 보은군 보은읍 마루들길29","jibunAddr":"충청북도 보은군 보은읍 풍취리 490","openHours":"09~18","maleToilets":10,"femaleToilets":6,"disabled":true,"diaperTable":false,"emergencyBell":false,"cctv":false,"managerTel":"0435404362","source":"public","category":"public"},{"id":"202244200000100256","name":"생활체육공원 인조구장A구장","lat":36.484649,"lng":127.728222,"roadAddr":"충청북도 보은군 보은읍 군청길 90","jibunAddr":"충청북도 보은군 보은읍 이평리 9-1","openHours":"24시간","maleToilets":6,"femaleToilets":3,"disabled":true,"diaperTable":false,"emergencyBell":true,"cctv":false,"source":"public","category":"public"},{"id":"202244200000100296","name":"국민체육센터","lat":36.488195,"lng":127.729119,"roadAddr":"충청북도 보은군 보은읍 군청길 38-1","openHours":"24시간","maleToilets":10,"femaleToilets":11,"disabled":true,"diaperTable":false,"emergencyBell":false,"cctv":false,"source":"public","category":"public"},{"id":"202244200000100387","name":"삼년산성 주차장 공중화장실","lat":36.48735,"lng":127.738106,"roadAddr":"충청북도 보은군 보은읍 성주리 11-6","openHours":"24시간","maleToilets":4,"femaleToilets":3,"disabled":true,"diaperTable":false,"emergencyBell":false,"cctv":false,"managerTel":"0435403409","source":"public","category":"public"},{"id":"202244200000100299","name":"결초보은 체육관","lat":36.484157,"lng":127.730646,"roadAddr":"충청북도 보은군 보은읍 군청길 71","openHours":"24시간","maleToilets":5,"femaleToilets":6,"disabled":true,"diaperTable":false,"emergencyBell":false,"cctv":false,"source":"public","category":"public"},{"id":"202244200000100391","name":"결초보은 문화누리관 공중화장실","lat":36.487533,"lng":127.723199,"roadAddr":"충청북도 보은군 보은읍 뱃들로 68-22","openHours":"15시간","maleToilets":9,"femaleToilets":10,"disabled":true,"diaperTable":true,"emergencyBell":true,"cctv":true,"source":"public","category":"public"},{"id":"202244200000100390","name":"역사테마공원 화장실","lat":36.494417,"lng":127.739959,"roadAddr":"충청북도 보은군 보은읍 보청대로 1655-30","openHours":"24시간","maleToilets":6,"femaleToilets":8,"disabled":true,"diaperTable":true,"emergencyBell":false,"cctv":false,"managerTel":"0435403409","source":"public","category":"public"},{"id":"202244200000100294","name":"보은군청본관","lat":36.489704,"lng":127.729748,"roadAddr":"충청북도 보은군 보은읍 군청길 38","openHours":"9시간","maleToilets":22,"femaleToilets":7,"disabled":true,"diaperTable":false,"emergencyBell":true,"cctv":false,"source":"public","category":"public"},{"id":"202244200000100337","name":"삼산공원 공중화장실","lat":36.485551,"lng":127.714799,"jibunAddr":"충청북도 보은군 보은읍 삼산리 175-183","openHours":"24시간","maleToilets":1,"femaleToilets":2,"disabled":true,"diaperTable":false,"emergencyBell":true,"cctv":false,"managerTel":"0435403213","source":"public","category":"public"},{"id":"202244200000100304","name":"보은공설운동장","lat":36.487153,"lng":127.730966,"roadAddr":"충청북도 보은군 보은읍 군청길 50","openHours":"24시간","maleToilets":4,"femaleToilets":6,"disabled":true,"diaperTable":true,"emergencyBell":true,"cctv":false,"source":"public","category":"public"},{"id":"202244200000100291","name":"보은군청별관","lat":36.489704,"lng":127.729748,"roadAddr":"충청북도 보은군 보은읍 군청길 38","openHours":"9시간","maleToilets":21,"femaleToilets":9,"disabled":true,"diaperTable":true,"emergencyBell":true,"cctv":false,"source":"public","category":"public"},{"id":"202244200000100392","name":"결초보은 문화누리관 앞 공중화장실","lat":36.487533,"lng":127.723199,"roadAddr":"충청북도 보은군 보은읍 뱃들로 68-22","openHours":"24시간","maleToilets":3,"femaleToilets":4,"disabled":true,"diaperTable":false,"emergencyBell":false,"cctv":false,"source":"public","category":"public"},{"id":"202244200000100393","name":"문화예술회관","lat":36.486946,"lng":127.724138,"roadAddr":"보은군 보은읍 뱃들로 54","jibunAddr":"보은군 보은읍 이평리 125","openHours":"10시간","maleToilets":7,"femaleToilets":2,"disabled":true,"diaperTable":false,"emergencyBell":true,"cctv":false,"managerTel":"0435403755","source":"public","category":"public"},{"id":"202244200000100348","name":"보건소 공중화장실","lat":36.486707,"lng":127.716154,"roadAddr":"충청북도 보은군 보은읍 동광길 50","openHours":"9시간","maleToilets":7,"femaleToilets":10,"disabled":true,"diaperTable":false,"emergencyBell":true,"cctv":false,"managerTel":"0435405602","source":"public","category":"public"},{"id":"202244200000100389","name":"향토민속자료전시관 내 화장실","lat":36.489704,"lng":127.729748,"roadAddr":"충청북도 보은군 보은읍 군청길 38","openHours":"8시간","maleToilets":4,"femaleToilets":2,"disabled":false,"diaperTable":false,"emergencyBell":false,"cctv":false,"managerTel":"0435403409","source":"public","category":"public"},{"id":"202244200000100343","name":"보은읍사무소 공중화장실","lat":36.483586,"lng":127.716968,"roadAddr":"충청북도 보은군 보은읍 삼산로 50","openHours":"9시간","maleToilets":16,"femaleToilets":6,"disabled":true,"diaperTable":false,"emergencyBell":false,"cctv":false,"managerTel":"0435404008","source":"public","category":"public"},{"id":"202244200000100346","name":"까막샘거리 간이화장실","lat":36.483129,"lng":127.715518,"jibunAddr":"충청북도 보은군 보은읍 삼산리 199-9","openHours":"24시간","maleToilets":1,"femaleToilets":1,"disabled":false,"diaperTable":false,"emergencyBell":false,"cctv":false,"managerTel":"0435404008","source":"public","category":"public"},{"id":"202244200000100293","name":"보은군청동관","lat":36.489704,"lng":127.729748,"roadAddr":"충청북도 보은군 보은읍 군청길 38","openHours":"9시간","maleToilets":14,"femaleToilets":8,"disabled":true,"diaperTable":false,"emergencyBell":false,"cctv":false,"source":"public","category":"public"},{"id":"202244200000100297","name":"해병대 사무실","lat":36.491027,"lng":127.730073,"roadAddr":"충청북도 보은군 보은읍 성주리 288-7","openHours":"24시간","maleToilets":3,"femaleToilets":2,"disabled":false,"diaperTable":false,"emergencyBell":false,"cctv":false,"source":"public","category":"public"}]