[{"id":"202351200000100359","name":"해돋이민박 맞은편","lat":36.552166,"lng":127.966351,"roadAddr":"경상북도 문경시 농암면 서재로 756","jibunAddr":"경상북도 문경시 농암면 내서리 349","openHours":"상시","maleToilets":3,"femaleToilets":1,"disabled":false,"diaperTable":false,"emergencyBell":false,"cctv":false,"managerTel":"0545508765","source":"public","category":"public"},{"id":"202351200000100362","name":"서재로(중)","lat":36.535551,"lng":127.950818,"jibunAddr":"경상북도 문경시 농암면 내서리 822","openHours":"상시","maleToilets":3,"femaleToilets":1,"disabled":false,"diaperTable":false,"emergencyBell":false,"cctv":false,"managerTel":"0545508765","source":"public","category":"public"},{"id":"202351200000100360","name":"쌍용폭포설악가든 옆","lat":36.547518,"lng":127.963649,"roadAddr":"경상북도 문경시 농암면 서재로 699","jibunAddr":"경상북도 문경시 내서리 357-1","openHours":"상시","maleToilets":3,"femaleToilets":1,"disabled":false,"diaperTable":false,"emergencyBell":false,"cctv":false,"managerTel":"0545508765","source":"public","category":"public"},{"id":"202351200000100358","name":"솔수펑이펜션 맞은편","lat":36.555308,"lng":127.967067,"roadAddr":"경상북도 문경시 농암면 서재로 795","jibunAddr":"경상북도 문경시 농암면 내서리 346","openHours":"상시","maleToilets":1,"femaleToilets":2,"disabled":false,"diaperTable":false,"emergencyBell":false,"cctv":false,"managerTel":"0545508765","source":"public","category":"public"},{"id":"202351200000100361","name":"서재로(초)","lat":36.538645,"lng":127.954621,"roadAddr":"경상북도 문경시 농암면 서재로 550","jibunAddr":"경상북도 문경시 농암면 내서리 산 137","openHours":"상시","maleToilets":3,"femaleToilets":1,"disabled":false,"diaperTable":false,"emergencyBell":false,"cctv":false,"managerTel":"0545508765","source":"public","category":"public"},{"id":"202351200000100363","name":"서재로 꼭대기","lat":36.529119,"lng":127.948098,"jibunAddr":"경상북도 문경시 농암면 내서리 산 9-37","openHours":"상시","maleToilets":2,"femaleToilets":1,"disabled":false,"diaperTable":false,"emergencyBell":false,"cctv":false,"managerTel":"0545508765","source":"public","category":"public"}]