[{"id":"202351100000100016","name":"다목적광장1","lat":36.387912,"lng":127.950519,"roadAddr":"경상북도 상주시 이소3길 15","jibunAddr":"경상북도 상주시 이소리 431","openHours":"상시","maleToilets":1,"femaleToilets":0,"disabled":false,"diaperTable":false,"emergencyBell":false,"cctv":false,"managerTel":"0545378911","source":"public","category":"public"},{"id":"202451100000100084","name":"화동파출소","lat":36.38903,"lng":127.953928,"roadAddr":"경상북도 상주시 화동면 이소1길 42","jibunAddr":"경상북도 상주시 화동면 이소리 368-2","openHours":"(평일)09:00-18:00","maleToilets":2,"femaleToilets":0,"disabled":false,"diaperTable":false,"emergencyBell":false,"cctv":false,"managerTel":"0545334112","source":"public","category":"public"},{"id":"202351100000100306","name":"화동면행정복지센터","lat":36.389428,"lng":127.954359,"roadAddr":"경상북도 상주시 화동면 이소1길 42-5","jibunAddr":"경상북도 상주시 화동면 이소리 362-4","openHours":"9:00~18:00","maleToilets":3,"femaleToilets":1,"disabled":true,"diaperTable":false,"emergencyBell":false,"cctv":false,"managerTel":"0545378911","source":"public","category":"public"},{"id":"202351100000100019","name":"반곡저수지","lat":36.389363,"lng":127.929975,"jibunAddr":"경상북도 상주시 반곡리 산15-6","openHours":"상시","maleToilets":1,"femaleToilets":0,"disabled":false,"diaperTable":false,"emergencyBell":false,"cctv":false,"managerTel":"0545378911","source":"public","category":"public"},{"id":"202351100000100318","name":"화동면보건지소","lat":36.387596,"lng":127.955015,"roadAddr":"경상북도 상주시 화동면 이소1길 24","jibunAddr":"경상북도 상주시 화동면 이소리 379-11","openHours":"09:00~18:00","maleToilets":1,"femaleToilets":1,"disabled":false,"diaperTable":false,"emergencyBell":false,"cctv":false,"managerTel":"0545339776","source":"public","category":"public"},{"id":"202351100000100015","name":"다목적광장2","lat":36.387912,"lng":127.950519,"roadAddr":"경상북도 상주시 이소3길 15","jibunAddr":"경상북도 상주시 이소리 431","openHours":"상시","maleToilets":0,"femaleToilets":1,"disabled":false,"diaperTable":false,"emergencyBell":false,"cctv":false,"managerTel":"0545378911","source":"public","category":"public"}]