[{"id":"202453100000101947","name":"경상남도 수목원(열대식물원)","lat":35.157198,"lng":128.295736,"roadAddr":"경상남도 진주시 이반성면 수목원로 386","jibunAddr":"경상남도 진주시 이반성면 대천리 산3","openHours":"정시","maleToilets":6,"femaleToilets":6,"disabled":true,"diaperTable":true,"emergencyBell":true,"cctv":true,"managerTel":"0552543811","source":"public","category":"public"},{"id":"202453100000101980","name":"일반성파출소","lat":35.172043,"lng":128.277702,"roadAddr":"경상남도 진주시 일반성면 창촌길 27-1","jibunAddr":"경상남도 진주시 일반성면 창촌리 546-1","openHours":"상시","maleToilets":1,"femaleToilets":1,"disabled":true,"diaperTable":false,"emergencyBell":false,"cctv":false,"managerTel":"0557546112","source":"public","category":"public"},{"id":"202453100000102137","name":"대양주유소","lat":35.170215,"lng":128.282218,"roadAddr":"경상남도 진주시 일반성면 동부로 2016","jibunAddr":"경상남도 진주시 일반성면 창촌리 73-1","openHours":"정시","maleToilets":3,"femaleToilets":3,"disabled":false,"diaperTable":false,"emergencyBell":false,"cctv":false,"managerTel":"0557495233","source":"public","category":"public"},{"id":"202453100000101945","name":"경상남도수목원주차장","lat":35.157198,"lng":128.295736,"roadAddr":"경상남도 진주시 이반성면 수목원로 386","jibunAddr":"경상남도 진주시 이반성면 대천리 산3","openHours":"상시","maleToilets":19,"femaleToilets":13,"disabled":false,"diaperTable":true,"emergencyBell":true,"cctv":false,"managerTel":"0552543811","source":"public","category":"public"},{"id":"202453100000102194","name":"동부5개면 파크골프장","lat":35.18492,"lng":128.287469,"jibunAddr":"경상남도 진주시 사봉면 사곡리 1853","openHours":"정시","maleToilets":4,"femaleToilets":3,"disabled":false,"diaperTable":false,"emergencyBell":false,"cctv":false,"managerTel":"0557498613","source":"public","category":"public"},{"id":"202453100000102295","name":"일반성면보건지소","lat":35.171278,"lng":128.277166,"roadAddr":"경상남도 진주시 일반성면 동부로 1959번길 2","jibunAddr":"경상남도 진주시 일반성면 창촌리 623-1","openHours":"정시","maleToilets":3,"femaleToilets":2,"disabled":false,"diaperTable":false,"emergencyBell":false,"cctv":false,"managerTel":"0557495724","source":"public","category":"public"},{"id":"202453100000101995","name":"반성119지역대","lat":35.168091,"lng":128.285552,"roadAddr":"경상남도 진주시 일반성면 동부로 2060번길 21","jibunAddr":"경상남도 진주시 일반성면 개암리 790-13","openHours":"상시","maleToilets":2,"femaleToilets":0,"disabled":true,"diaperTable":false,"emergencyBell":false,"cctv":false,"managerTel":"0557609412","source":"public","category":"public"},{"id":"202453100000101950","name":"경상남도수목원박물관","lat":35.161117,"lng":128.296648,"jibunAddr":"경상남도 진주시 이반성면 대천리 437","openHours":"정시","maleToilets":9,"femaleToilets":10,"disabled":false,"diaperTable":true,"emergencyBell":true,"cctv":true,"managerTel":"0552543811","source":"public","category":"public"},{"id":"202453100000101951","name":"경상남도산림환경연구원","lat":35.157198,"lng":128.295736,"roadAddr":"경상남도 진주시 이반성면 수목원로 386","jibunAddr":"경상남도 진주시 이반성면 대천리 482-1","openHours":"정시","maleToilets":8,"femaleToilets":4,"disabled":false,"diaperTable":false,"emergencyBell":true,"cctv":true,"managerTel":"0552543811","source":"public","category":"public"},{"id":"202453100000102388","name":"반성시장","lat":35.170736,"lng":128.282749,"roadAddr":"경상남도 진주시 일반성면 동부로 2019-3","jibunAddr":"경상남도 진주시 일반성면 창촌리 85-2","openHours":"상시","maleToilets":5,"femaleToilets":3,"disabled":false,"diaperTable":false,"emergencyBell":true,"cctv":true,"managerTel":"0557494763","source":"public","category":"public"},{"id":"202453100000101949","name":"경상남도수목원 체험학습장","lat":35.157198,"lng":128.295736,"roadAddr":"경상남도 진주시 이반성면 수목원로 386","jibunAddr":"경상남도 진주시 이반성면 대천리 482-1","openHours":"정시","maleToilets":3,"femaleToilets":2,"disabled":true,"diaperTable":false,"emergencyBell":true,"cctv":true,"managerTel":"0552543866","source":"public","category":"public"},{"id":"202453100000102109","name":"삼거리주유소","lat":35.199452,"lng":128.277704,"roadAddr":"경상남도 진주시 사봉면 지수로1","jibunAddr":"경상남도 진주시 사봉면 봉곡리 1004-2","openHours":"정시","maleToilets":5,"femaleToilets":2,"disabled":false,"diaperTable":false,"emergencyBell":false,"cctv":false,"managerTel":"0557495233","source":"public","category":"public"},{"id":"202453100000101952","name":"경남남도 수목원(동물원)","lat":35.157198,"lng":128.295736,"roadAddr":"경상남도 진주시 이반성면 수목원로 386","jibunAddr":"경상남도 진주시 이반성면 대천리 530","openHours":"정시","maleToilets":3,"femaleToilets":1,"disabled":false,"diaperTable":false,"emergencyBell":true,"cctv":true,"managerTel":"0552543811","source":"public","category":"public"},{"id":"202453100000101946","name":"경상남도수목원(수생식물원)","lat":35.161145,"lng":128.29163,"jibunAddr":"경상남도 진주시 이반성면 대천리 504-1","openHours":"정시","maleToilets":6,"femaleToilets":3,"disabled":true,"diaperTable":true,"emergencyBell":true,"cctv":true,"managerTel":"0552543811","source":"public","category":"public"},{"id":"202453100000101948","name":"경상남도수목원전망대","lat":35.157198,"lng":128.295736,"roadAddr":"경상남도 진주시 이반성면 수목원로 386","jibunAddr":"경상남도 진주시 이반성면 대천리 산3","openHours":"정시","maleToilets":5,"femaleToilets":4,"disabled":true,"diaperTable":false,"emergencyBell":true,"cctv":true,"managerTel":"0552543811","source":"public","category":"public"}]