[{"id":"202653900000100007","name":"의령경찰서 칠곡파출소","lat":35.341097,"lng":128.192103,"roadAddr":"경상남도 의령군 칠곡면 칠곡로 32, 의령경찰서칠곡파출소","jibunAddr":"경상남도 의령군 칠곡면 신포리 441 의령경찰서칠곡파출소","openHours":"정시","maleToilets":2,"femaleToilets":1,"disabled":false,"diaperTable":false,"emergencyBell":false,"cctv":false,"managerTel":"0555738112","source":"public","category":"public"},{"id":"202453900000100042","name":"칠곡면사무소","lat":35.341465,"lng":128.192422,"roadAddr":"경상남도 의령군 칠곡면 칠곡로 33","jibunAddr":"경상남도 의령군 칠곡면 외조리 105-5","openHours":"정시","maleToilets":3,"femaleToilets":1,"disabled":true,"diaperTable":false,"emergencyBell":false,"cctv":false,"source":"public","category":"public"},{"id":"202453900000100040","name":"내조자굴산입구","lat":35.35464,"lng":128.195001,"roadAddr":"경상남도 의령군 칠곡면 자굴산로 159-2, 공동화장실","jibunAddr":"경상남도 의령군 칠곡면 내조리 331-2 공동화장실","openHours":"정시","maleToilets":3,"femaleToilets":1,"disabled":true,"diaperTable":false,"emergencyBell":true,"cctv":true,"source":"public","category":"public"},{"id":"202453900000100010","name":"칠곡면신포숲","lat":35.334501,"lng":128.201729,"roadAddr":"경상남도 의령군 칠곡면 진의로 2243-3, 신포숲공중화장실","jibunAddr":"경상남도 의령군 칠곡면 신포리 340-9 신포숲공중화장실","openHours":"정시","maleToilets":5,"femaleToilets":2,"disabled":true,"diaperTable":true,"emergencyBell":true,"cctv":true,"managerTel":"0555703742","source":"public","category":"public"},{"id":"202453900000100041","name":"의령주유소","lat":35.334455,"lng":128.217869,"roadAddr":"경상남도 의령군 가례면 의령대로 1166","jibunAddr":"경상남도 의령군 가례면 대천리 452-2","openHours":"정시","maleToilets":2,"femaleToilets":1,"disabled":false,"diaperTable":false,"emergencyBell":false,"cctv":false,"source":"public","category":"public"}]