[{"id":"202356700000101005","name":"명곡지구대 화장실","lat":35.244314,"lng":128.651138,"roadAddr":"경상남도의창구원이대로261번길16-19","openHours":"-","maleToilets":3,"femaleToilets":1,"disabled":true,"diaperTable":false,"emergencyBell":false,"cctv":false,"source":"public","category":"public"},{"id":"202356700000100381","name":"봉곡중앙어린이공원","lat":35.247755,"lng":128.665117,"roadAddr":"경상남도 창원시 의창구 봉곡로54번길 17, 공중화장실 (봉곡동)","jibunAddr":"경상남도 창원시 의창구 봉곡동 106 공중화장실","openHours":"상시","maleToilets":5,"femaleToilets":2,"disabled":false,"diaperTable":false,"emergencyBell":true,"cctv":false,"managerTel":"0552124507","source":"public","category":"public"},{"id":"202356700000100951","name":"명곡도서관","lat":35.253174,"lng":128.648654,"roadAddr":"경상남도의창구서곡길21,명곡도서관(명서동)","openHours":"상시","maleToilets":31,"femaleToilets":16,"disabled":true,"diaperTable":true,"emergencyBell":false,"cctv":false,"source":"public","category":"public"},{"id":"202656701230100013","name":"봉림동주민센터","lat":35.251921,"lng":128.667587,"roadAddr":"경상남도 창원시 의창구 대봉로26번길 5, 봉림동 행정복지센터 (봉림동)","jibunAddr":"경상남도 창원시 의창구 봉림동 680 봉림동 행정복지센터","openHours":"09:00~18:00","maleToilets":20,"femaleToilets":19,"disabled":true,"diaperTable":false,"emergencyBell":false,"cctv":false,"source":"public","category":"public"},{"id":"202356700000100964","name":"창원도계동우체국","lat":35.25286,"lng":128.638512,"roadAddr":"경상남도의창구태복산로3번길7,창원도계동우체국(도계동)","openHours":"09:00~18:00","maleToilets":2,"femaleToilets":2,"disabled":false,"diaperTable":false,"emergencyBell":false,"cctv":false,"source":"public","category":"public"},{"id":"202356700000100796","name":"의창구청","lat":35.25394,"lng":128.639925,"roadAddr":"경상남도창원시의창구태복산로15번길8(도계동,의창구청,명곡동주민센터)","openHours":"근무시간 내","maleToilets":30,"femaleToilets":15,"disabled":true,"diaperTable":false,"emergencyBell":false,"cctv":false,"source":"public","category":"public"},{"id":"202356700000100764","name":"사화공원 화장실","lat":35.252264,"lng":128.630371,"roadAddr":"경상남도 창원시 의창구 중동남로 92 (도계동)","jibunAddr":"경상남도 창원시 의창구 도계동 915-9","openHours":"상시","maleToilets":6,"femaleToilets":6,"disabled":true,"diaperTable":false,"emergencyBell":true,"cctv":false,"source":"public","category":"public"},{"id":"202356700000100687","name":"봉림동행정복지센터","lat":35.251921,"lng":128.667587,"roadAddr":"경상남도 창원시 의창구 대봉로26번길 5, 봉림동 행정복지센터 (봉림동)","jibunAddr":"경상남도 창원시 의창구 봉림동 680 봉림동 행정복지센터","openHours":"09:00-18:00","maleToilets":20,"femaleToilets":19,"disabled":true,"diaperTable":true,"emergencyBell":false,"cctv":false,"source":"public","category":"public"},{"id":"202356700000100376","name":"한들공원","lat":35.254308,"lng":128.667633,"roadAddr":"경상남도 창원시 의창구 대봉로42번길 13 (봉림동)","jibunAddr":"경상남도 창원시 의창구 봉림동 523-3","openHours":"상시","maleToilets":3,"femaleToilets":2,"disabled":true,"diaperTable":false,"emergencyBell":true,"cctv":false,"managerTel":"0552124512","source":"public","category":"public"},{"id":"202356700000100403","name":"소답주민운동장","lat":35.266892,"lng":128.629953,"jibunAddr":"경상남도창원시의창구소답동550-1","openHours":"상시","maleToilets":2,"femaleToilets":1,"disabled":true,"diaperTable":false,"emergencyBell":true,"cctv":false,"managerTel":"0552124521","source":"public","category":"public"},{"id":"202656701230100010","name":"명서1민원센터화장실","lat":35.245794,"lng":128.649093,"roadAddr":"경상남도 창원시 의창구 명지로122번길 20, 명서1민원센터 (명서동)","jibunAddr":"경상남도 창원시 의창구 명서동 174-14 명서1민원센터","openHours":"09:00~18:00","maleToilets":3,"femaleToilets":2,"disabled":false,"diaperTable":false,"emergencyBell":false,"cctv":false,"source":"public","category":"public"},{"id":"202656701230100018","name":"소답주민운동장 축구장","lat":35.267669,"lng":128.630281,"roadAddr":"경상남도 창원시 의창구 의창대로317번길 66 (소답동)","jibunAddr":"경상남도 창원시 의창구 소답동 550-1","openHours":"상시","maleToilets":2,"femaleToilets":1,"disabled":true,"diaperTable":false,"emergencyBell":true,"cctv":true,"managerTel":"0552124521","source":"public","category":"public"},{"id":"202356700000100762","name":"중동119안전센터 화장실","lat":35.258592,"lng":128.630969,"roadAddr":"경상남도 창원시 의창구 중동중앙로 119, 의창소방서 소답119안전센터 (중동)","jibunAddr":"경상남도 창원시 의창구 중동 780","openHours":"상시","maleToilets":4,"femaleToilets":3,"disabled":true,"diaperTable":false,"emergencyBell":false,"cctv":false,"managerTel":"0552259361","source":"public","category":"public"},{"id":"202656701230100009","name":"명곡동행정복지센터화장실","lat":35.25394,"lng":128.639925,"roadAddr":"경상남도 창원시 의창구 태복산로15번길 8, 명곡동행정복지센터 (도계동)","jibunAddr":"경상남도 창원시 의창구 도계동 895 명곡동행정복지센터","openHours":"09:00~18:00","maleToilets":15,"femaleToilets":10,"disabled":true,"diaperTable":false,"emergencyBell":false,"cctv":false,"source":"public","category":"public"},{"id":"202356700000100400","name":"도계체육공원","lat":35.258352,"lng":128.641193,"roadAddr":"경상남도창원시의창구도계두리길199","jibunAddr":"경상남도창원시의창구도계동389","openHours":"상시","maleToilets":3,"femaleToilets":2,"disabled":true,"diaperTable":false,"emergencyBell":true,"cctv":true,"managerTel":"0552124521","source":"public","category":"public"},{"id":"202356700000100766","name":"중앙2호근린공원 화장실","lat":35.25631,"lng":128.628312,"roadAddr":"경상남도 창원시 의창구 중동로 49 (중동)","jibunAddr":"경상남도 창원시 의창구 중동 793-2","openHours":"상시","maleToilets":3,"femaleToilets":1,"disabled":false,"diaperTable":false,"emergencyBell":true,"cctv":false,"source":"public","category":"public"},{"id":"202356700000100369","name":"사화근린공원(39사 역사전시관)","lat":35.252264,"lng":128.630371,"roadAddr":"경상남도 창원시 의창구 중동남로 92 (도계동)","jibunAddr":"경상남도 창원시 의창구 도계동 915-9","openHours":"상시","maleToilets":2,"femaleToilets":3,"disabled":false,"diaperTable":true,"emergencyBell":true,"cctv":false,"managerTel":"0552124520","source":"public","category":"public"},{"id":"202356700000100375","name":"큰나무공원","lat":35.251643,"lng":128.668681,"roadAddr":"경상남도 창원시 의창구 대봉로26번길 13 (봉림동)","jibunAddr":"경상남도 창원시 의창구 봉림동 683","openHours":"상시","maleToilets":2,"femaleToilets":2,"disabled":true,"diaperTable":false,"emergencyBell":true,"cctv":false,"managerTel":"0552124513","source":"public","category":"public"},{"id":"202356700000100765","name":"중앙1호근린공원 화장실","lat":35.25381,"lng":128.628858,"roadAddr":"경상남도 창원시 의창구 중동남로 77 (중동)","jibunAddr":"경상남도 창원시 의창구 중동 793-3","openHours":"상시","maleToilets":1,"femaleToilets":1,"disabled":false,"diaperTable":false,"emergencyBell":true,"cctv":false,"source":"public","category":"public"},{"id":"202356700000100717","name":"경상남도유아교육원 화장실","lat":35.248301,"lng":128.662616,"roadAddr":"경상남도창원시의창구봉곡로23번길2(봉곡동,경상남도유아교육원)","openHours":"-","maleToilets":26,"femaleToilets":21,"disabled":true,"diaperTable":true,"emergencyBell":false,"cctv":false,"source":"public","category":"public"},{"id":"202356700000101049","name":"의창노인복지관","lat":35.25281,"lng":128.647867,"roadAddr":"경상남도의창구서곡길15","openHours":"9시간","maleToilets":25,"femaleToilets":12,"disabled":true,"diaperTable":false,"emergencyBell":true,"cctv":false,"source":"public","category":"public"},{"id":"202356700000100370","name":"중앙1호근린공원","lat":35.253581,"lng":128.628541,"jibunAddr":"경상남도창원시의창구중동793-3","openHours":"24시간","maleToilets":3,"femaleToilets":3,"disabled":true,"diaperTable":true,"emergencyBell":true,"cctv":false,"managerTel":"0552124519","source":"public","category":"public"},{"id":"202356700000100761","name":"의창스포츠센터 공중화장실","lat":35.25594,"lng":128.633863,"roadAddr":"경상남도창원시의창구원이대로56번길11(도계동,의창스포츠센터)","openHours":"06:00~22:00","maleToilets":40,"femaleToilets":23,"disabled":true,"diaperTable":true,"emergencyBell":true,"cctv":true,"source":"public","category":"public"},{"id":"202356700000100378","name":"사화근린공원(판매시설)","lat":35.252553,"lng":128.628548,"roadAddr":"경상남도 창원시 의창구 중동남로 74 (중동)","jibunAddr":"경상남도 창원시 의창구 중동 794-11","openHours":"상시","maleToilets":6,"femaleToilets":6,"disabled":true,"diaperTable":false,"emergencyBell":true,"cctv":false,"managerTel":"0552124510","source":"public","category":"public"},{"id":"202356700000100960","name":"창원봉곡동우체국","lat":35.245596,"lng":128.658547,"roadAddr":"경상남도의창구지귀로119번길2,창원봉곡동우체국(봉곡동)","openHours":"09:00~18:00","maleToilets":2,"femaleToilets":0,"disabled":true,"diaperTable":false,"emergencyBell":false,"cctv":false,"source":"public","category":"public"},{"id":"202356700000100788","name":"봉곡119안전센터 화장실","lat":35.245165,"lng":128.658685,"roadAddr":"경상남도 창원시 의창구 지귀로 127, 봉곡119안전센터 (봉곡동)","jibunAddr":"경상남도 창원시 의창구 봉곡동 61-2 봉곡119안전센터","openHours":"상시","maleToilets":3,"femaleToilets":1,"disabled":true,"diaperTable":false,"emergencyBell":false,"cctv":false,"managerTel":"0552259371","source":"public","category":"public"},{"id":"202356700000100398","name":"봉곡 운동장","lat":35.24578,"lng":128.656669,"roadAddr":"경상남도창원시의창구창이대로169번길16-17","jibunAddr":"경상남도창원시의창구봉곡동57","openHours":"상시","maleToilets":4,"femaleToilets":2,"disabled":false,"diaperTable":false,"emergencyBell":true,"cctv":true,"managerTel":"0552124521","source":"public","category":"public"}]