[{"id":"202454000000100299","name":"입곡군립공원(출렁다리)","lat":35.267457,"lng":128.444208,"roadAddr":"경상남도 함안군 산인면 입곡공원길 138, 입곡공원 출렁다리 공중화장실","jibunAddr":"경상남도 함안군 산인면 입곡리 산 95-2 입곡공원 출렁다리 공중화장실","openHours":"상시","maleToilets":5,"femaleToilets":3,"disabled":true,"diaperTable":false,"emergencyBell":true,"cctv":false,"managerTel":"0555804594","source":"public","category":"public"},{"id":"202454000000100335","name":"입곡 멀티플 센터","lat":35.261758,"lng":128.450013,"roadAddr":"경상남도 함안군 산인면 입곡공원길 291-12","jibunAddr":"경상남도 함안군 산인면 입곡리 1156","openHours":"(09:00∼18:00)","maleToilets":3,"femaleToilets":2,"disabled":false,"diaperTable":false,"emergencyBell":false,"cctv":false,"managerTel":"0555804556","source":"public","category":"public"},{"id":"202454000000100396","name":"산인면사무소 청사","lat":35.2793,"lng":128.424296,"roadAddr":"경상남도 함안군 산인면 가야로 211, 산인면사무소","jibunAddr":"경상남도 함안군 산인면 송정리 1019-1 산인면사무소","openHours":"(09:00∼18:00)","maleToilets":5,"femaleToilets":3,"disabled":false,"diaperTable":false,"emergencyBell":false,"cctv":false,"managerTel":"0555803851","source":"public","category":"public"},{"id":"202454000000100296","name":"입곡문화공원","lat":35.262175,"lng":128.445589,"roadAddr":"경상남도 함안군 산인면 입곡공원길 224-44, 입곡문화공원 공중화장실","jibunAddr":"경상남도 함안군 산인면 입곡리 1119 입곡문화공원 공중화장실","openHours":"상시","maleToilets":8,"femaleToilets":6,"disabled":true,"diaperTable":false,"emergencyBell":true,"cctv":false,"managerTel":"0555804594","source":"public","category":"public"},{"id":"202454000000100312","name":"함안군선거관리위원회","lat":35.273551,"lng":128.409952,"roadAddr":"경상남도 함안군 가야읍 말산로 29","openHours":"(09:00∼18:00)","maleToilets":3,"femaleToilets":1,"disabled":false,"diaperTable":false,"emergencyBell":false,"cctv":false,"managerTel":"0555852273","source":"public","category":"public"},{"id":"202454000000100317","name":"함마대로주유소","lat":35.273356,"lng":128.449302,"roadAddr":"경상남도 함안군 산인면 함마대로 2035 (모곡리)","openHours":"(09:00∼20:00)","maleToilets":2,"femaleToilets":2,"disabled":false,"diaperTable":false,"emergencyBell":false,"cctv":false,"managerTel":"0555835200","source":"public","category":"public"},{"id":"202454000000100306","name":"함안등기소","lat":35.278777,"lng":128.411591,"roadAddr":"경상남도 함안군 가야읍 가야13길 6 (말산리, 함안군법원)","openHours":"(09:00∼18:00)","maleToilets":14,"femaleToilets":4,"disabled":false,"diaperTable":false,"emergencyBell":false,"cctv":false,"managerTel":"15440773","source":"public","category":"public"},{"id":"202554000000100001","name":"함안군 작은영화관","lat":35.277506,"lng":128.410639,"roadAddr":"경상남도 함안군 가야읍 가야12길 12, 함안군작은영화관 공중화장실","jibunAddr":"경상남도 함안군 가야읍 말산리 58-132 함안군작은영화관","openHours":"10:00 - 22:00","maleToilets":6,"femaleToilets":3,"disabled":true,"diaperTable":false,"emergencyBell":false,"cctv":true,"managerTel":"05555802304","source":"public","category":"public"},{"id":"202454000000100331","name":"온새미로공원","lat":35.261758,"lng":128.450013,"roadAddr":"경상남도 함안군 산인면 입곡공원길 291-12, 온새미로공원 공중화장실","jibunAddr":"경상남도 함안군 산인면 입곡리 1156 온새미로공원 멀티플센터","openHours":"상시","maleToilets":0,"femaleToilets":1,"disabled":true,"diaperTable":false,"emergencyBell":true,"cctv":false,"managerTel":"0555804594","source":"public","category":"public"},{"id":"202454000000100463","name":"KT함안지점","lat":35.273622,"lng":128.408875,"roadAddr":"경상남도 함안군 가야읍 말산로 21, KT함안고객써비스센타","jibunAddr":"경상남도 함안군 가야읍 말산리 172 KT함안고객써비스센타","openHours":"(09:00∼18:00)","maleToilets":12,"femaleToilets":6,"disabled":false,"diaperTable":false,"emergencyBell":false,"cctv":false,"managerTel":"0555820110","source":"public","category":"public"},{"id":"202454000000100330","name":"아라힐링카페","lat":35.264841,"lng":128.447881,"roadAddr":"경상남도 함안군 산인면 입곡공원길 225","jibunAddr":"경상남도 함안군 산인면 입곡리 1205","openHours":"상시","maleToilets":3,"femaleToilets":3,"disabled":false,"diaperTable":false,"emergencyBell":true,"cctv":false,"managerTel":"0555804594","source":"public","category":"public"},{"id":"202454000000100305","name":"입곡군립공원(운동장앞)","lat":35.263906,"lng":128.448821,"roadAddr":"경상남도 함안군 산인면 입곡공원길 251","jibunAddr":"경상남도 함안군 산인면 입곡리 산 137-1","openHours":"상시","maleToilets":3,"femaleToilets":4,"disabled":true,"diaperTable":true,"emergencyBell":true,"cctv":false,"managerTel":"0555804594","source":"public","category":"public"},{"id":"202454000000100295","name":"함안역","lat":35.249298,"lng":128.424728,"roadAddr":"경상남도 함안군 함안면 진함로 1637, 함안역","jibunAddr":"경상남도 함안군 함안면 괴산리 135 함안역","openHours":"06:00-22:00","maleToilets":6,"femaleToilets":9,"disabled":true,"diaperTable":true,"emergencyBell":true,"cctv":true,"managerTel":"15447788","source":"public","category":"public"},{"id":"202454000000100373","name":"아라길(함안교 옆)","lat":35.27884,"lng":128.420703,"roadAddr":"경상남도 함안군 가야읍 가야로 184-1, 공중화장실","jibunAddr":"경상남도 함안군 가야읍 검암리 694-1 공중화장실","openHours":"상시","maleToilets":1,"femaleToilets":2,"disabled":true,"diaperTable":false,"emergencyBell":true,"cctv":false,"managerTel":"0555804585","source":"public","category":"public"},{"id":"202454000000100412","name":"무진정","lat":35.255747,"lng":128.42275,"roadAddr":"경상남도 함안군 가야읍 함안대로 277-13","jibunAddr":"경상남도 함안군 가야읍 광정리 36-2","openHours":"상시","maleToilets":5,"femaleToilets":2,"disabled":false,"diaperTable":false,"emergencyBell":true,"cctv":false,"managerTel":"0555803904","source":"public","category":"public"},{"id":"202454000000100316","name":"함안경찰서","lat":35.279147,"lng":128.41091,"roadAddr":"경상남도 함안군 가야읍 가야로 85 (말산리, 함안경찰서)","openHours":"(09:00∼18:00)","maleToilets":21,"femaleToilets":5,"disabled":true,"diaperTable":false,"emergencyBell":false,"cctv":false,"managerTel":"0555898323","source":"public","category":"public"},{"id":"202454000000100437","name":"삼정동산","lat":35.254712,"lng":128.427481,"roadAddr":"경상남도 함안군 함안면 한절골1길 8, 삼정동산 공중화장실","jibunAddr":"경상남도 함안군 함안면 대산리 1242-3 공중화장실","openHours":"상시","maleToilets":4,"femaleToilets":2,"disabled":true,"diaperTable":false,"emergencyBell":true,"cctv":false,"managerTel":"0555803904","source":"public","category":"public"},{"id":"202454000000100356","name":"검암체육공원","lat":35.273276,"lng":128.421054,"roadAddr":"경상남도 함안군 가야읍 중검길 73-3, 검암체육공원","jibunAddr":"경상남도 함안군 가야읍 검암리 1313-92 검암체육공원","openHours":"상시","maleToilets":2,"femaleToilets":1,"disabled":false,"diaperTable":false,"emergencyBell":true,"cctv":true,"managerTel":"0555804595","source":"public","category":"public"},{"id":"202454000000100358","name":"입곡군립공원(주차장옆)","lat":35.262811,"lng":128.446627,"roadAddr":"경상남도 함안군 산인면 입곡공원길 224-17","jibunAddr":"경상남도 함안군 산인면 입곡리 1196-1","openHours":"상시","maleToilets":2,"femaleToilets":2,"disabled":false,"diaperTable":false,"emergencyBell":false,"cctv":false,"managerTel":"0555804594","source":"public","category":"public"},{"id":"202454000000100280","name":"함안군보건소 청사","lat":35.275759,"lng":128.410267,"roadAddr":"경상남도 함안군 가야읍 중앙남4길 10, 함안군보건소","jibunAddr":"경상남도 함안군 가야읍 말산리 100 함안군보건소","openHours":"(09:00∼18:00)","maleToilets":17,"femaleToilets":13,"disabled":true,"diaperTable":true,"emergencyBell":false,"cctv":false,"managerTel":"0555803106","source":"public","category":"public"},{"id":"202454000000100281","name":"함안공영주차타워","lat":35.276721,"lng":128.410279,"roadAddr":"경상남도 함안군 가야읍 중앙북길 84","openHours":"상시","maleToilets":6,"femaleToilets":6,"disabled":true,"diaperTable":false,"emergencyBell":false,"cctv":false,"managerTel":"0555802623","source":"public","category":"public"},{"id":"202454000000100271","name":"검암산(정상)","lat":35.271179,"lng":128.428575,"roadAddr":"경상남도 함안군 산인면 학산2길 46-44, 검암산(정상) 공중화장실","jibunAddr":"경상남도 함안군 산인면 송정리 산 57 공중화장실","openHours":"상시","maleToilets":2,"femaleToilets":1,"disabled":false,"diaperTable":false,"emergencyBell":false,"cctv":false,"managerTel":"0555804555","source":"public","category":"public"},{"id":"202454000000100240","name":"산인면 활력공원","lat":35.281669,"lng":128.424562,"roadAddr":"경상남도 함안군 산인면 송산로 27, 공중화장실","jibunAddr":"경상남도 함안군 산인면 송정리 1088-1","openHours":"함안군으로 인계전 사용불가","maleToilets":2,"femaleToilets":1,"disabled":true,"diaperTable":false,"emergencyBell":false,"cctv":false,"managerTel":"0555800343","source":"public","category":"public"},{"id":"202454000000100360","name":"아라길(작은영화관 옆)","lat":35.277506,"lng":128.410639,"roadAddr":"경상남도 함안군 가야읍 가야12길 12, 함안군작은영화관","jibunAddr":"경상남도 함안군 가야읍 말산리 58-132 함안군작은영화관","openHours":"상시","maleToilets":2,"femaleToilets":2,"disabled":false,"diaperTable":false,"emergencyBell":true,"cctv":false,"managerTel":"0555804585","source":"public","category":"public"},{"id":"202454000000100239","name":"아라께비 테마로드(1)","lat":35.273641,"lng":128.45075,"roadAddr":"경상남도 함안군 산인면 산인로 138, 공중화장실","jibunAddr":"경상남도 함안군 산인면 모곡리 1004-3","openHours":"상시","maleToilets":5,"femaleToilets":3,"disabled":true,"diaperTable":false,"emergencyBell":true,"cctv":false,"managerTel":"0555804733","source":"public","category":"public"},{"id":"202454000000100447","name":"고려주유소","lat":35.269339,"lng":128.412138,"roadAddr":"경상남도 함안군 가야읍 함안대로 458 (광정리, 고려주유소)","openHours":"(09:00∼20:00)","maleToilets":2,"femaleToilets":1,"disabled":false,"diaperTable":false,"emergencyBell":false,"cctv":false,"managerTel":"0555850051","source":"public","category":"public"},{"id":"202454000000100370","name":"아라길(산인 종점)","lat":35.272615,"lng":128.439675,"roadAddr":"경상남도 함안군 산인면 산인로 36, 공중화장실","jibunAddr":"경상남도 함안군 산인면 송정리 산 41-2 공중화장실","openHours":"상시","maleToilets":3,"femaleToilets":3,"disabled":false,"diaperTable":false,"emergencyBell":true,"cctv":false,"managerTel":"0555804585","source":"public","category":"public"},{"id":"202454000000100390","name":"삼화주유소","lat":35.274498,"lng":128.417553,"roadAddr":"경상남도 함안군 가야읍 말산로 100 (검암리)","openHours":"(09:00∼20:00)","maleToilets":2,"femaleToilets":1,"disabled":false,"diaperTable":false,"emergencyBell":false,"cctv":false,"managerTel":"0555850090","source":"public","category":"public"},{"id":"202454000000100298","name":"함안버스터미널","lat":35.27938,"lng":128.409035,"roadAddr":"경상남도 함안군 가야읍 함마대로 1636-16, 함안버스터미널","jibunAddr":"경상남도 함안군 가야읍 말산리 605-3 함안버스터미널","openHours":"상시","maleToilets":21,"femaleToilets":19,"disabled":true,"diaperTable":false,"emergencyBell":false,"cctv":false,"managerTel":"0555849881","source":"public","category":"public"},{"id":"202454000000100307","name":"입곡군립공원(산림욕장)","lat":35.267183,"lng":128.447301,"roadAddr":"경상남도 함안군 산인면 입곡공원길 255-20, 입곡공원 산림욕장 화장실","jibunAddr":"경상남도 함안군 산인면 입곡리 산 61-1","openHours":"상시","maleToilets":4,"femaleToilets":3,"disabled":true,"diaperTable":false,"emergencyBell":true,"cctv":false,"managerTel":"0555804594","source":"public","category":"public"},{"id":"202454000000100456","name":"가야읍사무소 청사","lat":35.272001,"lng":128.408209,"roadAddr":"경상남도 함안군 가야읍 함안대로 505, 가야읍사무소","jibunAddr":"경상남도 함안군 가야읍 말산리 271-6","openHours":"(09:00∼18:00)","maleToilets":5,"femaleToilets":3,"disabled":true,"diaperTable":false,"emergencyBell":false,"cctv":false,"managerTel":"0555803051","source":"public","category":"public"},{"id":"202454000000100457","name":"검암산(중간)","lat":35.269368,"lng":128.434269,"roadAddr":"경상남도 함안군 함안면 한절골2길 262-3, 공중화장실","jibunAddr":"경상남도 함안군 함안면 대산리 산 116 공중화장실","openHours":"상시","maleToilets":2,"femaleToilets":2,"disabled":false,"diaperTable":false,"emergencyBell":false,"cctv":false,"managerTel":"0555804555","source":"public","category":"public"},{"id":"202454000000100272","name":"국립농산물품질관리원 함안사무소 1층 화장실","lat":35.274816,"lng":128.410374,"roadAddr":"경상남도 함안군 가야읍 말산3길 29","openHours":"(09:00∼18:00)","maleToilets":6,"femaleToilets":3,"disabled":true,"diaperTable":false,"emergencyBell":false,"cctv":false,"managerTel":"0555826060","source":"public","category":"public"}]