[{"id":"202454000000100288","name":"악양공용주차장","lat":35.328677,"lng":128.387786,"roadAddr":"경상남도 함안군 법수면 악양길 9, 악양둑방주차장","jibunAddr":"경상남도 함안군 법수면 윤외리 84-9 악양둑방주차장","openHours":"상시","maleToilets":5,"femaleToilets":3,"disabled":false,"diaperTable":false,"emergencyBell":true,"cctv":false,"managerTel":"0555804525","source":"public","category":"public"},{"id":"202454000000100286","name":"형제주유소","lat":35.29514,"lng":128.398589,"roadAddr":"경상남도 함안군 가야읍 함안대로 779 (산서리, 형제주유소)","openHours":"(09:00∼20:00)","maleToilets":3,"femaleToilets":2,"disabled":false,"diaperTable":false,"emergencyBell":false,"cctv":false,"managerTel":"0555838686","source":"public","category":"public"},{"id":"202454000000100395","name":"삼도에너지","lat":35.319125,"lng":128.386288,"roadAddr":"경상남도 함안군 법수면 법수로 599, 삼도주유소","jibunAddr":"경상남도 함안군 법수면 윤외리 146-9 삼도주유소","openHours":"(09:00~22:00)","maleToilets":2,"femaleToilets":1,"disabled":false,"diaperTable":false,"emergencyBell":false,"cctv":false,"managerTel":"0555844125","source":"public","category":"public"},{"id":"202454000000100320","name":"한국도로공사 함안영업소","lat":35.291462,"lng":128.393127,"roadAddr":"경상남도 함안군 가야읍 함안대로 703-55","openHours":"상시","maleToilets":5,"femaleToilets":4,"disabled":true,"diaperTable":false,"emergencyBell":false,"cctv":false,"managerTel":"0555857758","source":"public","category":"public"},{"id":"202454000000100453","name":"강변주유소","lat":35.331869,"lng":128.367541,"roadAddr":"경상남도 함안군 법수면 법정로 224 (주물리, 강변주유소에쓰오일)","openHours":"(09:00∼20:00)","maleToilets":1,"femaleToilets":1,"disabled":false,"diaperTable":false,"emergencyBell":false,"cctv":false,"managerTel":"0555842331","source":"public","category":"public"},{"id":"202454000000100351","name":"주식회사 플러스에너지","lat":35.310485,"lng":128.37026,"roadAddr":"경상남도 함안군 법수면 법수로 418","openHours":"정시","maleToilets":1,"femaleToilets":1,"disabled":false,"diaperTable":false,"emergencyBell":false,"cctv":false,"managerTel":"0555831151","source":"public","category":"public"},{"id":"202454000000100433","name":"농업인회관","lat":35.29311,"lng":128.398491,"roadAddr":"경상남도 함안군 가야읍 함안대로 755(산서리, 함안군농업기술센터)","openHours":"(09:00∼18:00)","maleToilets":13,"femaleToilets":5,"disabled":false,"diaperTable":false,"emergencyBell":false,"cctv":false,"managerTel":"0555804406","source":"public","category":"public"},{"id":"202454000000100270","name":"악양공용주차장2","lat":35.328407,"lng":128.388291,"roadAddr":"경상남도 함안군 법수면 악양길 2","jibunAddr":"경상남도 함안군 법수면 윤외리 85-1","openHours":"상시","maleToilets":5,"femaleToilets":3,"disabled":false,"diaperTable":false,"emergencyBell":false,"cctv":true,"managerTel":"0555804525","source":"public","category":"public"},{"id":"202454000000100282","name":"악양 승마장","lat":35.32998,"lng":128.398734,"roadAddr":"경상남도 함안군 법수면 악양길 313","openHours":"목, 금, 토, 일(9:00~18:00)","maleToilets":5,"femaleToilets":5,"disabled":true,"diaperTable":false,"emergencyBell":true,"cctv":false,"managerTel":"0555804354","source":"public","category":"public"},{"id":"202454000000100314","name":"함안군농업기술센터 청사","lat":35.29311,"lng":128.398491,"roadAddr":"경상남도 함안군 가야읍 함안대로 755(산서리, 함안군농업기술센터)","openHours":"(09:00∼18:00)","maleToilets":13,"femaleToilets":3,"disabled":true,"diaperTable":false,"emergencyBell":false,"cctv":false,"managerTel":"0555804406","source":"public","category":"public"},{"id":"202454000000100406","name":"독산공원","lat":35.330606,"lng":128.372216,"roadAddr":"경상남도 함안군 법수면 대법로 3-23","jibunAddr":"경상남도 함안군 법수면 주물리 140-2 독산공원 공중화장실","openHours":"(08:00∼20:00)","maleToilets":4,"femaleToilets":2,"disabled":false,"diaperTable":false,"emergencyBell":false,"cctv":false,"managerTel":"0555804593","source":"public","category":"public"}]