[{"id":"202356700000100477","name":"일광주유소","lat":35.215337,"lng":128.577089,"roadAddr":"경상남도창원시마산합포구용마로7(산호동,일광주유소)","openHours":"영업시간 내","maleToilets":2,"femaleToilets":1,"disabled":false,"diaperTable":false,"emergencyBell":false,"cctv":false,"source":"public","category":"public"},{"id":"202356700000101013","name":"자산동주민센터","lat":35.205507,"lng":128.565477,"roadAddr":"경상남도마산합포구자산동5길1자산동주민센터","openHours":"근무시간 내","maleToilets":5,"femaleToilets":2,"disabled":true,"diaperTable":false,"emergencyBell":false,"cctv":false,"source":"public","category":"public"},{"id":"202356700000100580","name":"마산야구센터 마산체육관 1층","lat":35.221985,"lng":128.57958,"roadAddr":"경상남도창원시마산회원구삼호로63(양덕동,마산야구센터)","openHours":"정시","maleToilets":21,"femaleToilets":14,"disabled":true,"diaperTable":false,"emergencyBell":true,"cctv":false,"source":"public","category":"public"},{"id":"202656701840100009","name":"합성1동행정복지센터","lat":35.242186,"lng":128.5839,"roadAddr":"경상남도 창원시 마산회원구 합성서3길 21, 합성1동행정복지센터 (합성동)","jibunAddr":"경상남도 창원시 마산회원구 합성동 150-2 합성1동행정복지센터","openHours":"정시","maleToilets":12,"femaleToilets":9,"disabled":true,"diaperTable":false,"emergencyBell":false,"cctv":false,"source":"public","category":"public"},{"id":"202356700000100582","name":"마산야구센터 올림픽공연장","lat":35.221985,"lng":128.57958,"roadAddr":"경상남도창원시마산회원구삼호로63(양덕동,마산야구센터)","openHours":"불규칙","maleToilets":6,"femaleToilets":3,"disabled":true,"diaperTable":false,"emergencyBell":false,"cctv":false,"source":"public","category":"public"},{"id":"202356700000100146","name":"북마산주유소","lat":35.221621,"lng":128.564133,"roadAddr":"경상남도 창원시 마산회원구 무학로 617 (회원동)","jibunAddr":"경상남도 창원시 마산회원구 회원동 635-7","openHours":"상시","maleToilets":2,"femaleToilets":1,"disabled":false,"diaperTable":false,"emergencyBell":false,"cctv":false,"source":"public","category":"public"},{"id":"202356700000100599","name":"회원1동주민센터 3층 화장실","lat":35.218378,"lng":128.574084,"roadAddr":"경상남도 창원시 마산회원구 회원동11길 7, 회원1동행정복지센터 (회원동)","jibunAddr":"경상남도 창원시 마산회원구 회원동 62-4 회원1동행정복지센터","openHours":"정시","maleToilets":4,"femaleToilets":2,"disabled":true,"diaperTable":false,"emergencyBell":false,"cctv":false,"source":"public","category":"public"},{"id":"202356700000100281","name":"서원곡입구 주차장","lat":35.210751,"lng":128.562139,"roadAddr":"경상남도 창원시 마산합포구 서원곡1길 20 (교방동)","jibunAddr":"경상남도 창원시 마산합포구 교방동 232","openHours":"상시","maleToilets":3,"femaleToilets":3,"disabled":true,"diaperTable":true,"emergencyBell":true,"cctv":true,"managerTel":"0552204521","source":"public","category":"public"},{"id":"202656701840100008","name":"석전민원센터","lat":35.229516,"lng":128.568188,"roadAddr":"경상남도 창원시 마산회원구 석전남16길 84, 석전동 근주어울림센터 (석전동)","jibunAddr":"경상남도 창원시 마산회원구 석전동 156-23 석전동 근주어울림센터","openHours":"상시","maleToilets":16,"femaleToilets":12,"disabled":true,"diaperTable":false,"emergencyBell":true,"cctv":false,"source":"public","category":"public"},{"id":"202656701840100005","name":"석전동행정복지센터 화장실","lat":35.230279,"lng":128.573115,"roadAddr":"경상남도 창원시 마산회원구 석전동4길 52, 석전동행정복지센터 (석전동)","jibunAddr":"경상남도 창원시 마산회원구 석전동 255-6 석전동행정복지센터","openHours":"정시","maleToilets":12,"femaleToilets":6,"disabled":false,"diaperTable":false,"emergencyBell":false,"cctv":true,"source":"public","category":"public"},{"id":"202356700000101009","name":"마산합포노인복지관","lat":35.202367,"lng":128.571093,"roadAddr":"경상남도마산합포구동서남1길5","openHours":"9시간","maleToilets":9,"femaleToilets":12,"disabled":true,"diaperTable":false,"emergencyBell":true,"cctv":false,"source":"public","category":"public"},{"id":"202356700000100889","name":"임항선그린웨이(북마산역)","lat":35.215038,"lng":128.570198,"roadAddr":"경상남도 창원시 마산합포구 노산서2길 68 (상남동)","jibunAddr":"경상남도 창원시 마산합포구 상남동 1-95","openHours":"상시","maleToilets":2,"femaleToilets":2,"disabled":true,"diaperTable":false,"emergencyBell":true,"cctv":true,"source":"public","category":"public"},{"id":"202356700000100578","name":"마산회원구청 별관 화장실","lat":35.221985,"lng":128.57958,"roadAddr":"경상남도창원시마산회원구삼호로63(양덕동,마산회원구청)","openHours":"근무시간 내","maleToilets":8,"femaleToilets":6,"disabled":true,"diaperTable":false,"emergencyBell":false,"cctv":false,"source":"public","category":"public"},{"id":"202356700000101000","name":"산호근린공원 화장실","lat":35.213824,"lng":128.582607,"roadAddr":"경상남도 창원시 마산합포구 용마산길 136 (산호동)","jibunAddr":"경상남도 창원시 마산합포구 산호동 531-1","openHours":"상시","maleToilets":6,"femaleToilets":4,"disabled":true,"diaperTable":false,"emergencyBell":true,"cctv":true,"source":"public","category":"public"},{"id":"202356700000100584","name":"마산야구센터 보조구장 화장실","lat":35.221985,"lng":128.57958,"roadAddr":"경상남도창원시마산회원구삼호로63(양덕동,마산야구센터)","openHours":"정시","maleToilets":5,"femaleToilets":3,"disabled":true,"diaperTable":false,"emergencyBell":true,"cctv":false,"source":"public","category":"public"},{"id":"202456701840100038","name":"양덕가고파어린이공원","lat":35.224539,"lng":128.581474,"roadAddr":"경상남도창원시마산회원구삼호로96","openHours":"상시","maleToilets":6,"femaleToilets":3,"disabled":true,"diaperTable":false,"emergencyBell":true,"cctv":true,"managerTel":"0552304501","source":"public","category":"public"},{"id":"202456701560100002","name":"추산공원","lat":35.204629,"lng":128.569513,"roadAddr":"경상남도 창원시 마산합포구 성호남8길 24, 공중화장실 (추산동)","jibunAddr":"경상남도 창원시 마산합포구 추산동 산 16-2 공중화장실","openHours":"상시","maleToilets":1,"femaleToilets":1,"disabled":true,"diaperTable":false,"emergencyBell":true,"cctv":false,"source":"public","category":"public"},{"id":"202356700000100145","name":"고속주유소","lat":35.232968,"lng":128.564908,"roadAddr":"경상남도 창원시 마산회원구 삼호로 274, 고속주유소 (회성동)","jibunAddr":"경상남도 창원시 마산회원구 회성동 469-40 고속주유소","openHours":"상시","maleToilets":1,"femaleToilets":0,"disabled":false,"diaperTable":false,"emergencyBell":false,"cctv":false,"source":"public","category":"public"},{"id":"202356700000100483","name":"완월주유소","lat":35.200374,"lng":128.560052,"roadAddr":"경상남도창원시마산합포구자산솔밭로30(완월동,완월주유소)","openHours":"상시","maleToilets":2,"femaleToilets":1,"disabled":false,"diaperTable":false,"emergencyBell":false,"cctv":false,"source":"public","category":"public"},{"id":"202356700000100922","name":"회성동 우체국","lat":35.231183,"lng":128.565447,"roadAddr":"경상남도마산회원구북성로285,회성동우체국(회성동)","openHours":"09:00~18:00","maleToilets":2,"femaleToilets":1,"disabled":false,"diaperTable":false,"emergencyBell":false,"cctv":false,"source":"public","category":"public"},{"id":"202356700000100178","name":"석전동 게이트볼장","lat":35.227666,"lng":128.568345,"roadAddr":"경상남도창원시마산회원구석전동283-5","jibunAddr":"경상남도창원시마산회원구석전동283-5","openHours":"불규칙","maleToilets":2,"femaleToilets":1,"disabled":false,"diaperTable":false,"emergencyBell":false,"cctv":false,"source":"public","category":"public"},{"id":"202356700000100566","name":"태광주유소 화장실","lat":35.225265,"lng":128.571058,"roadAddr":"경상남도창원시마산회원구북성로200(회원동,태광주유소)","openHours":"영업시간 내","maleToilets":3,"femaleToilets":1,"disabled":false,"diaperTable":false,"emergencyBell":false,"cctv":false,"source":"public","category":"public"},{"id":"202356700000100209","name":"자산솔밭공원","lat":35.201555,"lng":128.561081,"roadAddr":"경상남도창원시마산합포구자산서13길30","jibunAddr":"경상남도창원시마산합포구자산동산35309","openHours":"상시","maleToilets":4,"femaleToilets":4,"disabled":true,"diaperTable":false,"emergencyBell":true,"cctv":false,"source":"public","category":"public"},{"id":"202356700000100545","name":"합포동행정복지센터 화장실","lat":35.210934,"lng":128.579288,"roadAddr":"경상남도 창원시 마산합포구 허당로 31, 합포동 행정복지센터 (산호동)","jibunAddr":"경상남도 창원시 마산합포구 산호동 499-1 합포동 행정복지센터","openHours":"정시","maleToilets":4,"femaleToilets":2,"disabled":true,"diaperTable":false,"emergencyBell":false,"cctv":false,"source":"public","category":"public"},{"id":"202356700000100583","name":"마산야구센터 올림픽수영장","lat":35.221985,"lng":128.57958,"roadAddr":"경상남도창원시마산회원구삼호로63(양덕동,마산야구센터)","openHours":"정시","maleToilets":9,"femaleToilets":6,"disabled":true,"diaperTable":false,"emergencyBell":true,"cctv":false,"source":"public","category":"public"},{"id":"202656700000100019","name":"마산고용복지+센터 화장실","lat":35.229251,"lng":128.576002,"roadAddr":"경상남도 창원시 마산회원구 3·15대로 628, 무학빌딩 (석전동)","jibunAddr":"경상남도 창원시 마산회원구 석전동 259-6 무학빌딩","openHours":"정시","maleToilets":13,"femaleToilets":8,"disabled":true,"diaperTable":false,"emergencyBell":false,"cctv":false,"managerTel":"0552396524","source":"public","category":"public"},{"id":"202356700000100585","name":"마산야구센터 테니스장 화장실","lat":35.221985,"lng":128.57958,"roadAddr":"경상남도창원시마산회원구삼호로63(양덕동,마산야구센터)","openHours":"정시","maleToilets":5,"femaleToilets":3,"disabled":true,"diaperTable":false,"emergencyBell":true,"cctv":false,"source":"public","category":"public"},{"id":"202356700000100579","name":"마산야구센터 X-게임장 화장실","lat":35.221985,"lng":128.57958,"roadAddr":"경상남도창원시마산회원구삼호로63(양덕동,마산야구센터)","openHours":"상시","maleToilets":3,"femaleToilets":2,"disabled":false,"diaperTable":false,"emergencyBell":true,"cctv":false,"source":"public","category":"public"},{"id":"202356700000100285","name":"어시장 1","lat":35.20265,"lng":128.576741,"roadAddr":"경상남도 창원시 마산합포구 어시장8길 77, 동서경로당 (남성동)","jibunAddr":"경상남도 창원시 마산합포구 남성동 242-9 동서경로당","openHours":"상시","maleToilets":8,"femaleToilets":4,"disabled":true,"diaperTable":true,"emergencyBell":true,"cctv":true,"managerTel":"0552204521","source":"public","category":"public"},{"id":"202356700000100887","name":"남성동 우체국","lat":35.203719,"lng":128.575273,"roadAddr":"경상남도마산합포구동서북7길46,마산남성동우체국(남성동)","openHours":"정시","maleToilets":2,"femaleToilets":1,"disabled":false,"diaperTable":false,"emergencyBell":false,"cctv":false,"source":"public","category":"public"},{"id":"202456701840100035","name":"석전근린공원","lat":35.229766,"lng":128.569363,"roadAddr":"경상남도창원시마산회원구석전동152-1","openHours":"상시","maleToilets":3,"femaleToilets":3,"disabled":false,"diaperTable":false,"emergencyBell":true,"cctv":false,"managerTel":"0552304501","source":"public","category":"public"},{"id":"202356700000100539","name":"오동파출소 화장실","lat":35.211974,"lng":128.574827,"roadAddr":"경상남도창원시마산합포구천하장사로111(상남동,오동지구대)","openHours":"근무시간 내","maleToilets":4,"femaleToilets":1,"disabled":false,"diaperTable":false,"emergencyBell":false,"cctv":false,"source":"public","category":"public"},{"id":"202656700000100031","name":"산호근린공원 화장실2","lat":35.215107,"lng":128.58035,"roadAddr":"경상남도 창원시 마산합포구 산호남8길 42 (산호동)","jibunAddr":"경상남도 창원시 마산합포구 산호동 547-2","openHours":"상시","maleToilets":2,"femaleToilets":2,"disabled":false,"diaperTable":false,"emergencyBell":false,"cctv":false,"source":"public","category":"public"},{"id":"202556701560100001","name":"산호근린공원(신규)","lat":35.215107,"lng":128.58035,"roadAddr":"경상남도 창원시 마산합포구 산호남8길 42 (산호동)","jibunAddr":"경상남도 창원시 마산합포구 산호동 547-2","openHours":"상시","maleToilets":2,"femaleToilets":1,"disabled":true,"diaperTable":false,"emergencyBell":true,"cctv":true,"source":"public","category":"public"},{"id":"202356700000101016","name":"회원도서관","lat":35.224578,"lng":128.573576,"roadAddr":"경상남도 창원시 마산회원구 3·15대로 558, 마산회원도서관 (회원동)","jibunAddr":"경상남도 창원시 마산회원구 회원동 167-1 마산회원도서관","openHours":"정시","maleToilets":19,"femaleToilets":9,"disabled":true,"diaperTable":true,"emergencyBell":false,"cctv":false,"source":"public","category":"public"},{"id":"202356700000100467","name":"울트라주유소","lat":35.204701,"lng":128.560336,"roadAddr":"경상남도창원시마산합포구무학로398(자산동,자산주유소)","openHours":"영업시간 내","maleToilets":2,"femaleToilets":1,"disabled":false,"diaperTable":false,"emergencyBell":false,"cctv":true,"source":"public","category":"public"},{"id":"202356700000100598","name":"회원1동주민센터 2층 화장실","lat":35.218378,"lng":128.574084,"roadAddr":"경상남도 창원시 마산회원구 회원동11길 7, 회원1동행정복지센터 (회원동)","jibunAddr":"경상남도 창원시 마산회원구 회원동 62-4 회원1동행정복지센터","openHours":"정시","maleToilets":4,"femaleToilets":2,"disabled":false,"diaperTable":false,"emergencyBell":false,"cctv":false,"source":"public","category":"public"},{"id":"202356700000100470","name":"합포주유소","lat":35.212008,"lng":128.571524,"roadAddr":"경상남도창원시마산합포구북성로53(상남동,합포주유소)","openHours":"영업시간 내","maleToilets":1,"femaleToilets":1,"disabled":false,"diaperTable":false,"emergencyBell":false,"cctv":false,"source":"public","category":"public"},{"id":"202356700000100552","name":"광신 서부주유소 화장실","lat":35.22104,"lng":128.574258,"roadAddr":"경상남도창원시마산회원구3.15대로524(회원동,서부주유소)","openHours":"영업시간 내","maleToilets":1,"femaleToilets":2,"disabled":false,"diaperTable":false,"emergencyBell":false,"cctv":false,"source":"public","category":"public"},{"id":"202356700000100180","name":"앵지밭골","lat":35.219821,"lng":128.552936,"jibunAddr":"경상남도 창원시 마산회원구 회원동 산 55-2","openHours":"상시","maleToilets":2,"femaleToilets":1,"disabled":false,"diaperTable":false,"emergencyBell":false,"cctv":false,"source":"public","category":"public"},{"id":"202356700000100284","name":"어시장 2","lat":35.202558,"lng":128.575308,"roadAddr":"경상남도 창원시 마산합포구 어시장2길 34 (남성동)","jibunAddr":"경상남도 창원시 마산합포구 남성동 219","openHours":"상시","maleToilets":8,"femaleToilets":5,"disabled":false,"diaperTable":true,"emergencyBell":true,"cctv":true,"managerTel":"0552204525","source":"public","category":"public"},{"id":"202356700000100280","name":"서원곡 비행장 앞","lat":35.210207,"lng":128.559477,"roadAddr":"경상남도 창원시 마산합포구 서원곡1길 50-43 (교방동)","jibunAddr":"경상남도 창원시 마산합포구 교방동 499-86","openHours":"상시","maleToilets":2,"femaleToilets":2,"disabled":false,"diaperTable":false,"emergencyBell":true,"cctv":true,"managerTel":"0552204521","source":"public","category":"public"},{"id":"202356700000100567","name":"회성동행정복지센터 1층화장실","lat":35.233058,"lng":128.561694,"roadAddr":"경상남도창원시마산회원구북성로327(회성동,회성동주민센터)","openHours":"정시","maleToilets":4,"femaleToilets":2,"disabled":true,"diaperTable":false,"emergencyBell":false,"cctv":false,"managerTel":"0552305410","source":"public","category":"public"},{"id":"202356700000100211","name":"오동동주유소","lat":35.205797,"lng":128.582894,"jibunAddr":"경상남도창원시마산합포구오동동307","openHours":"24시간","maleToilets":3,"femaleToilets":1,"disabled":false,"diaperTable":false,"emergencyBell":false,"cctv":false,"source":"public","category":"public"},{"id":"202456701840100047","name":"양덕중앙 홈런공원","lat":35.222141,"lng":128.578087,"roadAddr":"경상남도창원시마산회원구양덕동479","openHours":"상시","maleToilets":2,"femaleToilets":2,"disabled":true,"diaperTable":false,"emergencyBell":true,"cctv":false,"managerTel":"0552304501","source":"public","category":"public"},{"id":"202356700000100283","name":"중앙 선창상가","lat":35.200915,"lng":128.574066,"roadAddr":"경상남도 창원시 마산합포구 어시장8길 13 (신포동2가)","jibunAddr":"경상남도 창원시 마산합포구 신포동2가 28-8","openHours":"상시","maleToilets":5,"femaleToilets":3,"disabled":true,"diaperTable":false,"emergencyBell":true,"cctv":true,"managerTel":"0552204521","source":"public","category":"public"},{"id":"202356700000100551","name":"회원주유소 화장실","lat":35.220288,"lng":128.573701,"roadAddr":"경상남도창원시마산회원구3.15대로519(회원동,스피드주유소)","openHours":"영업시간 내","maleToilets":1,"femaleToilets":2,"disabled":false,"diaperTable":false,"emergencyBell":false,"cctv":false,"source":"public","category":"public"},{"id":"202356700000100590","name":"석전119안전센터 화장실","lat":35.227331,"lng":128.575589,"roadAddr":"경상남도창원시마산회원구양덕옛1길62(양덕동,동마산소방서)","openHours":"정시","maleToilets":2,"femaleToilets":1,"disabled":false,"diaperTable":false,"emergencyBell":false,"cctv":false,"managerTel":"0552499400","source":"public","category":"public"},{"id":"202356700000100544","name":"금강주유소","lat":35.210904,"lng":128.578324,"roadAddr":"경상남도창원시마산합포구허당로23(상남동,금강주유소)","openHours":"영업시간 내","maleToilets":2,"femaleToilets":1,"disabled":false,"diaperTable":false,"emergencyBell":false,"cctv":false,"source":"public","category":"public"},{"id":"202356700000100482","name":"자산치안센터 화장실","lat":35.205167,"lng":128.561493,"roadAddr":"경상남도창원시마산합포구자산서11길92(자산동,자산치안센터)","openHours":"근무시간 내","maleToilets":1,"femaleToilets":1,"disabled":false,"diaperTable":false,"emergencyBell":false,"cctv":false,"source":"public","category":"public"},{"id":"202356700000100462","name":"오동동문화광장 화장실","lat":35.206304,"lng":128.577136,"jibunAddr":"경상남도 창원시 마산합포구 동성동 177-1","openHours":"상시","maleToilets":2,"femaleToilets":2,"disabled":false,"diaperTable":false,"emergencyBell":true,"cctv":false,"managerTel":"0552252591","source":"public","category":"public"},{"id":"202356700000100540","name":"성운주유소","lat":35.210407,"lng":128.568143,"roadAddr":"경상남도창원시마산합포구천하장사로44(교방동)","openHours":"영업시간 내","maleToilets":2,"femaleToilets":1,"disabled":false,"diaperTable":false,"emergencyBell":false,"cctv":false,"source":"public","category":"public"},{"id":"202356700000100279","name":"서원곡 사방댐","lat":35.209032,"lng":128.55578,"roadAddr":"경상남도 창원시 마산합포구 서원곡2길 13 (교방동)","jibunAddr":"경상남도 창원시 마산합포구 교방동 산 36-2","openHours":"상시","maleToilets":2,"femaleToilets":1,"disabled":false,"diaperTable":false,"emergencyBell":false,"cctv":false,"managerTel":"0552204521","source":"public","category":"public"},{"id":"202656700000100012","name":"노산민원센터","lat":35.212677,"lng":128.574242,"roadAddr":"경상남도 창원시 마산합포구 노산남6길 45, 노산동 행정복지센터 (상남동)","jibunAddr":"경상남도 창원시 마산합포구 상남동 140-11 노산동 행정복지센터","openHours":"정시","maleToilets":7,"femaleToilets":2,"disabled":false,"diaperTable":false,"emergencyBell":false,"cctv":false,"source":"public","category":"public"},{"id":"202656700000100011","name":"교방동 행정복지센터","lat":35.214345,"lng":128.566261,"roadAddr":"경상남도 창원시 마산합포구 교방동5길 18, 교방동 행정복지센터 (교방동)","jibunAddr":"경상남도 창원시 마산합포구 교방동 375-4 교방동 행정복지센터","openHours":"정시","maleToilets":3,"femaleToilets":1,"disabled":false,"diaperTable":false,"emergencyBell":false,"cctv":false,"source":"public","category":"public"},{"id":"202356700000100177","name":"일우A앞 삼호천변","lat":35.23142,"lng":128.569554,"roadAddr":"경상남도창원시마산회원구석전동203-1","jibunAddr":"경상남도창원시마산회원구석전동203-1","openHours":"상시","maleToilets":1,"femaleToilets":1,"disabled":false,"diaperTable":false,"emergencyBell":false,"cctv":false,"source":"public","category":"public"},{"id":"202356700000100179","name":"회원2동 임시주차장","lat":35.220593,"lng":128.559566,"roadAddr":"경상남도 창원시 마산회원구 회원서2길 28 (회원동)","jibunAddr":"경상남도 창원시 마산회원구 회원동 723-1","openHours":"상시","maleToilets":3,"femaleToilets":3,"disabled":false,"diaperTable":true,"emergencyBell":true,"cctv":true,"source":"public","category":"public"},{"id":"202356700000100553","name":"무학빌딩","lat":35.229251,"lng":128.576002,"roadAddr":"경상남도창원시마산회원구3.15대로628(석전동,무학빌딩)","openHours":"영업시간 내","maleToilets":0,"femaleToilets":2,"disabled":true,"diaperTable":false,"emergencyBell":false,"cctv":false,"source":"public","category":"public"},{"id":"202456700000100042","name":"무학119안전센터 화장실","lat":35.217856,"lng":128.561178,"roadAddr":"경상남도 창원시 마산회원구 무학로 564, 남성119안전센터 (회원동)","jibunAddr":"경상남도 창원시 마산회원구 회원동 652-1 남성119안전센터","openHours":"정시","maleToilets":7,"femaleToilets":2,"disabled":true,"diaperTable":false,"emergencyBell":false,"cctv":false,"managerTel":"0552499381","source":"public","category":"public"},{"id":"202356700000100428","name":"중앙주유소","lat":35.202712,"lng":128.569978,"roadAddr":"경상남도창원시마산합포구3.15대로294(서성동,중앙주유소)","openHours":"영업시간 내","maleToilets":2,"femaleToilets":1,"disabled":false,"diaperTable":false,"emergencyBell":false,"cctv":false,"source":"public","category":"public"},{"id":"202356700000100581","name":"마산야구센터 실내수영장 화장실","lat":35.221985,"lng":128.57958,"roadAddr":"경상남도창원시마산회원구삼호로63(양덕동,마산야구센터)","openHours":"정시","maleToilets":10,"femaleToilets":5,"disabled":true,"diaperTable":false,"emergencyBell":false,"cctv":false,"source":"public","category":"public"},{"id":"202356700000100282","name":"3.15탑","lat":35.203246,"lng":128.569409,"roadAddr":"경상남도 창원시 마산합포구 몽고정길 135-3, 공중화장실 (서성동)","jibunAddr":"경상남도 창원시 마산합포구 서성동 84-325 공중화장실","openHours":"상시","maleToilets":2,"femaleToilets":1,"disabled":true,"diaperTable":false,"emergencyBell":true,"cctv":true,"managerTel":"0552204521","source":"public","category":"public"},{"id":"202356700000100445","name":"교방파출소 화장실","lat":35.213032,"lng":128.564592,"roadAddr":"경상남도창원시마산합포구교방서1길40(교방동,교방파출소)","openHours":"근무시간 내","maleToilets":2,"femaleToilets":1,"disabled":false,"diaperTable":false,"emergencyBell":false,"cctv":false,"source":"public","category":"public"},{"id":"202356700000100597","name":"회원1동주민센터 1층 화장실","lat":35.218378,"lng":128.574084,"roadAddr":"경상남도 창원시 마산회원구 회원동11길 7, 회원1동행정복지센터 (회원동)","jibunAddr":"경상남도 창원시 마산회원구 회원동 62-4 회원1동행정복지센터","openHours":"정시","maleToilets":4,"femaleToilets":2,"disabled":true,"diaperTable":false,"emergencyBell":false,"cctv":false,"managerTel":"0552305235","source":"public","category":"public"},{"id":"202356700000100923","name":"3.15아트센터(문화홀)","lat":35.225819,"lng":128.577106,"roadAddr":"경상남도마산회원구삼호로135,3.15아트센터(양덕동)","openHours":"07:00~22:00","maleToilets":6,"femaleToilets":4,"disabled":true,"diaperTable":true,"emergencyBell":false,"cctv":false,"source":"public","category":"public"},{"id":"202356700000100278","name":"서원곡 체육시설","lat":35.210759,"lng":128.557053,"jibunAddr":"경상남도창원시마산합포구교방동457","openHours":"상시","maleToilets":2,"femaleToilets":1,"disabled":false,"diaperTable":false,"emergencyBell":false,"cctv":false,"managerTel":"0552204521","source":"public","category":"public"},{"id":"202356700000100429","name":"남성파출소 화장실","lat":35.203227,"lng":128.570181,"roadAddr":"경상남도창원시마산합포구3.15대로295(서성동,남성지구대)","openHours":"근무시간 내","maleToilets":4,"femaleToilets":1,"disabled":false,"diaperTable":false,"emergencyBell":false,"cctv":false,"source":"public","category":"public"},{"id":"202356700000100277","name":"서원곡 백운사 앞","lat":35.20842,"lng":128.552605,"roadAddr":"경상남도 창원시 마산합포구 서원곡1길 207 (교방동)","jibunAddr":"경상남도 창원시 마산합포구 교방동 산 34-4","openHours":"상시","maleToilets":4,"femaleToilets":4,"disabled":false,"diaperTable":false,"emergencyBell":true,"cctv":true,"managerTel":"0552204521","source":"public","category":"public"},{"id":"202356700000100459","name":"남성119안전센터 화장실","lat":35.204852,"lng":128.575157,"roadAddr":"경상남도창원시마산합포구남성로114(남성동,남성파출소)","openHours":"정시","maleToilets":1,"femaleToilets":1,"disabled":false,"diaperTable":false,"emergencyBell":false,"cctv":false,"managerTel":"0552499381","source":"public","category":"public"},{"id":"202356700000100919","name":"마산역","lat":35.23611,"lng":128.577217,"roadAddr":"경상남도마산회원구마산역광장로18,마산역(합성동)","openHours":"21시간","maleToilets":18,"femaleToilets":30,"disabled":true,"diaperTable":true,"emergencyBell":true,"cctv":false,"source":"public","category":"public"},{"id":"202356700000101003","name":"양덕2동행정복지센터","lat":35.229176,"lng":128.58391,"roadAddr":"경상남도 창원시 마산회원구 율림교로 3, 양덕2동행정복지센터 (양덕동)","jibunAddr":"경상남도 창원시 마산회원구 양덕동 60-11 양덕2동행정복지센터","openHours":"정시","maleToilets":4,"femaleToilets":3,"disabled":true,"diaperTable":false,"emergencyBell":false,"cctv":false,"source":"public","category":"public"}]