[{"id":"202454000000100363","name":"이령보건진료소","lat":35.365549,"lng":128.536333,"roadAddr":"경상남도 함안군 칠북면 이령2길 20, 이령보건진료소","jibunAddr":"경상남도 함안군 칠북면 이령리 159-93 이령보건진료소","openHours":"정시","maleToilets":1,"femaleToilets":1,"disabled":false,"diaperTable":false,"emergencyBell":false,"cctv":false,"managerTel":"0555804097","source":"public","category":"public"},{"id":"202454000000100339","name":"칠서파출소","lat":35.333495,"lng":128.498385,"roadAddr":"경상남도 함안군 칠서면 청계2길 27, 칠서파출소","jibunAddr":"경상남도 함안군 칠서면 청계리 732-2 칠서파출소","openHours":"정시","maleToilets":2,"femaleToilets":1,"disabled":true,"diaperTable":false,"emergencyBell":false,"cctv":false,"managerTel":"0555860112","source":"public","category":"public"},{"id":"202454000000100338","name":"칠서(양평)휴게소","lat":35.372305,"lng":128.496775,"roadAddr":"경상남도 함안군 칠서면 계룡로 122-1, 칠서휴게소","jibunAddr":"경상남도 함안군 칠서면 계내리 29 칠서휴게소","openHours":"상시","maleToilets":43,"femaleToilets":51,"disabled":true,"diaperTable":true,"emergencyBell":true,"cctv":false,"managerTel":"0555879656","source":"public","category":"public"},{"id":"202454000000100341","name":"칠서면사무소 청사","lat":35.333565,"lng":128.497951,"roadAddr":"경상남도 함안군 칠서면 청계2길 35, 칠서면사무소","jibunAddr":"경상남도 함안군 칠서면 청계리 732 칠서면사무소","openHours":"정시","maleToilets":12,"femaleToilets":9,"disabled":true,"diaperTable":false,"emergencyBell":false,"cctv":false,"managerTel":"0555803551","source":"public","category":"public"},{"id":"202454000000100388","name":"성원주유소","lat":35.346903,"lng":128.523158,"roadAddr":"경상남도 함안군 칠북면 단내로 18-6 (검단리, 성원주유소)","openHours":"정시","maleToilets":1,"femaleToilets":1,"disabled":false,"diaperTable":false,"emergencyBell":false,"cctv":false,"managerTel":"0555871536","source":"public","category":"public"},{"id":"202454000000100466","name":"(주)썬엘칠서(상)주유소","lat":35.372305,"lng":128.496775,"roadAddr":"경상남도 함안군 칠서면 계룡로 122, 칠서주유소","jibunAddr":"경상남도 함안군 칠서면 계내리 29 칠서주유소","openHours":"상시","maleToilets":4,"femaleToilets":1,"disabled":false,"diaperTable":false,"emergencyBell":true,"cctv":false,"managerTel":"0555871420","source":"public","category":"public"},{"id":"202454000000100344","name":"칠북면보건지소","lat":35.345703,"lng":128.521449,"roadAddr":"경상남도 함안군 칠북면 칠북로 20, 칠북보건소","jibunAddr":"경상남도 함안군 칠북면 검단리 379-3 칠북보건소","openHours":"정시","maleToilets":4,"femaleToilets":2,"disabled":false,"diaperTable":false,"emergencyBell":false,"cctv":false,"managerTel":"0555803235","source":"public","category":"public"},{"id":"202454000000100347","name":"청계보건진료소","lat":35.333222,"lng":128.498139,"roadAddr":"경상남도 함안군 칠서면 청계2길 25-12, 청계보건진료소","jibunAddr":"경상남도 함안군 칠서면 청계리 732-1 청계보건진료소","openHours":"정시","maleToilets":2,"femaleToilets":1,"disabled":false,"diaperTable":false,"emergencyBell":false,"cctv":false,"managerTel":"0555804095","source":"public","category":"public"},{"id":"202454000000100343","name":"칠북면사무소 청사","lat":35.346847,"lng":128.521839,"roadAddr":"경상남도 함안군 칠북면 칠북로 32, 칠북면사무소","jibunAddr":"경상남도 함안군 칠북면 검단리 1289-2 칠북면사무소","openHours":"정시","maleToilets":4,"femaleToilets":2,"disabled":false,"diaperTable":false,"emergencyBell":false,"cctv":false,"managerTel":"0555803655","source":"public","category":"public"},{"id":"202454000000100345","name":"청남주유소","lat":35.347387,"lng":128.526663,"roadAddr":"경상남도 함안군 칠북면 단내로 49, 청남주유소","jibunAddr":"경상남도 함안군 칠북면 검단리 1145-1 청남주유소","openHours":"상시","maleToilets":2,"femaleToilets":1,"disabled":false,"diaperTable":false,"emergencyBell":false,"cctv":false,"managerTel":"0555878881","source":"public","category":"public"}]