[{"id":"202653900000100006","name":"의령경찰서 부림파출소","lat":35.466037,"lng":128.324144,"roadAddr":"경상남도 의령군 부림면 대한로 1757, 의령경찰서부림파출소","jibunAddr":"경상남도 의령군 부림면 신반리 353-3 의령경찰서부림파출소","openHours":"정시","maleToilets":2,"femaleToilets":1,"disabled":false,"diaperTable":false,"emergencyBell":false,"cctv":false,"managerTel":"0555746112","source":"public","category":"public"},{"id":"202653900000100017","name":"부림초등학교(본관)","lat":35.465584,"lng":128.320743,"roadAddr":"경상남도 의령군 부림면 대한로 1721, 부림초등학교","jibunAddr":"경상남도 의령군 부림면 신반리 253-1 부림초등학교","openHours":"정시","maleToilets":14,"femaleToilets":13,"disabled":true,"diaperTable":false,"emergencyBell":false,"cctv":false,"managerTel":"0555746405","source":"public","category":"public"},{"id":"202453900000100076","name":"감암게이트볼장","lat":35.471107,"lng":128.322999,"roadAddr":"경상남도 의령군 부림면 미타로 27, 게이트볼장","jibunAddr":"경상남도 의령군 부림면 감암리 1052 게이트볼장","openHours":"정시","maleToilets":4,"femaleToilets":5,"disabled":true,"diaperTable":false,"emergencyBell":true,"cctv":false,"source":"public","category":"public"},{"id":"202453900000100035","name":"부림면사무소","lat":35.466496,"lng":128.324658,"roadAddr":"경상남도 의령군 부림면 대한로 1761, 부림면행정복지센터","jibunAddr":"경상남도 의령군 부림면 신반리 545-2 부림면행정복지센터","openHours":"정시","maleToilets":3,"femaleToilets":4,"disabled":true,"diaperTable":false,"emergencyBell":true,"cctv":false,"source":"public","category":"public"},{"id":"202453900000100034","name":"신반공원","lat":35.465526,"lng":128.32784,"roadAddr":"경상남도 의령군 부림면 신번로1길 24-14, 신반암벽공원사무실","jibunAddr":"경상남도 의령군 부림면 신반리 773-5 신반암벽공원사무실","openHours":"정시","maleToilets":2,"femaleToilets":2,"disabled":false,"diaperTable":false,"emergencyBell":true,"cctv":false,"source":"public","category":"public"},{"id":"202453900000100032","name":"부림통합보건지소","lat":35.467834,"lng":128.326168,"roadAddr":"경상남도 의령군 부림면 신번로10길 21-5, 부림면통합보건진료소","jibunAddr":"경상남도 의령군 부림면 신반리 509-1 부림면통합보건진료소","openHours":"정시","maleToilets":5,"femaleToilets":2,"disabled":false,"diaperTable":true,"emergencyBell":true,"cctv":false,"source":"public","category":"public"},{"id":"202453900000100033","name":"신반시장","lat":35.467818,"lng":128.324485,"roadAddr":"경상남도 의령군 부림면 신번로7길 5, 신흥상회포목이불","jibunAddr":"경상남도 의령군 부림면 신반리 777-9 신흥상회포목이불","openHours":"정시","maleToilets":5,"femaleToilets":4,"disabled":true,"diaperTable":false,"emergencyBell":true,"cctv":false,"source":"public","category":"public"}]