[{"id":"202356700000101048","name":"신촌119지역대 화장실","lat":35.352849,"lng":128.610974,"roadAddr":"경상남도의창구북면천주로1150번길15-22","openHours":"상시","maleToilets":2,"femaleToilets":1,"disabled":false,"diaperTable":false,"emergencyBell":false,"cctv":false,"managerTel":"0552259421","source":"public","category":"public"},{"id":"202356700000101004","name":"북면수변공원(다목적광장)","lat":35.375322,"lng":128.612953,"jibunAddr":"경상남도 창원시 의창구 북면 외산리 32-2","openHours":"상시","maleToilets":4,"femaleToilets":5,"disabled":true,"diaperTable":false,"emergencyBell":true,"cctv":false,"managerTel":"0552254664","source":"public","category":"public"},{"id":"202356700000100722","name":"북면주민자치센터1","lat":35.347974,"lng":128.607313,"roadAddr":"경상남도창원시의창구북면천주로1085","openHours":"근무시간 내","maleToilets":4,"femaleToilets":2,"disabled":false,"diaperTable":false,"emergencyBell":false,"cctv":false,"source":"public","category":"public"},{"id":"202356700000100725","name":"북면파출소 화장실","lat":35.351029,"lng":128.608002,"roadAddr":"경상남도창원시의창구북면천주로1127(신촌리,북면파출소)","openHours":"근무시간 내","maleToilets":1,"femaleToilets":1,"disabled":true,"diaperTable":false,"emergencyBell":false,"cctv":false,"source":"public","category":"public"},{"id":"202356700000100414","name":"온천2공구","lat":35.356453,"lng":128.608398,"roadAddr":"경상남도창원시의창구북면천주로1173번길30","jibunAddr":"경상남도창원시의창구북면신촌리407-1","openHours":"상시","maleToilets":12,"femaleToilets":8,"disabled":true,"diaperTable":false,"emergencyBell":true,"cctv":true,"managerTel":"0552124521","source":"public","category":"public"},{"id":"202356700000100416","name":"북면 공설운동장","lat":35.34641,"lng":128.618183,"roadAddr":"경상남도창원시의창구북면정렬대로1115","jibunAddr":"경상남도창원시의창구북면마산리1284","openHours":"상시","maleToilets":5,"femaleToilets":2,"disabled":false,"diaperTable":false,"emergencyBell":true,"cctv":true,"managerTel":"0552124521","source":"public","category":"public"},{"id":"202356700000100724","name":"반딧불이도서관","lat":35.347974,"lng":128.607313,"roadAddr":"경상남도창원시의창구북면천주로1085(신촌리,북면사무소)","openHours":"근무시간 내","maleToilets":1,"femaleToilets":1,"disabled":false,"diaperTable":false,"emergencyBell":false,"cctv":false,"source":"public","category":"public"},{"id":"202356700000100415","name":"족욕장(온천1공구)","lat":35.353406,"lng":128.611397,"roadAddr":"경상남도창원시의창구북면천주로1170번길24","jibunAddr":"경상남도창원시의창구북면신촌리1462-1","openHours":"상시","maleToilets":12,"femaleToilets":6,"disabled":true,"diaperTable":false,"emergencyBell":true,"cctv":true,"managerTel":"0552124521","source":"public","category":"public"},{"id":"202356700000100723","name":"북면주민자치센터2","lat":35.347974,"lng":128.607313,"roadAddr":"경상남도창원시의창구북면천주로1085","openHours":"근무시간 내","maleToilets":2,"femaleToilets":1,"disabled":false,"diaperTable":false,"emergencyBell":false,"cctv":false,"source":"public","category":"public"},{"id":"202456700000100002","name":"해시계광장","lat":35.372074,"lng":128.626399,"jibunAddr":"경상남도 창원시 의창구 북면 하천리 1203","openHours":"상시","maleToilets":5,"femaleToilets":5,"disabled":true,"diaperTable":false,"emergencyBell":true,"cctv":false,"managerTel":"0552254664","source":"public","category":"public"},{"id":"202356700000100721","name":"북면사무소","lat":35.347974,"lng":128.607313,"roadAddr":"경상남도창원시의창구북면천주로1085","openHours":"근무시간 내","maleToilets":4,"femaleToilets":2,"disabled":true,"diaperTable":false,"emergencyBell":false,"cctv":false,"source":"public","category":"public"}]