[{"id":"202454800000100145","name":"쌍책힐링센터","lat":35.574935,"lng":128.284802,"roadAddr":"경상남도 합천군 쌍책면 황강옥전로 1620","jibunAddr":"경상남도 합천군 쌍책면 성산리 50","openHours":"상시","maleToilets":2,"femaleToilets":3,"disabled":true,"diaperTable":false,"emergencyBell":true,"cctv":false,"managerTel":"0559305623","source":"public","category":"public"},{"id":"202454800000100144","name":"쌍책면사무소","lat":35.575966,"lng":128.282248,"roadAddr":"경상남도 합천군 쌍책면 성산큰길 48","jibunAddr":"경상남도 합천군 쌍책면 성산리 602","openHours":"상시","maleToilets":4,"femaleToilets":3,"disabled":true,"diaperTable":true,"emergencyBell":false,"cctv":true,"managerTel":"0559305623","source":"public","category":"public"},{"id":"202454800000100189","name":"청덕파출소","lat":35.556773,"lng":128.317428,"roadAddr":"경상남도 합천군 청덕면 동부로 1707","jibunAddr":"경상남도 합천군 청덕면 두곡리 315-5","openHours":"상시","maleToilets":3,"femaleToilets":0,"disabled":true,"diaperTable":false,"emergencyBell":false,"cctv":false,"source":"public","category":"public"},{"id":"202454800000100109","name":"옥전고분군 화장실","lat":35.583217,"lng":128.279119,"roadAddr":"경상남도 합천군 쌍책면 황강옥전로 1510-57","jibunAddr":"경상남도 합천군 쌍책면 성산리 473-2","openHours":"상시","maleToilets":4,"femaleToilets":3,"disabled":true,"diaperTable":false,"emergencyBell":true,"cctv":false,"managerTel":"0559304882","source":"public","category":"public"},{"id":"202454800000100108","name":"합천박물관","lat":35.580422,"lng":128.282941,"roadAddr":"경상남도 합천군 쌍책면 황강옥전로 1558","jibunAddr":"경상남도 합천군 쌍책면 성산리 504","openHours":"상시","maleToilets":6,"femaleToilets":4,"disabled":false,"diaperTable":false,"emergencyBell":true,"cctv":false,"managerTel":"0559304882","source":"public","category":"public"}]