[{"id":"202454800000100246","name":"운동장화장실","lat":35.533185,"lng":128.036301,"roadAddr":"경상남도 합천군 대병면 합천호수로 327-24","jibunAddr":"경상남도 합천군 대병면 성리 1405-3","openHours":"상시","maleToilets":8,"femaleToilets":3,"disabled":true,"diaperTable":true,"emergencyBell":true,"cctv":false,"managerTel":"0559305229","source":"public","category":"public"},{"id":"202454800000100072","name":"체육공원화장실","lat":35.521878,"lng":128.018509,"roadAddr":"경상남도 합천군 대병면 서부로 1982-18","openHours":"09:00~18:00","maleToilets":4,"femaleToilets":2,"disabled":false,"diaperTable":false,"emergencyBell":false,"cctv":false,"managerTel":"0559305942","source":"public","category":"public"},{"id":"202454800000100039","name":"합천호관리사무소화장실","lat":35.523258,"lng":128.017065,"roadAddr":"경상남도 합천군 대병면 회양관광단지길 79-4","jibunAddr":"경상남도 합천군 대병면 회양리 700-7","openHours":"상시","maleToilets":7,"femaleToilets":6,"disabled":true,"diaperTable":true,"emergencyBell":false,"cctv":false,"managerTel":"0559303753","source":"public","category":"public"},{"id":"202454800000100077","name":"합천호식당옆화장실","lat":35.521586,"lng":128.018552,"jibunAddr":"경상남도 합천군 대병면 회양리 837","openHours":"상시","maleToilets":4,"femaleToilets":4,"disabled":false,"diaperTable":false,"emergencyBell":true,"cctv":false,"managerTel":"0559305942","source":"public","category":"public"},{"id":"202454800000100044","name":"화양단지 광암정 앞 화장실","lat":35.525048,"lng":128.018805,"roadAddr":"경상남도 합천군 대병면 회양관광단지길 28-7","jibunAddr":"경상남도 합천군 대병면 회양리 805-6","openHours":"상시","maleToilets":7,"femaleToilets":7,"disabled":true,"diaperTable":false,"emergencyBell":true,"cctv":false,"managerTel":"0559303753","source":"public","category":"public"},{"id":"202454800000100037","name":"테니스장 화장실","lat":35.522588,"lng":128.018013,"roadAddr":"경상남도 합천군 대병면 서부로 1982-27","jibunAddr":"경상남도 합천군 대병면 회양리 836-6","openHours":"상시","maleToilets":7,"femaleToilets":4,"disabled":true,"diaperTable":false,"emergencyBell":true,"cctv":false,"managerTel":"0559303753","source":"public","category":"public"},{"id":"202454800000100070","name":"대병면사무소","lat":35.521431,"lng":128.014706,"roadAddr":"경상남도 합천군 대병면 신성동길 23","openHours":"상시","maleToilets":4,"femaleToilets":2,"disabled":true,"diaperTable":false,"emergencyBell":false,"cctv":false,"managerTel":"0559305942","source":"public","category":"public"},{"id":"202454800000100071","name":"삼양주유소","lat":35.523408,"lng":128.015241,"roadAddr":"경상남도 합천군 대병면 서부로 2030","openHours":"상시","maleToilets":2,"femaleToilets":1,"disabled":false,"diaperTable":false,"emergencyBell":false,"cctv":false,"managerTel":"0559337151","source":"public","category":"public"},{"id":"202454800000100245","name":"합천댐소형주차장화장실","lat":35.531659,"lng":128.032827,"roadAddr":"경상남도 합천군 대병면 합천호수로 229","jibunAddr":"경상남도 합천군 대병면 회양리 1558-5","openHours":"상시","maleToilets":9,"femaleToilets":3,"disabled":true,"diaperTable":true,"emergencyBell":true,"cctv":true,"managerTel":"0559305229","source":"public","category":"public"},{"id":"202454800000100038","name":"골프장화장실","lat":35.524417,"lng":128.016983,"roadAddr":"경상남도 합천군 대병면 회양관광단지길 49","jibunAddr":"경상남도 합천군 대병면 회양리700-12","openHours":"상시","maleToilets":7,"femaleToilets":0,"disabled":true,"diaperTable":false,"emergencyBell":true,"cctv":false,"managerTel":"0559303753","source":"public","category":"public"},{"id":"202454800000100040","name":"합천호(회양)관광지주차장화장실","lat":35.523171,"lng":128.016834,"roadAddr":"경상남도 합천군 대병면 회양관광단지길 5-8, 화장실","jibunAddr":"경상남도 합천군 대병면 회양리 700-7 화장실","openHours":"상시","maleToilets":7,"femaleToilets":6,"disabled":true,"diaperTable":true,"emergencyBell":true,"cctv":false,"managerTel":"0559303753","source":"public","category":"public"}]