[{"id":"202454800000100170","name":"영전공동화장실","lat":35.574058,"lng":128.216768,"roadAddr":"경상남도 합천군 율곡면 영전3길 2","openHours":"상시","maleToilets":2,"femaleToilets":1,"disabled":false,"diaperTable":false,"emergencyBell":false,"cctv":false,"managerTel":"0559305543","source":"public","category":"public"},{"id":"202454800000100169","name":"영전수변공원화장실","lat":35.573583,"lng":128.21283,"roadAddr":"경상남도 합천군 율곡면 동부로 542","openHours":"상시","maleToilets":3,"femaleToilets":3,"disabled":true,"diaperTable":false,"emergencyBell":true,"cctv":false,"source":"public","category":"public"},{"id":"202454800000100173","name":"율곡우체국","lat":35.57416,"lng":128.21755,"roadAddr":"경상남도 합천군 율곡면 동부로 586","openHours":"상시","maleToilets":2,"femaleToilets":1,"disabled":false,"diaperTable":false,"emergencyBell":false,"cctv":false,"source":"public","category":"public"},{"id":"202454800000100174","name":"율곡면사무소","lat":35.572354,"lng":128.21801,"roadAddr":"경상남도 합천군 율곡면 영전3길 26","openHours":"상시","maleToilets":6,"femaleToilets":3,"disabled":true,"diaperTable":false,"emergencyBell":false,"cctv":false,"managerTel":"0559305543","source":"public","category":"public"},{"id":"202454800000100068","name":"합천군공설봉안담","lat":35.592162,"lng":128.203458,"roadAddr":"경상남도 합천군 율곡면 제내리 산45","jibunAddr":"경상남도 합천군 율곡면 제내리 산45","openHours":"정시","maleToilets":2,"femaleToilets":1,"disabled":false,"diaperTable":true,"emergencyBell":false,"cctv":true,"managerTel":"0553904745","source":"public","category":"public"},{"id":"202454800000100175","name":"율곡보건지소","lat":35.572763,"lng":128.21799,"roadAddr":"경상남도 합천군 율곡면 영전3길 20","openHours":"상시","maleToilets":3,"femaleToilets":2,"disabled":true,"diaperTable":false,"emergencyBell":false,"cctv":false,"source":"public","category":"public"},{"id":"202454800000100171","name":"율곡농협 본점","lat":35.574712,"lng":128.215263,"roadAddr":"경상남도 합천군 율곡면 동부로 571","openHours":"정시","maleToilets":4,"femaleToilets":2,"disabled":false,"diaperTable":false,"emergencyBell":false,"cctv":false,"source":"public","category":"public"},{"id":"202454800000100172","name":"갑산주유소","lat":35.573816,"lng":128.21405,"roadAddr":"경상남도 합천군 율곡면 동부로 552","openHours":"상시","maleToilets":2,"femaleToilets":1,"disabled":false,"diaperTable":false,"emergencyBell":false,"cctv":false,"source":"public","category":"public"}]