[{"id":"202454700000100155","name":"온천화장실(무텔로)","lat":35.696746,"lng":128.022164,"roadAddr":"경상남도 거창군 가조면 일부리 1340","jibunAddr":"경상남도 거창군 가조면 일부리 1340","openHours":"정시","maleToilets":9,"femaleToilets":7,"disabled":true,"diaperTable":false,"emergencyBell":false,"cctv":false,"managerTel":"0559407814","source":"public","category":"public"},{"id":"202454700000100156","name":"가조면보건지소 화장실","lat":35.711368,"lng":128.014739,"roadAddr":"경상남도 거창군 가조면 장군봉1길 26 (마상리, 가조면보건지소)","jibunAddr":"경상남도 거창군 가조면 마상리 342-8","openHours":"정시","maleToilets":2,"femaleToilets":2,"disabled":true,"diaperTable":false,"emergencyBell":false,"cctv":false,"managerTel":"0559408644","source":"public","category":"public"},{"id":"202454700000100154","name":"온천화장실(온천앞)","lat":35.698793,"lng":128.021479,"roadAddr":"경상남도 거창군 가조면 일부리 1263","jibunAddr":"경상남도 거창군 가조면 일부리 1263","openHours":"정시","maleToilets":3,"femaleToilets":3,"disabled":false,"diaperTable":false,"emergencyBell":false,"cctv":false,"managerTel":"0559407814","source":"public","category":"public"},{"id":"202454700000100253","name":"그라운드골프장","lat":35.701083,"lng":128.019345,"roadAddr":"경상남도 거창군 가조면 일부리 1121-1","jibunAddr":"경상남도 거창군 가조면 일부리 1121-1","openHours":"상시","maleToilets":4,"femaleToilets":3,"disabled":true,"diaperTable":true,"emergencyBell":false,"cctv":false,"managerTel":"0559407814","source":"public","category":"public"},{"id":"202454700000100153","name":"가조119안전센터","lat":35.711519,"lng":128.0165,"roadAddr":"경상남도 거창군 가조면 마상3길32","jibunAddr":"경상남도 거창군 가조면 마상리 467-6","openHours":"정시","maleToilets":5,"femaleToilets":3,"disabled":true,"diaperTable":false,"emergencyBell":false,"cctv":false,"managerTel":"0559409225","source":"public","category":"public"},{"id":"202454700000100257","name":"힐링랜드버스주차장 화장실","lat":35.709257,"lng":128.018498,"roadAddr":"경상남도 거창군 가조면 수월리 449-11","jibunAddr":"경상남도 거창군 가조면 수월리 449-11","openHours":"상시","maleToilets":6,"femaleToilets":6,"disabled":true,"diaperTable":false,"emergencyBell":false,"cctv":false,"managerTel":"0559407832","source":"public","category":"public"},{"id":"202454700000100063","name":"고견사수월산장","lat":35.716758,"lng":128.017059,"roadAddr":"경상남도 거창군 가조면 수월리 1244","jibunAddr":"경상남도 거창군 가조면 수월리 1244","openHours":"상시","maleToilets":2,"femaleToilets":2,"disabled":false,"diaperTable":false,"emergencyBell":false,"cctv":false,"managerTel":"0559407935","source":"public","category":"public"},{"id":"202454700000100254","name":"파크골프장","lat":35.702464,"lng":128.021548,"roadAddr":"경상남도 거창군 가조면 일부리 1060-1","jibunAddr":"경상남도 거창군 가조면 일부리 1060-1","openHours":"상시","maleToilets":4,"femaleToilets":3,"disabled":true,"diaperTable":true,"emergencyBell":false,"cctv":false,"managerTel":"0559407814","source":"public","category":"public"},{"id":"202454700000100157","name":"가조면사무소","lat":35.710919,"lng":128.014691,"roadAddr":"경상남도 거창군 가조면 장군봉1길 8 (마상리, 가조면사무소)","jibunAddr":"경상남도 거창군 가조면 마상리 345-3","openHours":"정시","maleToilets":6,"femaleToilets":2,"disabled":false,"diaperTable":false,"emergencyBell":false,"cctv":false,"managerTel":"0559407814","source":"public","category":"public"},{"id":"202454700000100096","name":"가남정보화마을 화장실","lat":35.688362,"lng":128.021639,"roadAddr":"경상남도 거창군 가조면 기리 535-1","jibunAddr":"경상남도 거창군 가조면 기리 535-1","openHours":"상시","maleToilets":3,"femaleToilets":3,"disabled":false,"diaperTable":false,"emergencyBell":false,"cctv":false,"managerTel":"0559407814","source":"public","category":"public"},{"id":"202454700000100152","name":"도리보건진료소 화장실","lat":35.704883,"lng":128.049848,"roadAddr":"경상남도 거창군 가조면 가조가야로 1439, 도리보건진료소","jibunAddr":"경상남도 거창군 가조면 도리 1135 도리보건진료소","openHours":"정시","maleToilets":1,"femaleToilets":1,"disabled":true,"diaperTable":false,"emergencyBell":false,"cctv":false,"managerTel":"0559408675","source":"public","category":"public"}]