[{"id":"202454100000100125","name":"자하곡주차장(하)","lat":35.540409,"lng":128.507473,"roadAddr":"경상남도 창녕군 창녕읍 자하곡길 10","openHours":"상시","maleToilets":9,"femaleToilets":10,"disabled":true,"diaperTable":false,"emergencyBell":true,"cctv":true,"managerTel":"0555301970","source":"public","category":"public"},{"id":"202454100000100139","name":"창녕시장(2층)","lat":35.540073,"lng":128.497359,"roadAddr":"경상남도 창녕군 창녕읍 창녕시장길 66","openHours":"상시","maleToilets":4,"femaleToilets":3,"disabled":false,"diaperTable":false,"emergencyBell":true,"cctv":true,"managerTel":"0555306512","source":"public","category":"public"},{"id":"202454100000100154","name":"낙영마을체육공원","lat":35.531694,"lng":128.500277,"jibunAddr":"경상남도 창녕군 창녕읍 말흘리 850-1","openHours":"상시","maleToilets":2,"femaleToilets":1,"disabled":false,"diaperTable":false,"emergencyBell":false,"cctv":false,"managerTel":"0555306512","source":"public","category":"public"},{"id":"202454100000100123","name":"만옥정","lat":35.540863,"lng":128.502544,"jibunAddr":"경상남도 창녕군 창녕읍 교상리 28-1","openHours":"상시","maleToilets":3,"femaleToilets":3,"disabled":true,"diaperTable":false,"emergencyBell":true,"cctv":true,"managerTel":"0555306512","source":"public","category":"public"},{"id":"202454100000100134","name":"농산물 판매장","lat":35.541185,"lng":128.512773,"roadAddr":"경상남도 창녕군 창녕읍 자하곡길 59","openHours":"상시","maleToilets":4,"femaleToilets":3,"disabled":false,"diaperTable":false,"emergencyBell":true,"cctv":true,"managerTel":"0555301970","source":"public","category":"public"},{"id":"202454100000100140","name":"군립수영장","lat":35.520894,"lng":128.504931,"roadAddr":"경상남도 창녕군 창녕읍 창녕대로 305","openHours":"정시","maleToilets":12,"femaleToilets":6,"disabled":true,"diaperTable":false,"emergencyBell":true,"cctv":true,"managerTel":"0555334466","source":"public","category":"public"},{"id":"202454100000100137","name":"창녕석빙고","lat":35.542485,"lng":128.497612,"jibunAddr":"경상남도 창녕군 창녕읍 송현리 293","openHours":"상시","maleToilets":6,"femaleToilets":5,"disabled":true,"diaperTable":true,"emergencyBell":true,"cctv":true,"managerTel":"0555306512","source":"public","category":"public"},{"id":"202454100000100136","name":"창녕군민체육관","lat":35.519812,"lng":128.506493,"roadAddr":"경상남도 창녕군 창녕읍 창녕대로 307","openHours":"정시","maleToilets":10,"femaleToilets":5,"disabled":false,"diaperTable":false,"emergencyBell":true,"cctv":true,"managerTel":"0555329537","source":"public","category":"public"},{"id":"202454100000100128","name":"명덕체육공원","lat":35.5474,"lng":128.499481,"roadAddr":"경상남도 창녕군 창녕읍 향교골목길 15","openHours":"상시","maleToilets":4,"femaleToilets":4,"disabled":false,"diaperTable":false,"emergencyBell":true,"cctv":true,"managerTel":"0555306512","source":"public","category":"public"},{"id":"202454100000100130","name":"화왕산산림욕장","lat":35.54481,"lng":128.528225,"jibunAddr":"경상남도 창녕군 창녕읍 송현리 산1","openHours":"상시","maleToilets":3,"femaleToilets":2,"disabled":false,"diaperTable":false,"emergencyBell":false,"cctv":false,"managerTel":"0555301970","source":"public","category":"public"},{"id":"202454100000100153","name":"젊음의광장","lat":35.539342,"lng":128.498739,"roadAddr":"경상남도 창녕군 창녕읍 학천2길 23","openHours":"상시","maleToilets":4,"femaleToilets":3,"disabled":true,"diaperTable":false,"emergencyBell":true,"cctv":true,"managerTel":"0555306512","source":"public","category":"public"},{"id":"202454100000100151","name":"sk행복충전 대흥가스충전소","lat":35.533286,"lng":128.499628,"roadAddr":"경상남도 창녕군 창녕읍 창녕대로 142","openHours":"불규칙","maleToilets":2,"femaleToilets":2,"disabled":false,"diaperTable":false,"emergencyBell":false,"cctv":false,"managerTel":"0555332889","source":"public","category":"public"}]