[{"id":"202434800000100093","name":"송해공원 제2주차장","lat":35.767571,"lng":128.487505,"roadAddr":"대구광역시 달성군 옥포읍 옥포로 306-32","jibunAddr":"대구광역시 달성군 옥포읍 기세리 774-1","openHours":"06:00~24:00","maleToilets":5,"femaleToilets":5,"disabled":true,"diaperTable":false,"emergencyBell":true,"cctv":false,"managerTel":"0536685646","source":"public","category":"public"},{"id":"202434800000100267","name":"달성영업소","lat":35.764874,"lng":128.476976,"roadAddr":"대구광역시 달성군 옥포읍 송촌길 229","jibunAddr":"대구광역시 달성군 옥포읍 송촌리 502-2","openHours":"상시","maleToilets":4,"femaleToilets":3,"disabled":false,"diaperTable":false,"emergencyBell":false,"cctv":false,"managerTel":"0548112812","source":"public","category":"public"},{"id":"202434800000100181","name":"논공읍공단출장소","lat":35.730008,"lng":128.452844,"roadAddr":"대구광역시 달성군 논공읍 논공중앙로33길 3","jibunAddr":"대구광역시 달성군 논공읍 금포리 1998","openHours":"상시","maleToilets":6,"femaleToilets":1,"disabled":false,"diaperTable":false,"emergencyBell":false,"cctv":false,"managerTel":"0536685506","source":"public","category":"public"},{"id":"202434800000100191","name":"노이리 간이화장실","lat":35.764173,"lng":128.458846,"roadAddr":"대구광역시 달성군 논공읍 비슬로420길 243","jibunAddr":"대구광역시 달성군 논공읍 노이리 386","openHours":"06:00~24:00","maleToilets":1,"femaleToilets":1,"disabled":false,"diaperTable":false,"emergencyBell":false,"cctv":false,"managerTel":"0536685506","source":"public","category":"public"},{"id":"202434800000100136","name":"대구요양원","lat":35.746102,"lng":128.477839,"roadAddr":"대구광역시 달성군 논공읍 논공중앙로 453","jibunAddr":"대구광역시 달성군 논공읍 본리리 613-1","openHours":"06:00~24:00","maleToilets":15,"femaleToilets":7,"disabled":true,"diaperTable":false,"emergencyBell":false,"cctv":false,"managerTel":"0536163110","source":"public","category":"public"},{"id":"202434800000100164","name":"달성공단우체국","lat":35.730489,"lng":128.45271,"roadAddr":"대구광역시 달성군 논공읍 논공중앙로33길 9","jibunAddr":"대구광역시 달성군 논공읍 북리 1-107","openHours":"09:00~18:00","maleToilets":3,"femaleToilets":0,"disabled":false,"diaperTable":false,"emergencyBell":false,"cctv":false,"managerTel":"0536112752","source":"public","category":"public"},{"id":"202434800000100002","name":"흥구석유(주) 달성공단 주유소","lat":35.731198,"lng":128.452158,"roadAddr":"대구광역시 달성군 논공읍 논공중앙로33길 21","jibunAddr":"대구광역시 달성군 논공읍 북리 1-100","openHours":"06:00~24:00","maleToilets":1,"femaleToilets":1,"disabled":false,"diaperTable":false,"emergencyBell":false,"cctv":false,"managerTel":"0536141453","source":"public","category":"public"},{"id":"202434800000100148","name":"달성산업단지관리공단","lat":35.729692,"lng":128.454041,"roadAddr":"대구광역시 달성군 논공읍 논공중앙로34길 1","jibunAddr":"대구광역시 달성군 논공읍 북리 1-11","openHours":"09:00~18:00","maleToilets":3,"femaleToilets":2,"disabled":false,"diaperTable":false,"emergencyBell":false,"cctv":false,"managerTel":"0536156500","source":"public","category":"public"},{"id":"202434800000100188","name":"논공119안전센터","lat":35.730102,"lng":128.453014,"roadAddr":"대구광역시 달성군 논공읍 논공중앙로33길 5","jibunAddr":"대구광역시 달성군 논공읍 북리 1-95","openHours":"연중무휴","maleToilets":3,"femaleToilets":0,"disabled":false,"diaperTable":false,"emergencyBell":false,"cctv":false,"managerTel":"0536024952","source":"public","category":"public"},{"id":"202434800000100068","name":"용연사주유소","lat":35.758583,"lng":128.492761,"roadAddr":"대구광역시 달성군 옥포읍 옥포로 429","jibunAddr":"대구광역시 달성군 옥포읍 기세리 937","openHours":"06:00~24:00","maleToilets":2,"femaleToilets":2,"disabled":false,"diaperTable":false,"emergencyBell":false,"cctv":false,"managerTel":"0536168181","source":"public","category":"public"},{"id":"202434800000100236","name":"(주)한성엘피지 옥포충전소","lat":35.765188,"lng":128.488434,"roadAddr":"대구광역시 달성군 옥포읍 옥포로 354","jibunAddr":"대구광역시 달성군 옥포읍 기세리 969-58","openHours":"06:00~24:00","maleToilets":3,"femaleToilets":2,"disabled":false,"diaperTable":false,"emergencyBell":false,"cctv":false,"managerTel":"0536178010","source":"public","category":"public"},{"id":"202434800000100217","name":"공단파출소","lat":35.730321,"lng":128.45282,"roadAddr":"대구광역시 달성군 논공읍 논공중앙로33길 7, 공단파출소","jibunAddr":"대구광역시 달성군 논공읍 북리 1- 129","openHours":"상시","maleToilets":2,"femaleToilets":0,"disabled":false,"diaperTable":false,"emergencyBell":false,"cctv":false,"managerTel":"0536608702","source":"public","category":"public"},{"id":"202434800000100094","name":"송해공원 제1주차장","lat":35.768485,"lng":128.488715,"roadAddr":"대구광역시 달성군 옥포읍 옥포로 306-9","jibunAddr":"대구광역시 달성군 옥포읍 기세리 969-47","openHours":"06:00~24:00","maleToilets":6,"femaleToilets":6,"disabled":true,"diaperTable":false,"emergencyBell":true,"cctv":false,"managerTel":"0536685646","source":"public","category":"public"}]