[{"id":"202434800000100159","name":"달성군민운동장(동편)","lat":35.729561,"lng":128.451841,"roadAddr":"대구광역시 달성군 논공읍 논공로 697-10","jibunAddr":"대구광역시 달성군 논공읍 북리 1","openHours":"정시","maleToilets":5,"femaleToilets":5,"disabled":true,"diaperTable":false,"emergencyBell":true,"cctv":false,"managerTel":"0536593521","source":"public","category":"public"},{"id":"202334800000100636","name":"달성보 통합관리센터","lat":35.736396,"lng":128.420445,"roadAddr":"대구광역시 달성군 논공읍 비슬로 1193","jibunAddr":"대구광역시 달성군 논공읍 하리 689-3","openHours":"상시","maleToilets":5,"femaleToilets":8,"disabled":true,"diaperTable":false,"emergencyBell":false,"cctv":false,"managerTel":"0536310105","source":"public","category":"public"},{"id":"202434800000100154","name":"달성군종합사회복지관","lat":35.730421,"lng":128.451999,"roadAddr":"대구광역시 달성군 논공읍 논공로 697-9","jibunAddr":"대구광역시 달성군 논공읍 북리 1-104","openHours":"정시","maleToilets":8,"femaleToilets":2,"disabled":true,"diaperTable":false,"emergencyBell":false,"cctv":false,"managerTel":"0536159191","source":"public","category":"public"},{"id":"202434800000100149","name":"달성보주유소(전 대림주유소)","lat":35.731253,"lng":128.428505,"roadAddr":"대구광역시 달성군 논공읍 비슬로 1096","jibunAddr":"대구광역시 달성군 논공읍 남리 48-2","openHours":"정시","maleToilets":3,"femaleToilets":0,"disabled":false,"diaperTable":false,"emergencyBell":false,"cctv":false,"managerTel":"0536145842","source":"public","category":"public"},{"id":"202434800000100185","name":"논공공단주유소","lat":35.72889,"lng":128.432561,"roadAddr":"대구광역시 달성군 논공읍 비슬로 1052","jibunAddr":"대구광역시 달성군 논공읍 남리 147","openHours":"정시","maleToilets":6,"femaleToilets":2,"disabled":false,"diaperTable":false,"emergencyBell":false,"cctv":false,"managerTel":"0536155005","source":"public","category":"public"},{"id":"202434800000100187","name":"논공CNG충전소","lat":35.740859,"lng":128.425381,"roadAddr":"대구광역시 달성군 논공읍 약산덧재길 56","jibunAddr":"대구광역시 달성군 논공읍 하리 544-1","openHours":"정시","maleToilets":2,"femaleToilets":0,"disabled":false,"diaperTable":false,"emergencyBell":false,"cctv":false,"managerTel":"0536061471","source":"public","category":"public"},{"id":"202434800000100203","name":"그린에너지프라자(충전소)","lat":35.770551,"lng":128.413123,"roadAddr":"대구광역시 달성군 논공읍 비슬로 1705","jibunAddr":"대구광역시 달성군 논공읍 삼리리 31-6","openHours":"정시","maleToilets":3,"femaleToilets":1,"disabled":false,"diaperTable":false,"emergencyBell":false,"cctv":false,"managerTel":"0536168008","source":"public","category":"public"},{"id":"202434800000100018","name":"홍토주유소(충전소)","lat":35.729137,"lng":128.431242,"roadAddr":"대구광역시 달성군 논공읍 비슬로 1065","jibunAddr":"대구광역시 달성군 논공읍 남리 116-1","openHours":"정시","maleToilets":3,"femaleToilets":1,"disabled":false,"diaperTable":false,"emergencyBell":false,"cctv":false,"managerTel":"0536163800","source":"public","category":"public"},{"id":"202434800000100158","name":"달성군민운동장(서편)","lat":35.729561,"lng":128.451841,"roadAddr":"대구광역시 달성군 논공읍 논공로 697-10","jibunAddr":"대구광역시 달성군 논공읍 북리 1","openHours":"정시","maleToilets":7,"femaleToilets":5,"disabled":false,"diaperTable":false,"emergencyBell":true,"cctv":false,"managerTel":"0536593521","source":"public","category":"public"}]