[{"id":"202434800000100126","name":"매곡CNG충전소","lat":35.853136,"lng":128.448455,"roadAddr":"대구광역시 달성군 다사읍 달구벌대로 701-45","jibunAddr":"대구광역시 달성군 다사읍 매곡리1112","openHours":"06:00~24:00","maleToilets":3,"femaleToilets":1,"disabled":false,"diaperTable":false,"emergencyBell":false,"cctv":false,"managerTel":"0536061290","source":"public","category":"public"},{"id":"202452000000100151","name":"우륵문화마당","lat":35.836851,"lng":128.450589,"roadAddr":"경상북도 고령군 다산면 다산로 891","jibunAddr":"경상북도 고령군 다산면 곽촌리 1042번지 2호","openHours":"상시","maleToilets":4,"femaleToilets":3,"disabled":false,"diaperTable":false,"emergencyBell":false,"cctv":false,"managerTel":"0549507726","source":"public","category":"public"},{"id":"202452000000100199","name":"다산 버스정류장","lat":35.827186,"lng":128.45012,"roadAddr":"경상북도 고령군 다산면 상곡길 76","jibunAddr":"경상북도 고령군 다산면 상곡리 81번지 1호","openHours":"상시","maleToilets":2,"femaleToilets":1,"disabled":false,"diaperTable":false,"emergencyBell":false,"cctv":false,"managerTel":"0549507726","source":"public","category":"public"},{"id":"202452000000100197","name":"다산행정복합타운","lat":35.822694,"lng":128.452112,"roadAddr":"경상북도 고령군 다산면 다산로 681, 다산행정복합타운","jibunAddr":"경상북도 고령군 다산면 상곡리 134-2 다산행정복합타운","openHours":"09:00~18:00","maleToilets":17,"femaleToilets":18,"disabled":true,"diaperTable":true,"emergencyBell":true,"cctv":false,"managerTel":"0549507726","source":"public","category":"public"},{"id":"202452000000100205","name":"노곡 보건진료소","lat":35.839922,"lng":128.410621,"roadAddr":"경상북도 고령군 다산면 노곡1길 52, 노곡리보건진료소","jibunAddr":"경상북도 고령군 다산면 노곡리 1036 노곡리보건진료소","openHours":"09:00~18:00","maleToilets":1,"femaleToilets":1,"disabled":false,"diaperTable":false,"emergencyBell":false,"cctv":false,"managerTel":"0549556831","source":"public","category":"public"},{"id":"202452000000100144","name":"좌학근린공원","lat":35.820501,"lng":128.444304,"roadAddr":"경상북도 고령군 다산면 좌학길 22","jibunAddr":"경상북도 고령군 다산면 좌학리 171번지","openHours":"상시","maleToilets":4,"femaleToilets":4,"disabled":true,"diaperTable":false,"emergencyBell":false,"cctv":false,"managerTel":"0549507726","source":"public","category":"public"},{"id":"202452000000100198","name":"다산 택시승강장","lat":35.825211,"lng":128.446769,"roadAddr":"경상북도 고령군 다산면 상곡3길 32","jibunAddr":"경상북도 고령군 다산면 상곡리 150번지 9호","openHours":"상시","maleToilets":2,"femaleToilets":1,"disabled":false,"diaperTable":false,"emergencyBell":false,"cctv":false,"managerTel":"0549507726","source":"public","category":"public"}]