[{"id":"202334800000100633","name":"비슬산 유스호스텔","lat":35.692245,"lng":128.506015,"roadAddr":"대구광역시 달성군 유가읍 일연선사길 10","jibunAddr":"대구광역시 달성군 유가읍 용리 31-2","openHours":"상시","maleToilets":8,"femaleToilets":9,"disabled":true,"diaperTable":false,"emergencyBell":true,"cctv":false,"managerTel":"0536105700","source":"public","category":"public"},{"id":"202434800000100139","name":"대견사전기차회차지장애인화장실","lat":35.696318,"lng":128.529666,"roadAddr":"대구광역시 달성군 유가읍 일연선사길 177, 대견사","jibunAddr":"대구광역시 달성군 유가읍 용리 산1-2","openHours":"06:00~24:00","maleToilets":0,"femaleToilets":0,"disabled":true,"diaperTable":false,"emergencyBell":true,"cctv":false,"source":"public","category":"public"},{"id":"202434800000100114","name":"비슬산휴양림관리사무소","lat":35.691731,"lng":128.509354,"roadAddr":"대구광역시 달성군 유가읍 일연선사길 61","jibunAddr":"대구광역시 달성군 유가읍 용리 산10","openHours":"09:00~18:00","maleToilets":6,"femaleToilets":4,"disabled":false,"diaperTable":false,"emergencyBell":false,"cctv":false,"managerTel":"0536594400","source":"public","category":"public"},{"id":"202434800000100109","name":"비슬산휴양림캠핑장관리사무소","lat":35.690012,"lng":128.512902,"roadAddr":"대구광역시 달성군 유가읍 일연선사길 99, 비슬산자연휴양림","jibunAddr":"대구광역시 달성군 유가읍 용리 산15","openHours":"09:00~18:00","maleToilets":9,"femaleToilets":4,"disabled":true,"diaperTable":false,"emergencyBell":false,"cctv":false,"managerTel":"0536594400","source":"public","category":"public"},{"id":"202434800000100061","name":"유가사 주차장(구)","lat":35.713426,"lng":128.500872,"roadAddr":"대구광역시 달성군 유가읍 유가사길 144","jibunAddr":"대구광역시 달성군 유가읍 양리 산 3-16","openHours":"09:00~24:00","maleToilets":8,"femaleToilets":7,"disabled":true,"diaperTable":false,"emergencyBell":true,"cctv":false,"managerTel":"0536682704","source":"public","category":"public"},{"id":"202434800000100111","name":"비슬산휴양림주차장매점","lat":35.693342,"lng":128.505801,"roadAddr":"대구광역시 달성군 유가읍 휴양림길 236","jibunAddr":"대구광역시 달성군 유가읍 용리 15","openHours":"09:00~18:00","maleToilets":9,"femaleToilets":5,"disabled":false,"diaperTable":false,"emergencyBell":false,"cctv":false,"managerTel":"0536594400","source":"public","category":"public"},{"id":"202434800000100140","name":"대견사전기차회차지","lat":35.696318,"lng":128.529666,"roadAddr":"대구광역시 달성군 유가읍 일연선사길 177, 대견사","jibunAddr":"대구광역시 달성군 유가읍 용리 산1-2","openHours":"06:00~24:00","maleToilets":4,"femaleToilets":3,"disabled":false,"diaperTable":false,"emergencyBell":true,"cctv":false,"managerTel":"0536594400","source":"public","category":"public"},{"id":"202434800000100060","name":"유가사등산로","lat":35.713123,"lng":128.505559,"roadAddr":"대구광역시 달성군 유가읍 유가사길 197","jibunAddr":"대구광역시 달성군 유가읍 양리 149","openHours":"06:00~24:00","maleToilets":5,"femaleToilets":5,"disabled":true,"diaperTable":false,"emergencyBell":true,"cctv":false,"managerTel":"0536682792","source":"public","category":"public"},{"id":"202434800000100141","name":"대견사","lat":35.696318,"lng":128.529666,"roadAddr":"대구광역시 달성군 유가읍 일연선사길 177, 대견사","jibunAddr":"대구광역시 달성군 유가읍 용리 산1-2","openHours":"06:00~24:00","maleToilets":5,"femaleToilets":5,"disabled":false,"diaperTable":false,"emergencyBell":true,"cctv":false,"managerTel":"0536594400","source":"public","category":"public"},{"id":"202434800000100062","name":"유가사 입구","lat":35.714728,"lng":128.507369,"roadAddr":"대구광역시 달성군 유가읍 유가사길 161, 대한불교조계종 유가사","jibunAddr":"대구광역시 달성군 유가읍 양리 144","openHours":"상시","maleToilets":5,"femaleToilets":5,"disabled":true,"diaperTable":false,"emergencyBell":true,"cctv":false,"managerTel":"0536685837","source":"public","category":"public"},{"id":"202434800000100112","name":"비슬산휴양림주차장","lat":35.693342,"lng":128.505801,"roadAddr":"대구광역시 달성군 유가읍 휴양림길 236","jibunAddr":"대구광역시 달성군 유가읍 용리 15","openHours":"상시","maleToilets":6,"femaleToilets":7,"disabled":false,"diaperTable":false,"emergencyBell":true,"cctv":false,"managerTel":"0536594400","source":"public","category":"public"},{"id":"202434800000100113","name":"비슬산휴양림운동장","lat":35.690012,"lng":128.512902,"roadAddr":"대구광역시 달성군 유가읍 일연선사길 99, 비슬산자연휴양림","jibunAddr":"대구광역시 달성군 유가읍 용리 산17-1","openHours":"상시","maleToilets":11,"femaleToilets":6,"disabled":false,"diaperTable":false,"emergencyBell":true,"cctv":false,"managerTel":"0536594400","source":"public","category":"public"},{"id":"202434800000100059","name":"유가사주차장(신)","lat":35.714415,"lng":128.50329,"roadAddr":"대구광역시 달성군 유가읍 유가사2길 52","jibunAddr":"대구광역시 달성군 유가읍 양리 153-4","openHours":"상시","maleToilets":5,"femaleToilets":4,"disabled":true,"diaperTable":false,"emergencyBell":true,"cctv":true,"managerTel":"0536685837","source":"public","category":"public"},{"id":"202434800000100110","name":"비슬산휴양림캠핑장","lat":35.690012,"lng":128.512902,"roadAddr":"대구광역시 달성군 유가읍 일연선사길 99, 비슬산자연휴양림","jibunAddr":"대구광역시 달성군 유가읍 용리 산10","openHours":"상시","maleToilets":8,"femaleToilets":6,"disabled":false,"diaperTable":false,"emergencyBell":true,"cctv":false,"managerTel":"0536594400","source":"public","category":"public"}]