[{"id":"202434800000100023","name":"현풍주유소(마산방향)","lat":35.701306,"lng":128.435748,"roadAddr":"대구광역시 달성군 현풍읍 중부내륙지선고속도로 3","jibunAddr":"대구광역시 달성군 현풍읍 성하리 272","openHours":"상시","maleToilets":3,"femaleToilets":0,"disabled":false,"diaperTable":false,"emergencyBell":false,"cctv":false,"managerTel":"0536142437","source":"public","category":"public"},{"id":"202434800000100004","name":"환경시설공단(달성사업소)","lat":35.691087,"lng":128.423084,"roadAddr":"대구광역시 달성군 현풍읍 현풍서로 147, 달성사업소","jibunAddr":"대구광역시 달성군 현풍읍 원교리 1660","openHours":"09:00~18:00","maleToilets":6,"femaleToilets":8,"disabled":true,"diaperTable":true,"emergencyBell":false,"cctv":false,"managerTel":"0536058370","source":"public","category":"public"},{"id":"202434800000100064","name":"원오교 파크골프장","lat":35.690984,"lng":128.419006,"roadAddr":"대구광역시 달성군 현풍읍 현풍서로 198","jibunAddr":"대구광역시 달성군 현풍읍 원교리 904","openHours":"상시","maleToilets":2,"femaleToilets":2,"disabled":false,"diaperTable":false,"emergencyBell":false,"cctv":false,"source":"public","category":"public"},{"id":"202434800000100147","name":"달성시립도서관","lat":35.698522,"lng":128.447772,"roadAddr":"대구광역시 달성군 현풍읍 현풍동로19길 26, 대구광역시립달성도서관","jibunAddr":"대구광역시 달성군 현풍읍 부리 350-4","openHours":"06:00~24:00","maleToilets":8,"femaleToilets":5,"disabled":true,"diaperTable":false,"emergencyBell":false,"cctv":false,"managerTel":"0536157975","source":"public","category":"public"},{"id":"202434800000100233","name":"가람주유소(충전소)","lat":35.707103,"lng":128.436596,"roadAddr":"대구광역시 달성군 현풍읍 비슬로 799","jibunAddr":"대구광역시 달성군 현풍읍 성하리 164-1","openHours":"06:00~24:00","maleToilets":3,"femaleToilets":1,"disabled":false,"diaperTable":false,"emergencyBell":false,"cctv":false,"managerTel":"0536165182","source":"public","category":"public"},{"id":"202434800000100234","name":"KT달성지사","lat":35.692459,"lng":128.447402,"roadAddr":"대구광역시 달성군 현풍읍 현풍동로 13, 달성전화국","jibunAddr":"대구광역시 달성군 현풍읍 중리 341","openHours":"06:00~24:00","maleToilets":12,"femaleToilets":4,"disabled":false,"diaperTable":false,"emergencyBell":false,"cctv":false,"managerTel":"0536140008","source":"public","category":"public"},{"id":"202434800000100020","name":"현풍휴게소(상행)대구방향","lat":35.702014,"lng":128.438477,"roadAddr":"대구광역시 달성군 현풍읍 비슬로 741, 현풍휴게소","jibunAddr":"대구광역시 달성군 현풍읍 성하리 342","openHours":"상시","maleToilets":30,"femaleToilets":22,"disabled":true,"diaperTable":false,"emergencyBell":false,"cctv":false,"managerTel":"0536150337","source":"public","category":"public"},{"id":"202434800000100146","name":"달성우체국","lat":35.694699,"lng":128.439944,"roadAddr":"대구광역시 달성군 현풍읍 비슬로130길 7, 달성우체국","jibunAddr":"대구광역시 달성군 현풍읍 원교리 94","openHours":"09:00~18:00","maleToilets":12,"femaleToilets":6,"disabled":true,"diaperTable":false,"emergencyBell":false,"cctv":false,"managerTel":"0536112752","source":"public","category":"public"},{"id":"202434800000100021","name":"현풍하이패스주유소","lat":35.701704,"lng":128.439725,"roadAddr":"대구광역시 달성군 현풍읍 비슬로 732","jibunAddr":"대구광역시 달성군 현풍읍 성하리 255-6","openHours":"06:00~24:00","maleToilets":5,"femaleToilets":1,"disabled":false,"diaperTable":false,"emergencyBell":false,"cctv":false,"managerTel":"0536165188","source":"public","category":"public"},{"id":"202434800000100040","name":"포산주유소","lat":35.690165,"lng":128.445211,"roadAddr":"대구광역시 달성군 현풍읍 비슬로 575","jibunAddr":"대구광역시 달성군 현풍읍 원교리 162- 2","openHours":"06:00~24:00","maleToilets":4,"femaleToilets":2,"disabled":false,"diaperTable":false,"emergencyBell":false,"cctv":false,"managerTel":"0536178582","source":"public","category":"public"},{"id":"202434800000100157","name":"달성군민체육관","lat":35.700471,"lng":128.441321,"roadAddr":"대구광역시 달성군 현풍읍 현풍중앙로 130, 달성군민체육관","jibunAddr":"대구광역시 달성군 현풍읍 성하리 235-4","openHours":"06:00~24:00","maleToilets":7,"femaleToilets":5,"disabled":true,"diaperTable":true,"emergencyBell":true,"cctv":true,"managerTel":"0536594100","source":"public","category":"public"},{"id":"202434800000100024","name":"현풍주유소(대구방향)","lat":35.702014,"lng":128.438477,"roadAddr":"대구광역시 달성군 현풍읍 비슬로 741","jibunAddr":"대구광역시 달성군 현풍읍 성하리 741","openHours":"상시","maleToilets":3,"femaleToilets":0,"disabled":false,"diaperTable":false,"emergencyBell":false,"cctv":false,"managerTel":"0536142508","source":"public","category":"public"},{"id":"202434800000100150","name":"달성문화원","lat":35.698925,"lng":128.452042,"roadAddr":"대구광역시 달성군 현풍읍 현풍동로 92, 달성문화원","jibunAddr":"대구광역시 달성군 현풍읍 상리 627","openHours":"09:00~18:00","maleToilets":10,"femaleToilets":5,"disabled":true,"diaperTable":false,"emergencyBell":false,"cctv":false,"managerTel":"0536682173","source":"public","category":"public"},{"id":"202434800000100138","name":"상수도사업본부 달성사업소","lat":35.700127,"lng":128.443513,"roadAddr":"대구광역시 달성군 현풍읍 현풍중앙로 144-34","jibunAddr":"대구광역시 달성군 현풍읍 부리 248","openHours":"09:00~18:00","maleToilets":22,"femaleToilets":8,"disabled":false,"diaperTable":false,"emergencyBell":false,"cctv":false,"managerTel":"0536703614","source":"public","category":"public"},{"id":"202434800000100220","name":"경인주유소","lat":35.727025,"lng":128.436228,"roadAddr":"대구광역시 달성군 논공읍 논공로 842","jibunAddr":"대구광역시 달성군 논공읍 남리 137-54","openHours":"06:00~24:00","maleToilets":4,"femaleToilets":2,"disabled":false,"diaperTable":false,"emergencyBell":false,"cctv":false,"managerTel":"0536235547","source":"public","category":"public"},{"id":"202434800000100022","name":"현풍파출소","lat":35.695632,"lng":128.445108,"roadAddr":"대구광역시 달성군 현풍읍 현풍중앙로 70, 현풍파출소","jibunAddr":"대구광역시 달성군 현풍읍 하리 65-1","openHours":"상시","maleToilets":4,"femaleToilets":2,"disabled":true,"diaperTable":false,"emergencyBell":false,"cctv":false,"managerTel":"0536608139","source":"public","category":"public"},{"id":"202434800000100104","name":"상리체육공원","lat":35.697756,"lng":128.450874,"roadAddr":"대구광역시 달성군 현풍읍 현풍동로 86","jibunAddr":"대구광역시 달성군 현풍읍 상리 632","openHours":"06:00~24:00","maleToilets":3,"femaleToilets":1,"disabled":false,"diaperTable":false,"emergencyBell":false,"cctv":false,"managerTel":"0536685406","source":"public","category":"public"},{"id":"202434800000100048","name":"참빛주유소","lat":35.720258,"lng":128.45211,"roadAddr":"대구광역시 달성군 논공읍 논공로 199","jibunAddr":"대구광역시 달성군 논공읍 남리 899","openHours":"06:00~24:00","maleToilets":3,"femaleToilets":1,"disabled":false,"diaperTable":false,"emergencyBell":false,"cctv":false,"managerTel":"0536172345","source":"public","category":"public"},{"id":"202434800000100143","name":"달성주유소(충전소)","lat":35.711734,"lng":128.442889,"roadAddr":"대구광역시 달성군 현풍읍 논공로 66","jibunAddr":"대구광역시 달성군 현풍읍 성하리 127-10","openHours":"06:00~24:00","maleToilets":2,"femaleToilets":1,"disabled":false,"diaperTable":false,"emergencyBell":false,"cctv":false,"managerTel":"0536167770","source":"public","category":"public"},{"id":"202434800000100003","name":"환경시설관리공사 달성사업소","lat":35.723976,"lng":128.436877,"roadAddr":"대구광역시 달성군 논공읍 논공중앙로 13","jibunAddr":"대구광역시 달성군 논공읍 남리 471-2","openHours":"06:00~24:00","maleToilets":5,"femaleToilets":2,"disabled":false,"diaperTable":false,"emergencyBell":false,"cctv":false,"managerTel":"0536145446","source":"public","category":"public"},{"id":"202434800000100145","name":"달성종합스포츠파크","lat":35.701778,"lng":128.44334,"roadAddr":"대구광역시 달성군 현풍읍 현풍동로 170, 달성종합스포츠파크","jibunAddr":"대구광역시 달성군 현풍읍 성하리 228-2","openHours":"06:00~24:00","maleToilets":11,"femaleToilets":8,"disabled":true,"diaperTable":false,"emergencyBell":true,"cctv":false,"managerTel":"0536594111","source":"public","category":"public"},{"id":"202434800000100019","name":"현풍휴게소(하행)창원방향","lat":35.701631,"lng":128.434972,"roadAddr":"대구광역시 달성군 현풍읍 성하길 48, 현풍휴게소(하행선)","jibunAddr":"대구광역시 달성군 현풍읍 성하리 284","openHours":"상시","maleToilets":30,"femaleToilets":22,"disabled":true,"diaperTable":false,"emergencyBell":false,"cctv":false,"managerTel":"0536140337","source":"public","category":"public"},{"id":"202434800000100026","name":"현풍시장","lat":35.694329,"lng":128.442254,"roadAddr":"대구광역시 달성군 현풍읍 비슬로130길 51","jibunAddr":"대구광역시 달성군 현풍읍 원교리 12","openHours":"09:00~18:00","maleToilets":9,"femaleToilets":6,"disabled":true,"diaperTable":false,"emergencyBell":false,"cctv":false,"managerTel":"0536682644","source":"public","category":"public"},{"id":"202434800000100156","name":"달성군보건소","lat":35.694817,"lng":128.440321,"roadAddr":"대구광역시 달성군 현풍읍 비슬로130길 17, 달성군보건소","jibunAddr":"대구광역시 달성군 현풍읍 원교리 93-1","openHours":"(평일)09:00~18:00","maleToilets":43,"femaleToilets":36,"disabled":true,"diaperTable":false,"emergencyBell":false,"cctv":false,"managerTel":"0536683106","source":"public","category":"public"},{"id":"202334800000100625","name":"현풍공영버스정류장","lat":35.696481,"lng":128.440721,"roadAddr":"대구광역시 달성군 현풍읍 비슬로136길 15-65","jibunAddr":"대구광역시 달성군 현풍읍 성하리 476","openHours":"07:00-20:00","maleToilets":5,"femaleToilets":6,"disabled":true,"diaperTable":true,"emergencyBell":true,"cctv":true,"managerTel":"0536594132","source":"public","category":"public"},{"id":"202434800000100162","name":"달성국민체육센터","lat":35.701692,"lng":128.441821,"roadAddr":"대구광역시 달성군 현풍읍 현풍동로 180, 달성국민체육센터","jibunAddr":"대구광역시 달성군 현풍읍 성하리 228-2","openHours":"09:00~18:00","maleToilets":11,"femaleToilets":2,"disabled":false,"diaperTable":false,"emergencyBell":true,"cctv":false,"managerTel":"0536594023","source":"public","category":"public"},{"id":"202434800000100025","name":"현풍읍사무소","lat":35.697252,"lng":128.447573,"roadAddr":"대구광역시 달성군 현풍읍 비슬로134길 157, 현풍읍사무소","jibunAddr":"대구광역시 달성군 현풍읍 부리 352-2","openHours":"상시","maleToilets":10,"femaleToilets":7,"disabled":true,"diaperTable":false,"emergencyBell":false,"cctv":false,"managerTel":"0536685693","source":"public","category":"public"},{"id":"202434800000100065","name":"원교 어린이공원","lat":35.693704,"lng":128.442336,"roadAddr":"대구광역시 달성군 현풍읍 비슬로128길 26-3","jibunAddr":"대구광역시 달성군 현풍읍 원교리 38","openHours":"09:00~18:00","maleToilets":3,"femaleToilets":2,"disabled":false,"diaperTable":false,"emergencyBell":true,"cctv":false,"managerTel":"0536685406","source":"public","category":"public"},{"id":"202452000000100142","name":"진촌 보건진료소","lat":35.712972,"lng":128.42521,"roadAddr":"경상북도 고령군 개진면 개경포로 1386, 개진면진촌보건진료소","jibunAddr":"경상북도 고령군 개진면 부리 345-3 개진면진촌보건진료소","openHours":"09:00~18:00","maleToilets":1,"femaleToilets":1,"disabled":false,"diaperTable":false,"emergencyBell":false,"cctv":false,"managerTel":"0549548291","source":"public","category":"public"},{"id":"202452000000100172","name":"부동삼거리","lat":35.710953,"lng":128.425987,"roadAddr":"경상북도 고령군 개진면 개경포로 1370-10","jibunAddr":"경상북도 고령군 개진면 부리 370번지 3호","openHours":"상시","maleToilets":2,"femaleToilets":1,"disabled":false,"diaperTable":false,"emergencyBell":false,"cctv":false,"managerTel":"0549507754","source":"public","category":"public"}]