[{"id":"202434800000100115","name":"비슬구천공원","lat":35.697239,"lng":128.465481,"roadAddr":"대구광역시 달성군 유가읍 테크노대로5길 96","jibunAddr":"대구광역시 달성군 유가읍 봉리 596-3","openHours":"상시","maleToilets":3,"femaleToilets":4,"disabled":false,"diaperTable":false,"emergencyBell":false,"cctv":false,"managerTel":"0536688308","source":"public","category":"public"},{"id":"202434800000100056","name":"유가파출소","lat":35.693889,"lng":128.460462,"roadAddr":"대구광역시 달성군 유가읍 테크노상업로 99","jibunAddr":"대구광역시 달성군 유가읍 봉리 599-4","openHours":"상시","maleToilets":5,"femaleToilets":2,"disabled":false,"diaperTable":false,"emergencyBell":false,"cctv":false,"managerTel":"0536608307","source":"public","category":"public"},{"id":"202434800000100219","name":"고래들공원","lat":35.695741,"lng":128.453406,"roadAddr":"대구광역시 달성군 현풍읍 테크노북로 92","jibunAddr":"대구광역시 달성군 현풍읍 중리 483-3","openHours":"정시","maleToilets":3,"femaleToilets":3,"disabled":false,"diaperTable":false,"emergencyBell":true,"cctv":false,"managerTel":"0536688308","source":"public","category":"public"},{"id":"202334800000100616","name":"대구테크비즈센터","lat":35.690464,"lng":128.456153,"roadAddr":"대구광역시 달성군 현풍읍 테크노공원로 16","jibunAddr":"대구광역시 달성군 현풍읍 중리 507","openHours":"정시","maleToilets":31,"femaleToilets":32,"disabled":true,"diaperTable":true,"emergencyBell":true,"cctv":true,"managerTel":"0535928350","source":"public","category":"public"},{"id":"202434800000100088","name":"쌍계오거리","lat":35.700412,"lng":128.469477,"roadAddr":"대구광역시 달성군 유가읍 휴양림길 685","jibunAddr":"대구광역시 달성군 유가읍 쌍계리 652","openHours":"정시","maleToilets":5,"femaleToilets":5,"disabled":false,"diaperTable":false,"emergencyBell":true,"cctv":false,"managerTel":"0536685837","source":"public","category":"public"},{"id":"202434800000100186","name":"논공가톨릭치매센타","lat":35.721075,"lng":128.453493,"roadAddr":"대구광역시 달성군 논공읍 논공로 210","jibunAddr":"대구광역시 달성군 논공읍 남리 717-2","openHours":"정시","maleToilets":9,"femaleToilets":6,"disabled":true,"diaperTable":false,"emergencyBell":false,"cctv":false,"managerTel":"0536162141","source":"public","category":"public"},{"id":"202434800000100027","name":"현풍농협주유소","lat":35.696339,"lng":128.452899,"roadAddr":"대구광역시 달성군 현풍읍 테크노북로 87","jibunAddr":"대구광역시 달성군 현풍읍 중리 453-1","openHours":"정시","maleToilets":3,"femaleToilets":1,"disabled":false,"diaperTable":false,"emergencyBell":false,"cctv":false,"managerTel":"0536140995","source":"public","category":"public"},{"id":"202434800000100257","name":"달성농수산물유통센터","lat":35.692302,"lng":128.462904,"roadAddr":"대구광역시 달성군 유가읍 테크노공원로 91","jibunAddr":"대구광역시 달성군 유가읍 봉리 620","openHours":"상시","maleToilets":3,"femaleToilets":4,"disabled":true,"diaperTable":false,"emergencyBell":true,"cctv":false,"managerTel":"0536157799","source":"public","category":"public"},{"id":"202334800000100626","name":"달성테크노스포츠센터 화장실","lat":35.684988,"lng":128.463773,"roadAddr":"대구광역시 달성군 유가읍 테크노순환로7길 38","jibunAddr":"대구광역시 달성군 유가읍 상리  971","openHours":"불규칙","maleToilets":13,"femaleToilets":17,"disabled":true,"diaperTable":true,"emergencyBell":true,"cctv":false,"managerTel":"0536593632","source":"public","category":"public"},{"id":"202434800000100057","name":"유가읍사무소","lat":35.693887,"lng":128.459817,"roadAddr":"대구광역시 달성군 유가읍 테크노상업로 95, 유가읍사무소","jibunAddr":"대구광역시 달성군 유가읍 봉리 599-2","openHours":"상시","maleToilets":16,"femaleToilets":9,"disabled":true,"diaperTable":false,"emergencyBell":false,"cctv":false,"managerTel":"0536685837","source":"public","category":"public"},{"id":"202434800000100042","name":"테크노폴리스중앙공원","lat":35.691429,"lng":128.459782,"roadAddr":"대구광역시 달성군 유가읍 테크노공원로 60","jibunAddr":"대구광역시 달성군 유가읍 봉리 624","openHours":"정시","maleToilets":6,"femaleToilets":5,"disabled":true,"diaperTable":false,"emergencyBell":false,"cctv":false,"managerTel":"0536688308","source":"public","category":"public"},{"id":"202334800000100654","name":"테크노더원 빌딩","lat":35.693904,"lng":128.473405,"roadAddr":"대구광역시 달성군 유가읍 테크노순환로12길 33","jibunAddr":"대구광역시 달성군 유가읍 용리 886-7","openHours":"정시","maleToilets":4,"femaleToilets":2,"disabled":true,"diaperTable":false,"emergencyBell":false,"cctv":false,"source":"public","category":"public"},{"id":"202434800000100043","name":"테크노주유소","lat":35.683859,"lng":128.468743,"roadAddr":"대구광역시 달성군 유가읍 테크노순환로 230","jibunAddr":"대구광역시 달성군 유가읍 용리 891","openHours":"정시","maleToilets":3,"femaleToilets":2,"disabled":false,"diaperTable":false,"emergencyBell":false,"cctv":false,"managerTel":"0536141152","source":"public","category":"public"},{"id":"202434800000100152","name":"달성군청소년센터","lat":35.723894,"lng":128.455083,"roadAddr":"대구광역시 달성군 논공읍 논공로 252","jibunAddr":"대구광역시 달성군 논공읍 남리 717-8","openHours":"정시","maleToilets":16,"femaleToilets":15,"disabled":true,"diaperTable":false,"emergencyBell":false,"cctv":false,"managerTel":"0536171388","source":"public","category":"public"},{"id":"202434800000100041","name":"포산공원","lat":35.689565,"lng":128.457096,"roadAddr":"대구광역시 달성군 현풍읍 테크노대로 93","jibunAddr":"대구광역시 달성군 현풍읍 중리 506-3","openHours":"정시","maleToilets":3,"femaleToilets":3,"disabled":true,"diaperTable":false,"emergencyBell":true,"cctv":false,"managerTel":"0536688308","source":"public","category":"public"},{"id":"202434800000100179","name":"논공축구장","lat":35.722804,"lng":128.455441,"roadAddr":"대구광역시 달성군 논공읍 논공로 240","jibunAddr":"대구광역시 달성군 논공읍 금포리 1809-1","openHours":"상시","maleToilets":3,"femaleToilets":3,"disabled":true,"diaperTable":false,"emergencyBell":true,"cctv":false,"managerTel":"0536143521","source":"public","category":"public"}]