[{"id":"202434800000100069","name":"용연사 집단시설지구","lat":35.754004,"lng":128.504486,"roadAddr":"대구광역시 달성군 옥포읍 용연사길 100-1","jibunAddr":"대구광역시 달성군 옥포읍 반송리 359-2","openHours":"정시","maleToilets":2,"femaleToilets":2,"disabled":false,"diaperTable":false,"emergencyBell":true,"cctv":false,"managerTel":"0536685646","source":"public","category":"public"},{"id":"202434800000100070","name":"용연사","lat":35.748237,"lng":128.520924,"roadAddr":"대구광역시 달성군 옥포읍 용연사길 260, 용연사","jibunAddr":"대구광역시 달성군 옥포읍 반송리 882","openHours":"정시","maleToilets":6,"femaleToilets":5,"disabled":true,"diaperTable":false,"emergencyBell":false,"cctv":false,"managerTel":"0536685646","source":"public","category":"public"},{"id":"202434800000100067","name":"용연사주차장","lat":35.75196,"lng":128.511139,"roadAddr":"대구광역시 달성군 옥포읍 용연사길 168, 용연사매표소","jibunAddr":"대구광역시 달성군 옥포읍 반송리 산54-3","openHours":"정시","maleToilets":7,"femaleToilets":4,"disabled":true,"diaperTable":false,"emergencyBell":true,"cctv":false,"managerTel":"0536682704","source":"public","category":"public"},{"id":"202434800000100200","name":"기내미재","lat":35.767256,"lng":128.512266,"roadAddr":"대구광역시 달성군 옥포읍 명곡로 421","jibunAddr":"대구광역시 달성군 옥포읍 반송리 2-6","openHours":"정시","maleToilets":3,"femaleToilets":3,"disabled":false,"diaperTable":false,"emergencyBell":true,"cctv":false,"managerTel":"0536685646","source":"public","category":"public"},{"id":"202434800000100071","name":"용문사입구","lat":35.769493,"lng":128.538689,"roadAddr":"대구광역시 달성군 화원읍 화원휴양림길 130","jibunAddr":"대구광역시 달성군 화원읍 본리리 1131","openHours":"정시","maleToilets":2,"femaleToilets":2,"disabled":false,"diaperTable":false,"emergencyBell":false,"cctv":false,"managerTel":"0536683163","source":"public","category":"public"}]