[{"id":"202334800000100631","name":"화원동산 주차장","lat":35.812771,"lng":128.480637,"roadAddr":"대구광역시 달성군 화원읍 사문진로1길 40-14","jibunAddr":"대구광역시 달성군 화원읍 성산리 310","openHours":"상시","maleToilets":6,"femaleToilets":5,"disabled":true,"diaperTable":false,"emergencyBell":true,"cctv":false,"managerTel":"0536594465","source":"public","category":"public"},{"id":"202434800000100243","name":"(주)우리주유소","lat":35.79755,"lng":128.482825,"roadAddr":"대구광역시 달성군 화원읍 성화로 107","jibunAddr":"대구광역시 달성군 화원읍 설화리 792-13","openHours":"정시","maleToilets":3,"femaleToilets":2,"disabled":false,"diaperTable":false,"emergencyBell":false,"cctv":false,"managerTel":"0536319708","source":"public","category":"public"},{"id":"202434800000100084","name":"여성문화복지센터","lat":35.798475,"lng":128.488178,"roadAddr":"대구광역시 달성군 화원읍 성천로 5","jibunAddr":"대구광역시 달성군 화원읍 설화리 553-41","openHours":"정시","maleToilets":23,"femaleToilets":20,"disabled":true,"diaperTable":false,"emergencyBell":true,"cctv":false,"managerTel":"0536594351","source":"public","category":"public"},{"id":"202434800000100108","name":"사문진 주막촌","lat":35.810699,"lng":128.477374,"roadAddr":"대구광역시 달성군 화원읍 사문진로1길 43","jibunAddr":"대구광역시 달성군 화원읍 성산리 318","openHours":"정시","maleToilets":3,"femaleToilets":3,"disabled":true,"diaperTable":false,"emergencyBell":false,"cctv":false,"managerTel":"0536594455","source":"public","category":"public"},{"id":"202434800000100235","name":"GS칼텍스(주) 유천IC주유소","lat":35.803272,"lng":128.489412,"roadAddr":"대구광역시 달성군 화원읍 성천로 66","jibunAddr":"대구광역시 달성군 화원읍 성산리 744-59","openHours":"정시","maleToilets":2,"femaleToilets":2,"disabled":false,"diaperTable":false,"emergencyBell":false,"cctv":false,"managerTel":"0536316886","source":"public","category":"public"},{"id":"202434800000100144","name":"달성주민건강증진센터","lat":35.789724,"lng":128.471023,"roadAddr":"대구광역시 달성군 옥포읍 비슬로458길 6-2, 달성주민건강증진센터","jibunAddr":"대구광역시 달성군 옥포읍 기세리 267","openHours":"정시","maleToilets":12,"femaleToilets":12,"disabled":true,"diaperTable":false,"emergencyBell":false,"cctv":false,"managerTel":"0536683830","source":"public","category":"public"},{"id":"202434800000100091","name":"송해공원 제3주차장(2)","lat":35.780943,"lng":128.480052,"roadAddr":"대구광역시 달성군 옥포읍 옥포로 126-18","jibunAddr":"대구광역시 달성군 옥포읍 기세리 306","openHours":"정시","maleToilets":3,"femaleToilets":2,"disabled":false,"diaperTable":false,"emergencyBell":true,"cctv":false,"managerTel":"0536685646","source":"public","category":"public"},{"id":"202434800000100077","name":"옥포우체국","lat":35.790761,"lng":128.47297,"roadAddr":"대구광역시 달성군 옥포읍 비슬로 2302, 옥포우체국","jibunAddr":"대구광역시 달성군 옥포읍 본리리 814-3","openHours":"상시","maleToilets":1,"femaleToilets":0,"disabled":true,"diaperTable":false,"emergencyBell":false,"cctv":false,"managerTel":"0536112752","source":"public","category":"public"},{"id":"202434800000100010","name":"화원유원지 축구장","lat":35.80875,"lng":128.476046,"roadAddr":"대구광역시 달성군 화원읍 사문진로1길 33-18","jibunAddr":"대구광역시 달성군 화원읍 성산리 744-11","openHours":"상시","maleToilets":3,"femaleToilets":2,"disabled":false,"diaperTable":false,"emergencyBell":true,"cctv":false,"managerTel":"0536594465","source":"public","category":"public"},{"id":"202434800000100128","name":"맛정한식뷔페","lat":35.790162,"lng":128.471436,"roadAddr":"대구광역시 달성군 옥포읍 비슬로 2288","jibunAddr":"대구광역시 달성군 옥포읍 기세리 161-8","openHours":"정시","maleToilets":2,"femaleToilets":2,"disabled":false,"diaperTable":false,"emergencyBell":false,"cctv":false,"managerTel":"0536147686","source":"public","category":"public"},{"id":"202434800000100014","name":"화원명곡숲","lat":35.797029,"lng":128.491334,"roadAddr":"대구광역시 달성군 화원읍 화암로 26","jibunAddr":"대구광역시 달성군 화원읍 명곡리 323","openHours":"정시","maleToilets":3,"femaleToilets":3,"disabled":true,"diaperTable":true,"emergencyBell":true,"cctv":false,"managerTel":"0536688265","source":"public","category":"public"},{"id":"202434800000100204","name":"국민주유소","lat":35.808226,"lng":128.486861,"roadAddr":"대구광역시 달성군 화원읍 사문진로 339","jibunAddr":"대구광역시 달성군 화원읍 성산리 74","openHours":"정시","maleToilets":3,"femaleToilets":2,"disabled":false,"diaperTable":false,"emergencyBell":false,"cctv":false,"managerTel":"0536388384","source":"public","category":"public"},{"id":"202434800000100009","name":"화원유원지주유소","lat":35.807622,"lng":128.487396,"roadAddr":"대구광역시 달성군 화원읍 사문진로 346","jibunAddr":"대구광역시 달성군 화원읍 성산리 66","openHours":"정시","maleToilets":3,"femaleToilets":2,"disabled":false,"diaperTable":false,"emergencyBell":false,"cctv":false,"managerTel":"0536354287","source":"public","category":"public"},{"id":"202434800000100079","name":"옥포고속주유소","lat":35.787709,"lng":128.461266,"roadAddr":"대구광역시 달성군 옥포읍 비슬로 2190","jibunAddr":"대구광역시 달성군 옥포읍 본리리 2424-1","openHours":"정시","maleToilets":3,"femaleToilets":0,"disabled":false,"diaperTable":false,"emergencyBell":false,"cctv":false,"managerTel":"0536147855","source":"public","category":"public"},{"id":"202434800000100066","name":"우리최고주유소","lat":35.809209,"lng":128.480719,"roadAddr":"대구광역시 달성군 화원읍 사문진로 285","jibunAddr":"대구광역시 달성군 화원읍 성산리 209","openHours":"정시","maleToilets":4,"femaleToilets":2,"disabled":false,"diaperTable":false,"emergencyBell":false,"cctv":false,"managerTel":"0536446300","source":"public","category":"public"},{"id":"202434800000100083","name":"여성문화복지센터(별관)","lat":35.798475,"lng":128.488178,"roadAddr":"대구광역시 달성군 화원읍 성천로 5, 달성군여성문화복지센터","jibunAddr":"대구광역시 달성군 화원읍 설화리 553-41","openHours":"정시","maleToilets":14,"femaleToilets":14,"disabled":true,"diaperTable":false,"emergencyBell":true,"cctv":false,"managerTel":"0536594351","source":"public","category":"public"},{"id":"202334800000100628","name":"화원동산 전망대","lat":35.812771,"lng":128.480637,"roadAddr":"대구광역시 달성군 화원읍 사문진로1길 40-14","jibunAddr":"대구광역시 달성군 화원읍 성산리 310","openHours":"상시","maleToilets":5,"femaleToilets":5,"disabled":true,"diaperTable":true,"emergencyBell":true,"cctv":false,"managerTel":"0536594465","source":"public","category":"public"},{"id":"202334800000100627","name":"역사문화체험관","lat":35.812771,"lng":128.480637,"roadAddr":"대구광역시 달성군 화원읍 사문진로1길 40-14","jibunAddr":"대구광역시 달성군 화원읍 성산리 310","openHours":"정시","maleToilets":5,"femaleToilets":7,"disabled":true,"diaperTable":false,"emergencyBell":false,"cctv":false,"managerTel":"0536594465","source":"public","category":"public"},{"id":"202434800000100176","name":"농협농수산물유통센터","lat":35.799291,"lng":128.487182,"roadAddr":"대구광역시 달성군 화원읍 성천로 9","jibunAddr":"대구광역시 달성군 옥포읍 본리리 2214-1","openHours":"정시","maleToilets":48,"femaleToilets":23,"disabled":true,"diaperTable":false,"emergencyBell":false,"cctv":false,"managerTel":"0536380597","source":"public","category":"public"},{"id":"202434800000100015","name":"화원농협주유소","lat":35.804678,"lng":128.494523,"roadAddr":"대구광역시 달성군 화원읍 사문진로 420","jibunAddr":"대구광역시 달성군 화원읍 천내리310-1","openHours":"정시","maleToilets":3,"femaleToilets":2,"disabled":false,"diaperTable":false,"emergencyBell":false,"cctv":false,"managerTel":"0536536340","source":"public","category":"public"},{"id":"202434800000100017","name":"화남파출소","lat":35.79869,"lng":128.489938,"roadAddr":"대구광역시 달성군 화원읍 비슬로 2480, 화남파출소","jibunAddr":"대구광역시 달성군 화원읍 설화리 1102-1","openHours":"상시","maleToilets":1,"femaleToilets":1,"disabled":true,"diaperTable":false,"emergencyBell":false,"cctv":false,"managerTel":"0536608141","source":"public","category":"public"},{"id":"202434800000100175","name":"늘푸른주유소","lat":35.787895,"lng":128.458296,"roadAddr":"대구광역시 달성군 옥포읍 비슬로 2165","jibunAddr":"대구광역시 달성군 다사읍 매곡리 923-2","openHours":"정시","maleToilets":6,"femaleToilets":3,"disabled":false,"diaperTable":false,"emergencyBell":false,"cctv":false,"managerTel":"0536526051","source":"public","category":"public"},{"id":"202434800000100085","name":"아신주유소(전 기린주유소)","lat":35.796456,"lng":128.486329,"roadAddr":"대구광역시 달성군 화원읍 비슬로 2436","openHours":"정시","maleToilets":3,"femaleToilets":2,"disabled":false,"diaperTable":false,"emergencyBell":false,"cctv":false,"source":"public","category":"public"},{"id":"202434800000100078","name":"옥포농협클린주유소","lat":35.789574,"lng":128.468401,"roadAddr":"대구광역시 달성군 옥포읍 비슬로 2259","jibunAddr":"대구광역시 달성군 옥포읍 기세리 281","openHours":"정시","maleToilets":4,"femaleToilets":2,"disabled":false,"diaperTable":false,"emergencyBell":false,"cctv":false,"managerTel":"0536159977","source":"public","category":"public"},{"id":"202434800000100087","name":"쌍용옥포주유소","lat":35.78439,"lng":128.475926,"roadAddr":"대구광역시 달성군 옥포읍 옥포로 80","jibunAddr":"대구광역시 달성군 옥포읍 기세리 969-78","openHours":"정시","maleToilets":4,"femaleToilets":0,"disabled":false,"diaperTable":false,"emergencyBell":false,"cctv":false,"managerTel":"0536158808","source":"public","category":"public"},{"id":"202434800000100089","name":"송해기념관-선비문화체험관","lat":35.771583,"lng":128.488865,"roadAddr":"대구광역시 달성군 옥포읍 옥포로56길 5","openHours":"정시","maleToilets":8,"femaleToilets":5,"disabled":true,"diaperTable":true,"emergencyBell":false,"cctv":false,"managerTel":"0536683857","source":"public","category":"public"},{"id":"202434800000100075","name":"옥포파출소","lat":35.790367,"lng":128.472152,"roadAddr":"대구광역시 달성군 옥포읍 비슬로 2294, 옥포파출소","jibunAddr":"대구광역시 달성군 옥포읍 기세리 145-6","openHours":"상시","maleToilets":1,"femaleToilets":0,"disabled":true,"diaperTable":false,"emergencyBell":false,"cctv":false,"managerTel":"0536608136","source":"public","category":"public"},{"id":"202434800000100032","name":"한국전력공사 남대구지사","lat":35.80393,"lng":128.493235,"roadAddr":"대구광역시 달성군 화원읍 비슬로509길 26","jibunAddr":"대구광역시 달성군 화원읍 천내리 340","openHours":"정시","maleToilets":17,"femaleToilets":4,"disabled":false,"diaperTable":false,"emergencyBell":false,"cctv":false,"managerTel":"0536302216","source":"public","category":"public"},{"id":"202434800000100266","name":"화원옥포 영업소","lat":35.797378,"lng":128.480417,"roadAddr":"대구광역시 달성군 화원읍 비슬로 2335","jibunAddr":"대구광역시 달성군 화원읍 설화리 281-3","openHours":"상시","maleToilets":4,"femaleToilets":4,"disabled":true,"diaperTable":false,"emergencyBell":false,"cctv":false,"managerTel":"0548112812","source":"public","category":"public"},{"id":"202334800000100630","name":"화원동산 어린이 놀이터","lat":35.812771,"lng":128.480637,"roadAddr":"대구광역시 달성군 화원읍 사문진로1길 40-14","jibunAddr":"대구광역시 달성군 화원읍 성산리 310","openHours":"상시","maleToilets":5,"femaleToilets":4,"disabled":false,"diaperTable":false,"emergencyBell":true,"cctv":false,"managerTel":"0536594465","source":"public","category":"public"},{"id":"202434800000100161","name":"달성군노인복지관","lat":35.789109,"lng":128.4717,"roadAddr":"대구광역시 달성군 옥포읍 옥포로 13","jibunAddr":"대구광역시 달성군 옥포읍 기세리 264-1","openHours":"정시","maleToilets":11,"femaleToilets":14,"disabled":true,"diaperTable":false,"emergencyBell":false,"cctv":false,"managerTel":"0536170098","source":"public","category":"public"},{"id":"202434800000100107","name":"사문진역사공원1","lat":35.810545,"lng":128.478161,"roadAddr":"대구광역시 달성군 화원읍 사문진로1길 40-12, 화원동산관리소","jibunAddr":"대구광역시 달성군 화원읍 성산리317","openHours":"정시","maleToilets":5,"femaleToilets":5,"disabled":false,"diaperTable":false,"emergencyBell":true,"cctv":false,"managerTel":"0536594455","source":"public","category":"public"},{"id":"202434800000100242","name":"(주)우리주유소(하나로지점)","lat":35.798586,"lng":128.489982,"roadAddr":"대구광역시 달성군 화원읍 화암로 3","jibunAddr":"대구광역시 달성군 화원읍 설화리 102-11","openHours":"정시","maleToilets":4,"femaleToilets":2,"disabled":false,"diaperTable":false,"emergencyBell":false,"cctv":false,"managerTel":"0536425182","source":"public","category":"public"},{"id":"202434800000100092","name":"송해공원 제3주차장(1)","lat":35.781016,"lng":128.480047,"roadAddr":"대구광역시 달성군 옥포읍 옥포로 126-16","jibunAddr":"대구광역시 달성군 옥포읍 기세리 306","openHours":"정시","maleToilets":5,"femaleToilets":5,"disabled":false,"diaperTable":false,"emergencyBell":true,"cctv":false,"managerTel":"0536685646","source":"public","category":"public"},{"id":"202434800000100007","name":"화원현대셀프주유소","lat":35.794178,"lng":128.48156,"roadAddr":"대구광역시 달성군 화원읍 비슬로 2388","jibunAddr":"대구광역시 달성군 화원읍 설화리 825","openHours":"정시","maleToilets":2,"femaleToilets":1,"disabled":false,"diaperTable":false,"emergencyBell":false,"cctv":false,"managerTel":"0536317222","source":"public","category":"public"},{"id":"202434800000100076","name":"옥포읍사무소","lat":35.789249,"lng":128.464006,"roadAddr":"대구광역시 달성군 옥포읍 비슬로 2215, 옥포읍사무소","jibunAddr":"대구광역시 달성군 옥포읍 기세리 126-2","openHours":"정시","maleToilets":17,"femaleToilets":4,"disabled":true,"diaperTable":false,"emergencyBell":false,"cctv":false,"managerTel":"0536685652","source":"public","category":"public"},{"id":"202334800000100629","name":"화원동산 동물원","lat":35.812771,"lng":128.480637,"roadAddr":"대구광역시 달성군 화원읍 사문진로1길 40-14","jibunAddr":"대구광역시 달성군 화원읍 성산리 310","openHours":"상시","maleToilets":6,"femaleToilets":5,"disabled":true,"diaperTable":false,"emergencyBell":true,"cctv":false,"managerTel":"0536594465","source":"public","category":"public"},{"id":"202434800000100090","name":"송해공원둘레길","lat":35.777179,"lng":128.486079,"roadAddr":"대구광역시 달성군 옥포면 옥포로 200","jibunAddr":"대구광역시 달성군 옥포읍 기세리 415-1","openHours":"정시","maleToilets":4,"femaleToilets":4,"disabled":false,"diaperTable":false,"emergencyBell":true,"cctv":false,"managerTel":"0536685646","source":"public","category":"public"},{"id":"202434800000100101","name":"설화명곡역","lat":35.798673,"lng":128.489259,"roadAddr":"대구광역시 달성군 화원읍 비슬로 지하 2476","jibunAddr":"대구광역시 달성군 화원읍 설화리 562-1","openHours":"정시","maleToilets":10,"femaleToilets":8,"disabled":true,"diaperTable":true,"emergencyBell":true,"cctv":true,"managerTel":"0536342674","source":"public","category":"public"},{"id":"202452000000100171","name":"사문진자전거도로","lat":35.813949,"lng":128.470084,"roadAddr":"경상북도 고령군 다산면 사문나루3길 23","jibunAddr":"경상북도 고령군 다산면 호촌리 719번지 12호","openHours":"상시","maleToilets":2,"femaleToilets":2,"disabled":false,"diaperTable":false,"emergencyBell":false,"cctv":false,"managerTel":"0549507726","source":"public","category":"public"}]