[{"id":"202453500000100362","name":"진영셀프주유소","lat":35.294313,"lng":128.707788,"roadAddr":"경상남도 김해시 진영읍 김해대로 68","jibunAddr":"경상남도 김해시 진영읍 좌곤리 388 번지1 호","openHours":"정시","maleToilets":3,"femaleToilets":2,"disabled":false,"diaperTable":false,"emergencyBell":false,"cctv":false,"source":"public","category":"public"},{"id":"202453500000100545","name":"동창원IC충전소","lat":35.299693,"lng":128.708785,"roadAddr":"경상남도 김해시 진영읍 김해대로 133","jibunAddr":"경상남도 김해시 진영읍 좌곤리 595","openHours":"정시","maleToilets":3,"femaleToilets":2,"disabled":false,"diaperTable":false,"emergencyBell":false,"cctv":false,"source":"public","category":"public"},{"id":"202453500000100517","name":"(주)경일진영지점 세경주유소","lat":35.298155,"lng":128.708659,"roadAddr":"경상남도 김해시 진영읍 김해대로 118","jibunAddr":"경상남도 김해시 진영읍 좌곤리 109 번지","openHours":"정시","maleToilets":3,"femaleToilets":1,"disabled":false,"diaperTable":false,"emergencyBell":false,"cctv":false,"source":"public","category":"public"},{"id":"202453500000100400","name":"알뜰성원주유소","lat":35.299357,"lng":128.709726,"roadAddr":"경상남도 김해시 진영읍 김해대로 134","jibunAddr":"경상남도 김해시 진영읍 좌곤리 71,72-1번지","openHours":"정시","maleToilets":2,"femaleToilets":1,"disabled":false,"diaperTable":false,"emergencyBell":false,"cctv":true,"source":"public","category":"public"},{"id":"202453500000100378","name":"동창원IC주유소","lat":35.299913,"lng":128.709179,"roadAddr":"경상남도 김해시 진영읍 김해대로 139","jibunAddr":"경상남도 김해시 진영읍 좌곤리 597 번지","openHours":"상시","maleToilets":2,"femaleToilets":2,"disabled":false,"diaperTable":false,"emergencyBell":false,"cctv":false,"source":"public","category":"public"},{"id":"202356700000101096","name":"주남저수지 황토주차장 화장실","lat":35.311606,"lng":128.682492,"jibunAddr":"경상남도 창원시 의창구 동읍 월잠리 84-25","openHours":"상시","maleToilets":2,"femaleToilets":1,"disabled":false,"diaperTable":false,"emergencyBell":true,"cctv":true,"managerTel":"0552253481","source":"public","category":"public"},{"id":"202356700000100708","name":"주남저수지 탐조대 화장실","lat":35.311002,"lng":128.680259,"roadAddr":"경상남도창원시의창구동읍주남로101번길75(월잠리)","openHours":"-","maleToilets":3,"femaleToilets":3,"disabled":true,"diaperTable":true,"emergencyBell":false,"cctv":false,"source":"public","category":"public"},{"id":"202356700000100694","name":"대산면행정복지센터","lat":35.33103,"lng":128.708707,"roadAddr":"경상남도 창원시 의창구 대산면 가술산단동로 10, 대산면 행정복지센터","jibunAddr":"경상남도 창원시 의창구 대산면 제동리 822-1 대산면 행정복지센터","openHours":"정시","maleToilets":18,"femaleToilets":15,"disabled":true,"diaperTable":false,"emergencyBell":false,"cctv":false,"managerTel":"0552125311","source":"public","category":"public"},{"id":"202356700000100695","name":"SK엔크린 광진주유소","lat":35.32787,"lng":128.713829,"roadAddr":"경상남도창원시의창구대산면진산대로296(제동리,SK광진주유소)","openHours":"영업시간 내","maleToilets":6,"femaleToilets":2,"disabled":false,"diaperTable":false,"emergencyBell":false,"cctv":false,"source":"public","category":"public"},{"id":"202356700000100709","name":"주남저수지 오리화장실","lat":35.32601,"lng":128.674492,"roadAddr":"경상남도창원시의창구동읍죽동길46번길68(죽동리)","jibunAddr":"경상남도 창원시 의창구 동읍 죽동리 533-2","openHours":"상시","maleToilets":7,"femaleToilets":5,"disabled":true,"diaperTable":true,"emergencyBell":true,"cctv":true,"managerTel":"0552253481","source":"public","category":"public"},{"id":"202456700000100025","name":"무점화장실","lat":35.296001,"lng":128.696328,"jibunAddr":"경상남도 창원시 의창구 동읍 무점리 5","openHours":"상시","maleToilets":1,"femaleToilets":1,"disabled":true,"diaperTable":true,"emergencyBell":true,"cctv":true,"managerTel":"0552253481","source":"public","category":"public"},{"id":"202356700000101097","name":"주남저수지 단풍나무화장실","lat":35.31322,"lng":128.685485,"jibunAddr":"경상남도 창원시 의창구 동읍 월잠리 81-10","openHours":"상시","maleToilets":3,"femaleToilets":4,"disabled":true,"diaperTable":true,"emergencyBell":true,"cctv":true,"managerTel":"0552253481","source":"public","category":"public"},{"id":"202356700000100707","name":"주남저수지 람사르문화관 옆 공중화장실","lat":35.30733,"lng":128.67793,"roadAddr":"경상남도 창원시 의창구 동읍 주남로101번길 26, 주남저수지람사르문화관","jibunAddr":"경상남도 창원시 의창구 동읍 월잠리 303-7 주남저수지람사르문화관","openHours":"상시","maleToilets":6,"femaleToilets":4,"disabled":true,"diaperTable":false,"emergencyBell":true,"cctv":true,"managerTel":"0552253481","source":"public","category":"public"}]