[{"id":"202453500000100377","name":"신천주유소","lat":35.277898,"lng":128.827609,"roadAddr":"경상남도 김해시 한림면 김해대로 1419","jibunAddr":"경상남도 김해시 한림면 신천리 753 번지9 호","openHours":"09:00~18:00","maleToilets":2,"femaleToilets":1,"disabled":false,"diaperTable":false,"emergencyBell":false,"cctv":true,"source":"public","category":"public"},{"id":"202453500000100385","name":"만땅주유소","lat":35.284116,"lng":128.817149,"roadAddr":"경상남도 김해시 한림면 김해대로 1300","jibunAddr":"경상남도 김해시 한림면 명동리 803 번지1 호","openHours":"09:00~18:00","maleToilets":2,"femaleToilets":1,"disabled":false,"diaperTable":false,"emergencyBell":false,"cctv":false,"source":"public","category":"public"},{"id":"202453500000100151","name":"김해추모의공원 화장동 화장실","lat":35.270244,"lng":128.80935,"roadAddr":"경상남도 김해시 주촌면 서부로1637번길 574","jibunAddr":"경상남도 김해시 주촌면 덕암리 산137-16","openHours":"09:00~18:00","maleToilets":12,"femaleToilets":6,"disabled":true,"diaperTable":false,"emergencyBell":true,"cctv":false,"source":"public","category":"public"},{"id":"202453500000100331","name":"김해시 수도박물관","lat":35.284771,"lng":128.822601,"roadAddr":"경상남도 김해시 김해대로 1347","jibunAddr":"경상남도 김해시 한림면 명동리 736-1","openHours":"09:00~18:00","maleToilets":5,"femaleToilets":2,"disabled":true,"diaperTable":false,"emergencyBell":true,"cctv":false,"source":"public","category":"public"},{"id":"202453500000100153","name":"김해추모의공원 제2봉안당 화장실","lat":35.270244,"lng":128.80935,"roadAddr":"경상남도 김해시 주촌면 서부로1637번길 574","jibunAddr":"경상남도 김해시 주촌면 덕암리 산137-16","openHours":"09:00~18:00","maleToilets":7,"femaleToilets":4,"disabled":true,"diaperTable":false,"emergencyBell":true,"cctv":false,"source":"public","category":"public"},{"id":"202453500000100152","name":"김해추모의공원 제1봉안당 화장실","lat":35.270244,"lng":128.80935,"roadAddr":"경상남도 김해시 주촌면 서부로1637번길 574","jibunAddr":"경상남도 김해시 주촌면 덕암리 산137-16","openHours":"상시","maleToilets":6,"femaleToilets":3,"disabled":true,"diaperTable":false,"emergencyBell":true,"cctv":false,"source":"public","category":"public"},{"id":"202453500000100548","name":"비앤지(주)","lat":35.275564,"lng":128.842449,"roadAddr":"경상남도 김해시 한림면 김해대로 1565","jibunAddr":"경상남도 김해시 한림면 신천리 285-3","openHours":"09:00~18:00","maleToilets":0,"femaleToilets":0,"disabled":true,"diaperTable":false,"emergencyBell":true,"cctv":true,"source":"public","category":"public"},{"id":"202453500000100494","name":"SY삼계Self주유소","lat":35.274367,"lng":128.846511,"roadAddr":"경상남도 김해시 한림면 김해대로 1604","jibunAddr":"경상남도 김해시 한림면 신천리 173 번지5 호","openHours":"09:00~18:00","maleToilets":2,"femaleToilets":1,"disabled":false,"diaperTable":false,"emergencyBell":false,"cctv":false,"source":"public","category":"public"},{"id":"202453500000100549","name":"삼계LPG충전소","lat":35.274367,"lng":128.846511,"roadAddr":"경상남도 김해시 한림면 김해대로 1604","jibunAddr":"경상남도 김해시 한림면 신천리 173-4","openHours":"09:00~18:00","maleToilets":0,"femaleToilets":0,"disabled":false,"diaperTable":false,"emergencyBell":false,"cctv":false,"source":"public","category":"public"},{"id":"202453500000100473","name":"비에스에너지(주) 덕암IC주유소","lat":35.256434,"lng":128.820197,"roadAddr":"경상남도 김해시 주촌면 서부로1637번길 316 (외 3필지)","jibunAddr":"경상남도 김해시 주촌면 덕암리 872 번지외 3필지","openHours":"09:00~18:00","maleToilets":0,"femaleToilets":0,"disabled":false,"diaperTable":false,"emergencyBell":false,"cctv":false,"source":"public","category":"public"},{"id":"202453500000100360","name":"송진주유소","lat":35.27561,"lng":128.842721,"roadAddr":"경상남도 김해시 한림면 김해대로 1567","jibunAddr":"경상남도 김해시 한림면 신천리 285 번지2 호","openHours":"09:00~18:00","maleToilets":4,"femaleToilets":2,"disabled":false,"diaperTable":false,"emergencyBell":false,"cctv":false,"source":"public","category":"public"}]