[{"id":"202433600000100056","name":"가락충전소","lat":35.208847,"lng":128.890148,"roadAddr":"부산광역시 강서구 호계로 195 (죽동동)","jibunAddr":"부산광역시 강서구 죽동동 122-1","openHours":"정시","maleToilets":3,"femaleToilets":1,"disabled":true,"diaperTable":false,"emergencyBell":false,"cctv":false,"managerTel":"0519713430","source":"public","category":"public"},{"id":"202433600000100143","name":"우양네트웍스 송산주유소","lat":35.209161,"lng":128.890893,"roadAddr":"부산광역시 강서구 호계로 200 (죽동동)","jibunAddr":"부산광역시 강서구 죽동동 41-34","openHours":"정시","maleToilets":2,"femaleToilets":1,"disabled":false,"diaperTable":false,"emergencyBell":false,"cctv":false,"managerTel":"0519737583","source":"public","category":"public"},{"id":"202453500000100301","name":"시청 구지관 화장실(서관)","lat":35.228611,"lng":128.889395,"roadAddr":"경상남도 김해시 김해대로 2401 (부원동)","jibunAddr":"경상남도 김해시 부원동 623 김해시청","openHours":"정시","maleToilets":11,"femaleToilets":15,"disabled":true,"diaperTable":false,"emergencyBell":false,"cctv":false,"source":"public","category":"public"},{"id":"202453500000100180","name":"보건소  화장실","lat":35.232434,"lng":128.870546,"roadAddr":"경상남도 김해시 분성로 227 (외동)","jibunAddr":"경상남도 김해시 외동 1261-3 김해시 보건소","openHours":"정시","maleToilets":36,"femaleToilets":18,"disabled":false,"diaperTable":false,"emergencyBell":false,"cctv":false,"source":"public","category":"public"},{"id":"202453500000100491","name":"반석주유소","lat":35.229594,"lng":128.850071,"roadAddr":"경상남도 김해시 금관대로 1140 (외동)","jibunAddr":"경상남도 김해시 외동  1094 번지3 호","openHours":"정시","maleToilets":2,"femaleToilets":1,"disabled":false,"diaperTable":false,"emergencyBell":false,"cctv":false,"source":"public","category":"public"},{"id":"202453500000100044","name":"공주공원","lat":35.234792,"lng":128.867924,"roadAddr":"경상남도 김해시 내외로95번길 4 (내동)","jibunAddr":"경상남도 김해시 내동 1146-7 공주공원 공중화장실","openHours":"상시","maleToilets":3,"femaleToilets":2,"disabled":true,"diaperTable":false,"emergencyBell":true,"cctv":true,"source":"public","category":"public"},{"id":"202453500000100002","name":"김해문화의전당 예술동 화장실","lat":35.243734,"lng":128.869411,"roadAddr":"경상남도 김해시 김해대로 2060 (내동)","jibunAddr":"경상남도 김해시 내동 1131 김해문화의전당","openHours":"상시","maleToilets":60,"femaleToilets":67,"disabled":true,"diaperTable":false,"emergencyBell":true,"cctv":true,"source":"public","category":"public"},{"id":"202453500000100338","name":"국립김해박물관 옥외 야외화장실","lat":35.24353,"lng":128.872585,"roadAddr":"경상남도 김해시 가야의길 190 (구산동)","jibunAddr":"경상남도 김해시 구산동 232","openHours":"상시","maleToilets":9,"femaleToilets":6,"disabled":true,"diaperTable":false,"emergencyBell":true,"cctv":true,"source":"public","category":"public"},{"id":"202453500000100069","name":"선학공원","lat":35.237046,"lng":128.860393,"jibunAddr":"경상남도 김해시 내동 1109-1","openHours":"상시","maleToilets":3,"femaleToilets":2,"disabled":true,"diaperTable":true,"emergencyBell":true,"cctv":true,"source":"public","category":"public"},{"id":"202453500000100346","name":"김해시 생활문화 평생학습관 1층","lat":35.21088,"lng":128.850131,"roadAddr":"경상남도 김해시 금관대로 910번지 52","jibunAddr":"경상남도 김해시 풍유동 401-4번지","openHours":"정시","maleToilets":7,"femaleToilets":4,"disabled":true,"diaperTable":false,"emergencyBell":false,"cctv":true,"source":"public","category":"public"},{"id":"202453500000100194","name":"봉황역","lat":35.227367,"lng":128.874408,"roadAddr":"경상남도 김해시 김해대로 2249","jibunAddr":"경상남도 김해시 전하동 1232","openHours":"정시","maleToilets":5,"femaleToilets":5,"disabled":true,"diaperTable":true,"emergencyBell":true,"cctv":true,"source":"public","category":"public"},{"id":"202453500000100368","name":"구도일주유소 김해","lat":35.226598,"lng":128.881548,"roadAddr":"경상남도 김해시 김해대로 2329 (부원동)","jibunAddr":"경상남도 김해시 부원동  605 번지17 호","openHours":"정시","maleToilets":2,"femaleToilets":1,"disabled":false,"diaperTable":false,"emergencyBell":false,"cctv":true,"source":"public","category":"public"},{"id":"202453500000100054","name":"봉명공원","lat":35.232263,"lng":128.863608,"roadAddr":"경상남도 김해시 함박로 88 (외동)","jibunAddr":"경상남도 김해시 외동 1249-3 봉명공원 공중화장실","openHours":"상시","maleToilets":3,"femaleToilets":2,"disabled":false,"diaperTable":false,"emergencyBell":true,"cctv":false,"source":"public","category":"public"},{"id":"202453500000100089","name":"함박공원","lat":35.233615,"lng":128.856573,"roadAddr":"경상남도 김해시 함박로 21 (외동)","jibunAddr":"경상남도 김해시 외동 1205 함박공원 공중화장실","openHours":"상시","maleToilets":3,"femaleToilets":3,"disabled":true,"diaperTable":true,"emergencyBell":true,"cctv":true,"source":"public","category":"public"},{"id":"202453500000100129","name":"시민체육공원 테니스장 (이동식화장실)","lat":35.229309,"lng":128.850533,"roadAddr":"경상남도 김해시 금관대로 1138","jibunAddr":"경상남도 김해시 외동 산28-1","openHours":"상시","maleToilets":4,"femaleToilets":4,"disabled":true,"diaperTable":false,"emergencyBell":false,"cctv":false,"source":"public","category":"public"},{"id":"202453500000100415","name":"퍼시픽에너지(주) 서부주유소","lat":35.221455,"lng":128.867036,"roadAddr":"경상남도 김해시 전하로 171 (흥동)","jibunAddr":"경상남도 김해시 흥동  419 번지11 호","openHours":"정시","maleToilets":5,"femaleToilets":2,"disabled":false,"diaperTable":false,"emergencyBell":false,"cctv":false,"source":"public","category":"public"},{"id":"202453500000100343","name":"한글박물관","lat":35.231372,"lng":128.870456,"roadAddr":"경상남도 김해시 분성로 221","jibunAddr":"경상남도 김해시 외동 1261-5","openHours":"정시","maleToilets":4,"femaleToilets":2,"disabled":true,"diaperTable":false,"emergencyBell":false,"cctv":true,"source":"public","category":"public"},{"id":"202453500000100259","name":"동상동 전통시장 장터 화장실","lat":35.235265,"lng":128.882657,"roadAddr":"경상남도 김해시 구지로180번길 36","jibunAddr":"경상남도 김해시 동상동 901-1","openHours":"상시","maleToilets":4,"femaleToilets":2,"disabled":false,"diaperTable":false,"emergencyBell":true,"cctv":true,"source":"public","category":"public"},{"id":"202453500000100042","name":"거북공원","lat":35.236195,"lng":128.865744,"roadAddr":"경상남도 김해시 내외로77번길 17 (내동)","jibunAddr":"경상남도 김해시 내동 1116-2 거북공원 공중화장실","openHours":"상시","maleToilets":5,"femaleToilets":3,"disabled":true,"diaperTable":false,"emergencyBell":true,"cctv":true,"source":"public","category":"public"},{"id":"202453500000100321","name":"금강병원","lat":35.228381,"lng":128.883062,"roadAddr":"경상남도 김해시 가락로 20","jibunAddr":"경상남도 김해시 부원동 608-4","openHours":"정시","maleToilets":0,"femaleToilets":0,"disabled":false,"diaperTable":false,"emergencyBell":false,"cctv":false,"source":"public","category":"public"},{"id":"202453500000100120","name":"문화체육관화장실","lat":35.234775,"lng":128.873665,"roadAddr":"경상남도 김해시 가야의길 98-19 (봉황동)","jibunAddr":"경상남도 김해시 봉황동 449","openHours":"정시","maleToilets":9,"femaleToilets":7,"disabled":true,"diaperTable":false,"emergencyBell":false,"cctv":false,"source":"public","category":"public"},{"id":"202453500000100449","name":"평화주유소","lat":35.237425,"lng":128.88794,"roadAddr":"경상남도 김해시 가야로 500 (동상동)","jibunAddr":"경상남도 김해시 동상동  1114 번지3 호","openHours":"정시","maleToilets":4,"femaleToilets":3,"disabled":false,"diaperTable":false,"emergencyBell":false,"cctv":true,"source":"public","category":"public"},{"id":"202453500000100345","name":"칠산서부동행정복지센터 화장실","lat":35.220987,"lng":128.859491,"roadAddr":"경상남도 김해시 전하로99","jibunAddr":"경상남도 김해시 흥동 53-2","openHours":"정시","maleToilets":12,"femaleToilets":9,"disabled":true,"diaperTable":true,"emergencyBell":true,"cctv":true,"source":"public","category":"public"},{"id":"202453500000100193","name":"부원역","lat":35.226509,"lng":128.883924,"roadAddr":"경상남도 김해시 김해대로 2350","jibunAddr":"경상남도 김해시 부원동 606-13","openHours":"정시","maleToilets":5,"femaleToilets":5,"disabled":true,"diaperTable":true,"emergencyBell":true,"cctv":true,"source":"public","category":"public"},{"id":"202453500000100409","name":"다누리주유소 (주)해광에너지","lat":35.219694,"lng":128.886729,"roadAddr":"경상남도 김해시 호계로 326 (부원동)","jibunAddr":"경상남도 김해시 부원동  442 번지33 호","openHours":"정시","maleToilets":2,"femaleToilets":1,"disabled":false,"diaperTable":false,"emergencyBell":false,"cctv":false,"source":"public","category":"public"},{"id":"202453500000100354","name":"홈플러스 김해점","lat":35.241904,"lng":128.870262,"roadAddr":"경상남도 김해시 김해대로 2078(내동)","jibunAddr":"경상남도 김해시 내동 1131-2","openHours":"정시","maleToilets":25,"femaleToilets":21,"disabled":true,"diaperTable":true,"emergencyBell":false,"cctv":false,"source":"public","category":"public"},{"id":"202453500000100519","name":"MVG주유소","lat":35.239021,"lng":128.859807,"roadAddr":"경상남도 김해시 금관대로 1279 (내동)","jibunAddr":"경상남도 김해시 내동  495 번지","openHours":"정시","maleToilets":2,"femaleToilets":1,"disabled":false,"diaperTable":false,"emergencyBell":false,"cctv":false,"source":"public","category":"public"},{"id":"202453500000100350","name":"롯데마트 김해점","lat":35.225546,"lng":128.882049,"roadAddr":"경상남도 김해시 김해대로 2330(부원동)","jibunAddr":"경상남도 김해시 부원동 1041","openHours":"정시","maleToilets":27,"femaleToilets":18,"disabled":true,"diaperTable":true,"emergencyBell":true,"cctv":false,"source":"public","category":"public"},{"id":"202453500000100003","name":"김해문화의전당 스포츠동 화장실","lat":35.243734,"lng":128.869411,"roadAddr":"경상남도 김해시 김해대로 2060 (내동)","jibunAddr":"경상남도 김해시 내동 1131 김해문화의전당","openHours":"정시","maleToilets":13,"femaleToilets":7,"disabled":true,"diaperTable":true,"emergencyBell":false,"cctv":false,"source":"public","category":"public"},{"id":"202453500000100075","name":"수인공원","lat":35.243466,"lng":128.861502,"roadAddr":"경상남도 김해시 평전로 163 (내동)","jibunAddr":"경상남도 김해시 내동 144","openHours":"상시","maleToilets":5,"femaleToilets":4,"disabled":true,"diaperTable":false,"emergencyBell":true,"cctv":true,"source":"public","category":"public"},{"id":"202453500000100162","name":"농업인회관 화장실","lat":35.242012,"lng":128.883093,"roadAddr":"경상남도 김해시 가야로 432","jibunAddr":"경상남도 김해시 대성동 489-6","openHours":"정시","maleToilets":18,"femaleToilets":19,"disabled":true,"diaperTable":false,"emergencyBell":false,"cctv":false,"source":"public","category":"public"},{"id":"202453500000100315","name":"경남프라자","lat":35.235243,"lng":128.86645,"roadAddr":"경상남도 김해시 내외중앙로 57","jibunAddr":"경상남도 김해시 내동 1118-3","openHours":"정시","maleToilets":0,"femaleToilets":0,"disabled":false,"diaperTable":false,"emergencyBell":false,"cctv":false,"source":"public","category":"public"},{"id":"202453500000100001","name":"김해문화의전당 야외 화장실","lat":35.243734,"lng":128.869411,"roadAddr":"경상남도 김해시 김해대로 2060 (내동)","jibunAddr":"경상남도 김해시 내동 1131 김해문화의전당","openHours":"정시","maleToilets":6,"femaleToilets":4,"disabled":true,"diaperTable":true,"emergencyBell":true,"cctv":true,"source":"public","category":"public"},{"id":"202453500000100546","name":"럭키LPG충전소","lat":35.221677,"lng":128.84787,"roadAddr":"경상남도 김해시 금관대로 1047 (풍유동)","jibunAddr":"경상남도 김해시 풍유동 937","openHours":"정시","maleToilets":2,"femaleToilets":1,"disabled":true,"diaperTable":false,"emergencyBell":true,"cctv":false,"source":"public","category":"public"},{"id":"202453500000100294","name":"해반천 공중화장실A","lat":35.220096,"lng":128.874946,"jibunAddr":"경상남도 김해시 전하동 60-4","openHours":"상시","maleToilets":2,"femaleToilets":1,"disabled":true,"diaperTable":false,"emergencyBell":true,"cctv":true,"source":"public","category":"public"},{"id":"202453500000100303","name":"시청 구보건소 화장실","lat":35.228611,"lng":128.889395,"roadAddr":"경상남도 김해시 김해대로 2401 (부원동)","jibunAddr":"경상남도 김해시 부원동 623 김해시청","openHours":"정시","maleToilets":7,"femaleToilets":4,"disabled":false,"diaperTable":false,"emergencyBell":false,"cctv":false,"source":"public","category":"public"},{"id":"202453500000100469","name":"흥일주유소","lat":35.212527,"lng":128.852742,"roadAddr":"경상남도 김해시 칠산로 457 (흥동)","jibunAddr":"경상남도 김해시 흥동  917 번지7 호","openHours":"정시","maleToilets":2,"femaleToilets":1,"disabled":false,"diaperTable":false,"emergencyBell":false,"cctv":false,"source":"public","category":"public"},{"id":"202453500000100316","name":"삼성프라자","lat":35.235376,"lng":128.867172,"roadAddr":"경상남도 김해시 내외중앙로 62","jibunAddr":"경상남도 김해시 내동 1144-2","openHours":"정시","maleToilets":0,"femaleToilets":0,"disabled":false,"diaperTable":false,"emergencyBell":false,"cctv":false,"source":"public","category":"public"},{"id":"202453500000100555","name":"김해우체국","lat":35.223988,"lng":128.874443,"roadAddr":"경상남도 김해시 전하로 176번길 83","openHours":"정시","maleToilets":14,"femaleToilets":7,"disabled":false,"diaperTable":false,"emergencyBell":false,"cctv":false,"source":"public","category":"public"},{"id":"202453500000100196","name":"박물관역","lat":35.240086,"lng":128.871947,"roadAddr":"경상남도 김해시 김해대로 2103","jibunAddr":"경상남도 김해시 내동 1037-1","openHours":"정시","maleToilets":5,"femaleToilets":5,"disabled":true,"diaperTable":true,"emergencyBell":true,"cctv":true,"source":"public","category":"public"},{"id":"202453500000100348","name":"김해터미널쇼핑센터(이마트,신세계백화점)","lat":35.22934,"lng":128.872243,"roadAddr":"경상남도 김해시 김해대로 2232(외동)","jibunAddr":"경상남도 김해시 외동 1264","openHours":"정시","maleToilets":79,"femaleToilets":89,"disabled":true,"diaperTable":true,"emergencyBell":true,"cctv":true,"source":"public","category":"public"},{"id":"202453500000100067","name":"경운공원","lat":35.236568,"lng":128.852507,"roadAddr":"경상남도 김해시 평전로57번길 7 (외동)","jibunAddr":"경상남도 김해시 외동 707 경운공원 공중화장실","openHours":"상시","maleToilets":6,"femaleToilets":4,"disabled":true,"diaperTable":false,"emergencyBell":true,"cctv":true,"source":"public","category":"public"},{"id":"202453500000100427","name":"지에스칼텍스(주) 남해주유소","lat":35.224494,"lng":128.848589,"roadAddr":"경상남도 김해시 금관대로 1079 (풍유동)","jibunAddr":"경상남도 김해시 풍유동  5 번지1 호","openHours":"정시","maleToilets":2,"femaleToilets":1,"disabled":false,"diaperTable":false,"emergencyBell":false,"cctv":true,"source":"public","category":"public"},{"id":"202453500000100339","name":"국립김해박물관 화장실","lat":35.24353,"lng":128.872585,"roadAddr":"경상남도 김해시 가야의길 190 (구산동)","jibunAddr":"경상남도 김해시 구산동 232","openHours":"정시","maleToilets":33,"femaleToilets":32,"disabled":true,"diaperTable":false,"emergencyBell":true,"cctv":true,"source":"public","category":"public"},{"id":"202453500000100313","name":"김해여객터미널","lat":35.22934,"lng":128.872243,"roadAddr":"경상남도 김해시 김해대로 2232 (외동)","jibunAddr":"경상남도 김해시 외동 1264","openHours":"정시","maleToilets":27,"femaleToilets":27,"disabled":true,"diaperTable":true,"emergencyBell":true,"cctv":false,"source":"public","category":"public"},{"id":"202453500000100325","name":"축협마트서상점","lat":35.231427,"lng":128.879822,"roadAddr":"경상남도 김해시 분성로308번길 18","jibunAddr":"경상남도 김해시 서상동 269-6","openHours":"정시","maleToilets":0,"femaleToilets":0,"disabled":false,"diaperTable":false,"emergencyBell":false,"cctv":false,"source":"public","category":"public"},{"id":"202453500000100035","name":"봉황동 유적 공중화장실(사무실)","lat":35.230423,"lng":128.876505,"roadAddr":"경상남도 김해시 가락로63번길 51(봉황동)","jibunAddr":"경상남도 김해시 봉황동 333","openHours":"상시","maleToilets":11,"femaleToilets":4,"disabled":true,"diaperTable":true,"emergencyBell":true,"cctv":false,"source":"public","category":"public"},{"id":"202453500000100258","name":"동상동 전통시장  칼국수 화장실","lat":35.236276,"lng":128.88315,"roadAddr":"경상남도 김해시 구지로180번길 25 (동상동)","jibunAddr":"경상남도 김해시 동상동 881-1","openHours":"상시","maleToilets":5,"femaleToilets":3,"disabled":false,"diaperTable":false,"emergencyBell":true,"cctv":true,"source":"public","category":"public"},{"id":"202453500000100497","name":"광동페트로(주) 다인주유소","lat":35.215802,"lng":128.887879,"roadAddr":"경상남도 김해시 호계로 281 (부원동)","jibunAddr":"경상남도 김해시 부원동  343 번지3 호","openHours":"정시","maleToilets":2,"femaleToilets":1,"disabled":false,"diaperTable":false,"emergencyBell":false,"cctv":false,"source":"public","category":"public"},{"id":"202453500000100055","name":"부원공원","lat":35.227443,"lng":128.883756,"roadAddr":"경상남도 김해시 가락로 8-23 (부원동)","jibunAddr":"경상남도 김해시 부원동 607-8 부원공원 공중화장실","openHours":"상시","maleToilets":4,"femaleToilets":3,"disabled":true,"diaperTable":true,"emergencyBell":true,"cctv":true,"source":"public","category":"public"},{"id":"202453500000100461","name":"지에스칼텍스(주) 명품주유소","lat":35.21523,"lng":128.889104,"roadAddr":"경상남도 김해시 호계로 272 (부원동)","jibunAddr":"경상남도 김해시 부원동  526 번지6 호","openHours":"정시","maleToilets":2,"femaleToilets":1,"disabled":false,"diaperTable":false,"emergencyBell":false,"cctv":true,"source":"public","category":"public"},{"id":"202453500000100135","name":"임호체육공원 화장실","lat":35.227833,"lng":128.849922,"roadAddr":"경상남도 김해시 금관대로 1136","jibunAddr":"경상남도 김해시 외동 1110-1","openHours":"상시","maleToilets":5,"femaleToilets":6,"disabled":true,"diaperTable":false,"emergencyBell":false,"cctv":false,"source":"public","category":"public"},{"id":"202453500000100446","name":"동상주유소","lat":35.237682,"lng":128.888477,"roadAddr":"경상남도 김해시 가야로 501 (동상동)","jibunAddr":"경상남도 김해시 동상동  1113 번지12 호","openHours":"정시","maleToilets":3,"femaleToilets":1,"disabled":false,"diaperTable":false,"emergencyBell":false,"cctv":false,"source":"public","category":"public"},{"id":"202453500000100478","name":"영원주유소","lat":35.231384,"lng":128.884362,"roadAddr":"경상남도 김해시 호계로 459 (부원동)","jibunAddr":"경상남도 김해시 부원동  42 번지7 호","openHours":"정시","maleToilets":0,"femaleToilets":0,"disabled":false,"diaperTable":false,"emergencyBell":false,"cctv":false,"source":"public","category":"public"},{"id":"202453500000100160","name":"내외동행정복지센터 지상1층 화장실","lat":35.235183,"lng":128.864624,"roadAddr":"경상남도 김해시 내외로 67 (내동)","jibunAddr":"경상남도 김해시 내동 1116-4","openHours":"정시","maleToilets":19,"femaleToilets":13,"disabled":true,"diaperTable":false,"emergencyBell":false,"cctv":true,"source":"public","category":"public"},{"id":"202453500000100064","name":"소바우공원","lat":35.240317,"lng":128.865394,"roadAddr":"경상남도 김해시 우암로 124 (내동)","jibunAddr":"경상남도 김해시 내동 1125-1 소바우공원 공중화장실","openHours":"상시","maleToilets":3,"femaleToilets":2,"disabled":false,"diaperTable":false,"emergencyBell":true,"cctv":false,"source":"public","category":"public"},{"id":"202453500000100192","name":"김해시청역","lat":35.227063,"lng":128.890416,"roadAddr":"경상남도 김해시 김해대로 2408","jibunAddr":"경상남도 김해시 부원동 559-1","openHours":"정시","maleToilets":5,"femaleToilets":5,"disabled":true,"diaperTable":true,"emergencyBell":true,"cctv":true,"source":"public","category":"public"},{"id":"202453500000100349","name":"아이스퀘어몰","lat":35.225717,"lng":128.88324,"roadAddr":"경상남도 김해시 김해대로 2342(부원동)","jibunAddr":"경상남도 김해시 부원동 1043","openHours":"정시","maleToilets":80,"femaleToilets":71,"disabled":true,"diaperTable":false,"emergencyBell":false,"cctv":true,"source":"public","category":"public"},{"id":"202453500000100306","name":"시청 본관 화장실","lat":35.228611,"lng":128.889395,"roadAddr":"경상남도 김해시 김해대로 2401 (부원동)","jibunAddr":"경상남도 김해시 부원동 623 김해시청","openHours":"정시","maleToilets":51,"femaleToilets":22,"disabled":true,"diaperTable":false,"emergencyBell":true,"cctv":false,"source":"public","category":"public"},{"id":"202453500000100200","name":"부원동행정복지센터 화장실","lat":35.228727,"lng":128.886558,"roadAddr":"경상남도 김해시 김해대로2371번길 24-16 (부원동)","jibunAddr":"경상남도 김해시 부원동 619-3 부원동주민센터","openHours":"정시","maleToilets":3,"femaleToilets":2,"disabled":false,"diaperTable":false,"emergencyBell":false,"cctv":true,"source":"public","category":"public"},{"id":"202453500000100033","name":"수로왕릉 공중화장실(서편)","lat":35.23488,"lng":128.877205,"roadAddr":"경상남도 김해시 왕릉길 26(서상동)","jibunAddr":"경상남도 김해시 서상동 312","openHours":"정시","maleToilets":9,"femaleToilets":5,"disabled":true,"diaperTable":true,"emergencyBell":true,"cctv":true,"source":"public","category":"public"},{"id":"202453500000100177","name":"동상동주민자치센터 화장실","lat":35.236529,"lng":128.882442,"roadAddr":"경상남도 김해시 분성로335번길 34 (동상동)","jibunAddr":"경상남도 김해시 동상동 868","openHours":"정시","maleToilets":4,"femaleToilets":4,"disabled":false,"diaperTable":false,"emergencyBell":false,"cctv":true,"source":"public","category":"public"},{"id":"202453500000100068","name":"나비공원","lat":35.230879,"lng":128.869487,"roadAddr":"경상남도 김해시 분성로 209 (외동)","jibunAddr":"경상남도 김해시 외동 1261-7 나비공원 공중화장실","openHours":"상시","maleToilets":3,"femaleToilets":2,"disabled":true,"diaperTable":false,"emergencyBell":true,"cctv":true,"source":"public","category":"public"},{"id":"202453500000100317","name":"신한프라자","lat":35.235156,"lng":128.867118,"roadAddr":"경상남도 김해시 내외중앙로 60","jibunAddr":"경상남도 김해시 내동 1144-3","openHours":"정시","maleToilets":0,"femaleToilets":0,"disabled":false,"diaperTable":false,"emergencyBell":false,"cctv":false,"source":"public","category":"public"},{"id":"202453500000100031","name":"수로왕릉 공중화장실(정문)","lat":35.23488,"lng":128.877205,"roadAddr":"경상남도 김해시 왕릉길 26(서상동)","jibunAddr":"경상남도 김해시 서상동 312","openHours":"정시","maleToilets":7,"femaleToilets":3,"disabled":false,"diaperTable":true,"emergencyBell":false,"cctv":false,"source":"public","category":"public"},{"id":"202453500000100495","name":"무지개셀프주유소","lat":35.21608,"lng":128.88829,"roadAddr":"경상남도 김해시 호계로 282 (부원동)","jibunAddr":"경상남도 김해시 부원동  461 번지","openHours":"정시","maleToilets":3,"femaleToilets":1,"disabled":false,"diaperTable":false,"emergencyBell":false,"cctv":false,"source":"public","category":"public"},{"id":"202453500000100307","name":"시청 제2청사 화장실","lat":35.226529,"lng":128.890282,"roadAddr":"경상남도 김해시 김해대로 2402 (부원동)","jibunAddr":"경상남도 김해시 부원동 553-1","openHours":"정시","maleToilets":32,"femaleToilets":32,"disabled":true,"diaperTable":true,"emergencyBell":false,"cctv":false,"source":"public","category":"public"},{"id":"202453500000100412","name":"출광주유소","lat":35.230422,"lng":128.850628,"roadAddr":"경상남도 김해시 금관대로 1152 (외동)","jibunAddr":"경상남도 김해시 외동  1091 번지","openHours":"정시","maleToilets":2,"femaleToilets":2,"disabled":false,"diaperTable":false,"emergencyBell":false,"cctv":false,"source":"public","category":"public"},{"id":"202453500000100443","name":"스타주유소","lat":35.243854,"lng":128.881903,"roadAddr":"경상남도 김해시 가야로 409 (대성동)","jibunAddr":"경상남도 김해시 대성동  481 번지1 호","openHours":"정시","maleToilets":2,"femaleToilets":1,"disabled":false,"diaperTable":false,"emergencyBell":false,"cctv":true,"source":"public","category":"public"},{"id":"202453500000100305","name":"시청 사업소동 화장실(북관)","lat":35.228611,"lng":128.889395,"roadAddr":"경상남도 김해시 김해대로 2401 (부원동)","jibunAddr":"경상남도 김해시 부원동 623 김해시청","openHours":"정시","maleToilets":15,"femaleToilets":14,"disabled":false,"diaperTable":true,"emergencyBell":false,"cctv":false,"source":"public","category":"public"},{"id":"202453500000100065","name":"해반공원","lat":35.239028,"lng":128.870633,"roadAddr":"경상남도 김해시 내외중앙로102번길 26 (내동)","jibunAddr":"경상남도 김해시 내동 1137-1 해반공원 공중화장실","openHours":"상시","maleToilets":3,"femaleToilets":2,"disabled":false,"diaperTable":false,"emergencyBell":true,"cctv":true,"source":"public","category":"public"},{"id":"202453500000100032","name":"수로왕릉 공중화장실(동편)","lat":35.23488,"lng":128.877205,"roadAddr":"경상남도 김해시 왕릉길 26(서상동)","jibunAddr":"경상남도 김해시 서상동 312","openHours":"정시","maleToilets":5,"femaleToilets":6,"disabled":true,"diaperTable":false,"emergencyBell":false,"cctv":true,"source":"public","category":"public"},{"id":"202453500000100070","name":"임호공원","lat":35.22758,"lng":128.863005,"roadAddr":"경상남도 김해시 분성로134번길 40","jibunAddr":"경상남도 김해시 외동 438","openHours":"상시","maleToilets":3,"femaleToilets":2,"disabled":true,"diaperTable":true,"emergencyBell":true,"cctv":true,"source":"public","category":"public"},{"id":"202453500000100087","name":"팔각공원","lat":35.228529,"lng":128.890751,"roadAddr":"경상남도 김해시 김해대로2415번길 11 (부원동)","jibunAddr":"경상남도 김해시 부원동 628-3","openHours":"상시","maleToilets":3,"femaleToilets":2,"disabled":true,"diaperTable":false,"emergencyBell":true,"cctv":true,"source":"public","category":"public"},{"id":"202453500000100072","name":"수릉원(남)","lat":35.235053,"lng":128.87579,"roadAddr":"경상남도 김해시 분성로261번길 35 (봉황동)","jibunAddr":"경상남도 김해시 봉황동 431 민속박물관옆","openHours":"상시","maleToilets":14,"femaleToilets":10,"disabled":true,"diaperTable":true,"emergencyBell":true,"cctv":true,"source":"public","category":"public"},{"id":"202453500000100121","name":"분성체육공원 본부석 화장실","lat":35.240075,"lng":128.889002,"roadAddr":"경상남도 김해시 가야로405번길 73-32","jibunAddr":"경상남도 김해시 동상동 416-1","openHours":"상시","maleToilets":3,"femaleToilets":2,"disabled":true,"diaperTable":false,"emergencyBell":false,"cctv":false,"source":"public","category":"public"},{"id":"202453500000100319","name":"김해삼성병원","lat":35.226636,"lng":128.882336,"roadAddr":"경상남도 김해시 김해대로 2335","jibunAddr":"경상남도 김해시 부원동 605-14","openHours":"상시","maleToilets":0,"femaleToilets":0,"disabled":false,"diaperTable":false,"emergencyBell":false,"cctv":false,"source":"public","category":"public"},{"id":"202453500000100195","name":"수로왕릉역","lat":35.232822,"lng":128.87224,"roadAddr":"경상남도 김해시 김해대로 2181","jibunAddr":"경상남도 김해시 외동 1140-1","openHours":"정시","maleToilets":5,"femaleToilets":5,"disabled":true,"diaperTable":true,"emergencyBell":true,"cctv":true,"source":"public","category":"public"},{"id":"202453500000100300","name":"시청 행복민원청사 화장실(동관)","lat":35.228611,"lng":128.889395,"roadAddr":"경상남도 김해시 김해대로 2401 (부원동)","jibunAddr":"경상남도 김해시 부원동 623 김해시청","openHours":"정시","maleToilets":40,"femaleToilets":25,"disabled":false,"diaperTable":true,"emergencyBell":true,"cctv":false,"source":"public","category":"public"},{"id":"202453500000100161","name":"농업기술센터 화장실","lat":35.213457,"lng":128.870382,"roadAddr":"경상남도 김해시 전하로198번길 102 (전하동)","jibunAddr":"경상남도 김해시 전하동 900 김해시농업기술센터","openHours":"정시","maleToilets":14,"femaleToilets":4,"disabled":true,"diaperTable":false,"emergencyBell":false,"cctv":false,"source":"public","category":"public"},{"id":"202453500000100423","name":"대윤에너지 가야탑주유소","lat":35.235552,"lng":128.889225,"roadAddr":"경상남도 김해시 가야로 524 (동상동)","jibunAddr":"경상남도 김해시 동상동  498 번지7 호","openHours":"정시","maleToilets":2,"femaleToilets":1,"disabled":false,"diaperTable":false,"emergencyBell":false,"cctv":false,"source":"public","category":"public"},{"id":"202453500000100308","name":"회현동행정복지센터 지상1층 화장실","lat":35.231482,"lng":128.878436,"roadAddr":"경상남도 김해시 가락로63번길 33 (봉황동)","jibunAddr":"경상남도 김해시 봉황동 301-3","openHours":"정시","maleToilets":4,"femaleToilets":2,"disabled":false,"diaperTable":false,"emergencyBell":false,"cctv":false,"source":"public","category":"public"},{"id":"202453500000100176","name":"동상동행정복지센터 화장실","lat":35.236852,"lng":128.883457,"roadAddr":"경상남도 김해시 호계로517번길 8 (동상동)","jibunAddr":"경상남도 김해시 동상동 856-1 동상동주민센터","openHours":"정시","maleToilets":2,"femaleToilets":1,"disabled":true,"diaperTable":true,"emergencyBell":false,"cctv":true,"source":"public","category":"public"},{"id":"202453500000100256","name":"문화의거리 공중화장실","lat":35.24353,"lng":128.872585,"roadAddr":"경상남도 김해시 가야의길 190 (구산동)","jibunAddr":"경상남도 김해시 구산동 232 국립김해박물관","openHours":"상시","maleToilets":3,"femaleToilets":2,"disabled":true,"diaperTable":true,"emergencyBell":true,"cctv":true,"source":"public","category":"public"},{"id":"202453500000100309","name":"회현동행정복지센터 지상2층 화장실","lat":35.231482,"lng":128.878436,"roadAddr":"경상남도 김해시 가락로63번길 33 (봉황동)","jibunAddr":"경상남도 김해시 봉황동 301-3","openHours":"정시","maleToilets":3,"femaleToilets":2,"disabled":false,"diaperTable":false,"emergencyBell":false,"cctv":false,"source":"public","category":"public"},{"id":"202453500000100318","name":"범환아파트상가","lat":35.232314,"lng":128.879552,"roadAddr":"경상남도 김해시 분성로302번길 7-1","jibunAddr":"경상남도 김해시 서상동 333-9","openHours":"상시","maleToilets":5,"femaleToilets":6,"disabled":false,"diaperTable":false,"emergencyBell":false,"cctv":false,"source":"public","category":"public"},{"id":"202453500000100073","name":"수릉원(북)","lat":35.236085,"lng":128.875537,"roadAddr":"경상남도 김해시 가락로125번길 53 (대성동)","jibunAddr":"경상남도 김해시 대성동 429-2 수릉원 공중화장실","openHours":"상시","maleToilets":4,"femaleToilets":4,"disabled":true,"diaperTable":true,"emergencyBell":true,"cctv":true,"source":"public","category":"public"},{"id":"202453500000100263","name":"동상동 전통시장 유공정 화장실","lat":35.235622,"lng":128.882709,"roadAddr":"경상남도 김해시 분성로335번길 22-7","jibunAddr":"경상남도 김해시 동상동 883-25","openHours":"상시","maleToilets":5,"femaleToilets":3,"disabled":false,"diaperTable":false,"emergencyBell":true,"cctv":true,"source":"public","category":"public"},{"id":"202453500000100447","name":"굿모닝주유소","lat":35.238845,"lng":128.867005,"roadAddr":"경상남도 김해시 내외중앙로 99 (내동)","jibunAddr":"경상남도 김해시 내동  1123-1 번지","openHours":"정시","maleToilets":5,"femaleToilets":1,"disabled":false,"diaperTable":false,"emergencyBell":false,"cctv":false,"source":"public","category":"public"},{"id":"202453500000100038","name":"대성동고분박물관 상설전시관 화장실","lat":35.236133,"lng":128.872858,"roadAddr":"경상남도 김해시 가야의길 126","jibunAddr":"경상남도 김해시 대성동 434","openHours":"정시","maleToilets":6,"femaleToilets":3,"disabled":false,"diaperTable":true,"emergencyBell":false,"cctv":false,"source":"public","category":"public"},{"id":"202453500000100466","name":"롯데주유소","lat":35.23959,"lng":128.886678,"roadAddr":"경상남도 김해시 가야로 469 (동상동)","jibunAddr":"경상남도 김해시 동상동  1103 번지20 호","openHours":"정시","maleToilets":2,"femaleToilets":1,"disabled":false,"diaperTable":false,"emergencyBell":false,"cctv":true,"source":"public","category":"public"},{"id":"202453500000100454","name":"SK대영주유소","lat":35.224627,"lng":128.871685,"roadAddr":"경상남도 김해시 전하로 229 (흥동)","jibunAddr":"경상남도 김해시 흥동  4-10 번지","openHours":"정시","maleToilets":2,"femaleToilets":1,"disabled":false,"diaperTable":false,"emergencyBell":false,"cctv":false,"source":"public","category":"public"},{"id":"202453500000100122","name":"분성체육공원 옥외화장실","lat":35.240075,"lng":128.889002,"roadAddr":"경상남도 김해시 가야로405번길 73-32","jibunAddr":"경상남도 김해시 동상동 416-1","openHours":"상시","maleToilets":3,"femaleToilets":2,"disabled":true,"diaperTable":false,"emergencyBell":false,"cctv":false,"source":"public","category":"public"},{"id":"202453500000100036","name":"봉황대 유적 공중화장실(주차장)","lat":35.231914,"lng":128.874666,"roadAddr":"경상남도 김해시 분성로 264-12(봉황동)","jibunAddr":"경상남도 김해시 봉황동 465","openHours":"상시","maleToilets":7,"femaleToilets":4,"disabled":true,"diaperTable":true,"emergencyBell":true,"cctv":true,"source":"public","category":"public"},{"id":"202453500000100560","name":"김해연지우체국","lat":35.240394,"lng":128.86836,"roadAddr":"경상남도 김해시 내외중앙로 120","openHours":"정시","maleToilets":2,"femaleToilets":1,"disabled":false,"diaperTable":false,"emergencyBell":false,"cctv":false,"source":"public","category":"public"},{"id":"202453500000100507","name":"태양셀프주유소","lat":35.223803,"lng":128.871512,"roadAddr":"경상남도 김해시 전하로 222 (전하동)","jibunAddr":"경상남도 김해시 전하동  10 번지1 호","openHours":"정시","maleToilets":0,"femaleToilets":0,"disabled":false,"diaperTable":false,"emergencyBell":false,"cctv":false,"source":"public","category":"public"},{"id":"202453500000100048","name":"남산공원","lat":35.229665,"lng":128.890143,"roadAddr":"경상남도 김해시 분성로396번길 55(부원동)","jibunAddr":"경상남도 김해시 부원동 112-3","openHours":"상시","maleToilets":3,"femaleToilets":2,"disabled":false,"diaperTable":false,"emergencyBell":true,"cctv":true,"source":"public","category":"public"},{"id":"202453500000100564","name":"김해외동우체국","lat":35.233383,"lng":128.85776,"roadAddr":"경상남도 김해시 함박로31","openHours":"정시","maleToilets":1,"femaleToilets":1,"disabled":false,"diaperTable":false,"emergencyBell":false,"cctv":false,"source":"public","category":"public"},{"id":"202453500000100571","name":"김해부원동우체국","lat":35.231707,"lng":128.882193,"roadAddr":"경상남도 김해시 가락로 58","openHours":"정시","maleToilets":4,"femaleToilets":2,"disabled":false,"diaperTable":false,"emergencyBell":false,"cctv":false,"source":"public","category":"public"},{"id":"202453500000100037","name":"봉황대 유적 공중화장실(봉황초등쪽)","lat":35.22988,"lng":128.874689,"roadAddr":"경상남도 김해시 가야의길 46(봉황동)","jibunAddr":"경상남도 김해시 봉황동 465","openHours":"상시","maleToilets":7,"femaleToilets":4,"disabled":true,"diaperTable":true,"emergencyBell":true,"cctv":true,"source":"public","category":"public"},{"id":"202453500000100024","name":"김해한옥체험관 공중화장실","lat":35.234363,"lng":128.876685,"roadAddr":"경상남도 김해시 왕릉길 40 (봉황동)","jibunAddr":"경상남도 김해시 봉황동 425-13 김해한옥체험관","openHours":"정시","maleToilets":3,"femaleToilets":3,"disabled":true,"diaperTable":false,"emergencyBell":false,"cctv":false,"source":"public","category":"public"},{"id":"202453500000100304","name":"시청 주차동 화장실","lat":35.228611,"lng":128.889395,"roadAddr":"경상남도 김해시 김해대로 2401 (부원동)","jibunAddr":"경상남도 김해시 부원동 623 김해시청","openHours":"정시","maleToilets":3,"femaleToilets":0,"disabled":false,"diaperTable":false,"emergencyBell":false,"cctv":false,"source":"public","category":"public"},{"id":"202453500000100536","name":"SK가스서김해LPG충전소","lat":35.227523,"lng":128.849177,"roadAddr":"경상남도 김해시 금관대로 1112 (외동)","jibunAddr":"경상남도 김해시 외동 1107-2","openHours":"정시","maleToilets":2,"femaleToilets":2,"disabled":false,"diaperTable":false,"emergencyBell":false,"cctv":false,"source":"public","category":"public"},{"id":"202453500000100094","name":"흥부공원","lat":35.231887,"lng":128.866585,"roadAddr":"경상남도 김해시 함박로 116 (외동)","jibunAddr":"경상남도 김해시 외동 1261-10 흥부공원 공중화장실","openHours":"상시","maleToilets":4,"femaleToilets":4,"disabled":true,"diaperTable":false,"emergencyBell":true,"cctv":true,"source":"public","category":"public"},{"id":"202453500000100465","name":"흥동스마트주유소","lat":35.223963,"lng":128.87129,"roadAddr":"경상남도 김해시 전하로 223 (흥동)","jibunAddr":"경상남도 김해시 흥동  4 번지8 호","openHours":"정시","maleToilets":2,"femaleToilets":1,"disabled":false,"diaperTable":false,"emergencyBell":false,"cctv":false,"source":"public","category":"public"},{"id":"202453500000100340","name":"김해민속박물관","lat":35.235053,"lng":128.87579,"roadAddr":"경상남도 김해시분성로261번길 35(봉황동)","jibunAddr":"경상남도 김해시봉황동 431","openHours":"정시","maleToilets":4,"femaleToilets":3,"disabled":true,"diaperTable":false,"emergencyBell":false,"cctv":false,"source":"public","category":"public"},{"id":"202453500000100521","name":"지에스칼텍스(주) 이마트 김해점","lat":35.22934,"lng":128.872243,"roadAddr":"경상남도 김해시 김해대로 2232 (외동)","jibunAddr":"경상남도 김해시 외동  1264 번지","openHours":"정시","maleToilets":2,"femaleToilets":1,"disabled":false,"diaperTable":false,"emergencyBell":false,"cctv":false,"source":"public","category":"public"},{"id":"202453500000100034","name":"수로왕비릉 공중화장실","lat":35.242884,"lng":128.877509,"roadAddr":"경상남도 김해시 가락로190번길 1(구산동)","jibunAddr":"경상남도 김해시 구산동 120-1","openHours":"정시","maleToilets":5,"femaleToilets":3,"disabled":false,"diaperTable":false,"emergencyBell":false,"cctv":true,"source":"public","category":"public"},{"id":"202453500000100106","name":"김해종합관광안내소","lat":35.239225,"lng":128.873923,"roadAddr":"경상남도 김해시 구지로 95 (대성동)","jibunAddr":"경상남도 김해시 대성동 463-6","openHours":"정시","maleToilets":8,"femaleToilets":8,"disabled":true,"diaperTable":true,"emergencyBell":false,"cctv":true,"source":"public","category":"public"},{"id":"202453500000100302","name":"시청 의회 화장실","lat":35.228611,"lng":128.889395,"roadAddr":"경상남도 김해시 김해대로 2401 (부원동)","jibunAddr":"경상남도 김해시 부원동 623 김해시청","openHours":"정시","maleToilets":25,"femaleToilets":12,"disabled":false,"diaperTable":false,"emergencyBell":false,"cctv":false,"source":"public","category":"public"}]