[{"id":"202453500000100472","name":"(주)안하주유소","lat":35.306361,"lng":128.824096,"roadAddr":"경상남도 김해시 한림면 안하로 75","jibunAddr":"경상남도 김해시 한림면 안하리 718-1, 720-2 번지","openHours":"정시","maleToilets":3,"femaleToilets":2,"disabled":false,"diaperTable":false,"emergencyBell":false,"cctv":false,"source":"public","category":"public"},{"id":"202453500000100394","name":"현대주유소","lat":35.304732,"lng":128.807766,"roadAddr":"경상남도 김해시 한림면 한림로 131","jibunAddr":"경상남도 김해시 한림면 명동리 61 번지1 호","openHours":"정시","maleToilets":2,"femaleToilets":1,"disabled":false,"diaperTable":false,"emergencyBell":false,"cctv":false,"source":"public","category":"public"},{"id":"202453500000100232","name":"화포천 생태체험장 화장실","lat":35.318296,"lng":128.804246,"roadAddr":"경상남도 김해시 한림면 한림로 332","jibunAddr":"경상남도 김해시 한림면  장방리 228-90","openHours":"상시","maleToilets":2,"femaleToilets":2,"disabled":true,"diaperTable":false,"emergencyBell":true,"cctv":true,"source":"public","category":"public"},{"id":"202453500000100453","name":"한림정주유소","lat":35.311651,"lng":128.807718,"roadAddr":"경상남도 김해시 한림면 한림로 226","jibunAddr":"경상남도 김해시 한림면 안하리 1132 번지8 호","openHours":"정시","maleToilets":8,"femaleToilets":4,"disabled":false,"diaperTable":false,"emergencyBell":false,"cctv":true,"source":"public","category":"public"},{"id":"202453500000100462","name":"용덕주유소","lat":35.297776,"lng":128.829969,"roadAddr":"경상남도 김해시 한림면 용덕로 236","jibunAddr":"경상남도 김해시 한림면 용덕리 825 번지","openHours":"정시","maleToilets":3,"femaleToilets":2,"disabled":false,"diaperTable":false,"emergencyBell":false,"cctv":false,"source":"public","category":"public"},{"id":"202453500000100358","name":"명동주유소","lat":35.294134,"lng":128.808785,"roadAddr":"경상남도 김해시 한림면 김해대로 1165","jibunAddr":"경상남도 김해시 한림면 명동리 1065 번지3 호","openHours":"정시","maleToilets":3,"femaleToilets":1,"disabled":false,"diaperTable":false,"emergencyBell":false,"cctv":true,"source":"public","category":"public"},{"id":"202453500000100312","name":"한림정역","lat":35.324227,"lng":128.803826,"roadAddr":"경상남도 김해시 한림면 한림로398번길 10","jibunAddr":"경상남도 김해시 한림면 장방리 1253-188","openHours":"정시","maleToilets":4,"femaleToilets":3,"disabled":true,"diaperTable":false,"emergencyBell":true,"cctv":true,"source":"public","category":"public"}]