[{"id":"202053800000100273","name":"남부공원","lat":35.331709,"lng":129.022983,"roadAddr":"경상남도 양산시 강변로 355, 남부공원 화장실 (남부동)","jibunAddr":"경상남도 양산시 남부동 888 남부공원 화장실","openHours":"상시","maleToilets":6,"femaleToilets":5,"disabled":false,"diaperTable":true,"emergencyBell":true,"cctv":false,"managerTel":"0553925473","source":"public","category":"public"},{"id":"202653800000100046","name":"삼산도서관","lat":35.303233,"lng":129.020081,"roadAddr":"경상남도 양산시 동면 강변로 30, 양산지혜마루","jibunAddr":"경상남도 양산시 동면 금산리 1145 양산지혜마루","openHours":"09~22","maleToilets":20,"femaleToilets":17,"disabled":true,"diaperTable":true,"emergencyBell":true,"cctv":true,"managerTel":"0553923143","source":"public","category":"public"},{"id":"202053800000100029","name":"양산교육지원청","lat":35.327934,"lng":128.994328,"roadAddr":"경남 양산시 물금읍 청룡로 53 (범어리, 양산교육청)","openHours":"09~18","maleToilets":7,"femaleToilets":4,"disabled":true,"diaperTable":false,"emergencyBell":false,"cctv":false,"managerTel":"0553793124","source":"public","category":"public"},{"id":"202353800000100041","name":"국민연금공단","lat":35.327477,"lng":129.017113,"roadAddr":"경상남도 양산시 물금읍 청운로 358, 국민연금공단 양산회관","jibunAddr":"경상남도 양산시 물금읍 범어리 2714-3 국민연금공단 양산회관","openHours":"평일(09:00∼18:00)","maleToilets":29,"femaleToilets":19,"disabled":true,"diaperTable":true,"emergencyBell":true,"cctv":false,"managerTel":"0553711562","source":"public","category":"public"},{"id":"202053800000100198","name":"남양산지하철역 화장실","lat":35.325454,"lng":129.019421,"roadAddr":"물금읍 메기로 380(남양산지하철역)","openHours":"09~18","maleToilets":13,"femaleToilets":9,"disabled":true,"diaperTable":false,"emergencyBell":true,"cctv":false,"managerTel":"0516786242","source":"public","category":"public"},{"id":"202053800000100136","name":"증산역공원 화장실","lat":35.303861,"lng":129.009543,"roadAddr":"경상남도 양산시 물금읍 메기로 118","jibunAddr":"경상남도 양산시 물금읍 증산리 1831","openHours":"상시","maleToilets":2,"femaleToilets":0,"disabled":true,"diaperTable":false,"emergencyBell":true,"cctv":false,"managerTel":"0553925473","source":"public","category":"public"},{"id":"202253800000100004","name":"범어그라운드골프장","lat":35.321027,"lng":129.016323,"roadAddr":"경상남도 양산시 물금읍 메기로 319","jibunAddr":"경상남도 양산시 물금읍 범어리 2762-6","openHours":"상시","maleToilets":2,"femaleToilets":1,"disabled":false,"diaperTable":false,"emergencyBell":false,"cctv":false,"managerTel":"0553925473","source":"public","category":"public"},{"id":"202053800000100027","name":"아이시디햇살주유소화장실","lat":35.309081,"lng":129.01664,"roadAddr":"경남 양산시 물금읍 제방로 229 (증산리, (주)아이시디주유소)","openHours":"상시","maleToilets":4,"femaleToilets":1,"disabled":false,"diaperTable":false,"emergencyBell":false,"cctv":false,"managerTel":"0553922603","source":"public","category":"public"},{"id":"202053800000100137","name":"중앙도서관","lat":35.325227,"lng":128.99651,"roadAddr":"경상남도 양산시 물금읍 청룡로 11","openHours":"09~22","maleToilets":31,"femaleToilets":34,"disabled":true,"diaperTable":true,"emergencyBell":false,"cctv":true,"managerTel":"0553925912","source":"public","category":"public"},{"id":"202653800000100047","name":"관리동주차장(황산문화체육공원2)","lat":35.306733,"lng":128.982451,"jibunAddr":"경상남도 양산시 물금읍 물금리 783-1","openHours":"상시","maleToilets":3,"femaleToilets":3,"disabled":false,"diaperTable":false,"emergencyBell":true,"cctv":false,"managerTel":"0553922825","source":"public","category":"public"},{"id":"202653800000100044","name":"어린이영어도서관","lat":35.314799,"lng":129.006965,"roadAddr":"경상남도 양산시 물금읍 백호로 125, 증산다누리터,양산시립 어린이영어도서관","jibunAddr":"경상남도 양산시 물금읍 범어리 2785-2 증산다누리터,양산시립 어린이영어도서관","openHours":"09~18","maleToilets":4,"femaleToilets":5,"disabled":true,"diaperTable":false,"emergencyBell":false,"cctv":false,"managerTel":"0553922942","source":"public","category":"public"},{"id":"202353800000100019","name":"수질정화공원(운동장 관리실)","lat":35.306236,"lng":129.02056,"roadAddr":"경상남도 양산시 동면 강변로 54","jibunAddr":"경상남도 양산시 동면 금산리 1223-3","openHours":"상시","maleToilets":6,"femaleToilets":4,"disabled":false,"diaperTable":false,"emergencyBell":false,"cctv":false,"source":"public","category":"public"},{"id":"202353800000100010","name":"황산공원 1구장주차장 8번","lat":35.297696,"lng":128.989001,"jibunAddr":"경상남도 양산시 물금읍 물금리 192","openHours":"상시","maleToilets":3,"femaleToilets":2,"disabled":false,"diaperTable":false,"emergencyBell":true,"cctv":true,"managerTel":"0553922824","source":"public","category":"public"},{"id":"202653800000100063","name":"반다비체육센터","lat":35.323008,"lng":129.002871,"roadAddr":"경상남도 양산시 물금읍 부산대학로 34, 반다비 체육센터","jibunAddr":"경상남도 양산시 물금읍 가촌리 1312-4 반다비 체육센터","openHours":"06~23","maleToilets":6,"femaleToilets":6,"disabled":true,"diaperTable":false,"emergencyBell":false,"cctv":false,"managerTel":"0553798405","source":"public","category":"public"},{"id":"202653800000100060","name":"양주문화체육센터","lat":35.303233,"lng":129.020081,"roadAddr":"경상남도 양산시 동면 강변로 30","jibunAddr":"경상남도 양산시 동면 금산리 1145","openHours":"06~23","maleToilets":8,"femaleToilets":8,"disabled":true,"diaperTable":true,"emergencyBell":false,"cctv":false,"managerTel":"0553798506","source":"public","category":"public"},{"id":"202653800000100056","name":"범어민원사무소 화장실","lat":35.331483,"lng":129.011252,"roadAddr":"경상남도 양산시 물금읍 범어로 22, 물금읍 범어민원사무소","jibunAddr":"경상남도 양산시 물금읍 범어리 2678-1 물금읍 범어민원사무소","openHours":"09~18","maleToilets":3,"femaleToilets":1,"disabled":true,"diaperTable":false,"emergencyBell":false,"cctv":false,"managerTel":"0553927017","source":"public","category":"public"},{"id":"202653800000100064","name":"국민체육센터","lat":35.327031,"lng":128.994665,"roadAddr":"경상남도 양산시 물금읍 청룡로 33, 양산중앙국민체육센터","jibunAddr":"경상남도 양산시 물금읍 가촌리 990 양산중앙국민체육센터","openHours":"06~23","maleToilets":30,"femaleToilets":21,"disabled":false,"diaperTable":true,"emergencyBell":false,"cctv":false,"managerTel":"0553798638","source":"public","category":"public"},{"id":"202053800000100202","name":"물금남부공원","lat":35.307391,"lng":128.994144,"roadAddr":"물금읍 물금리 897-1","openHours":"상시","maleToilets":7,"femaleToilets":9,"disabled":true,"diaperTable":true,"emergencyBell":true,"cctv":true,"managerTel":"0553925473","source":"public","category":"public"},{"id":"202053800000100209","name":"범어근린공원","lat":35.329675,"lng":129.000294,"roadAddr":"경상남도 양산시 물금읍 서남5길 33-1","jibunAddr":"경상남도 양산시 물금읍 범어리 556","openHours":"상시","maleToilets":2,"femaleToilets":2,"disabled":true,"diaperTable":false,"emergencyBell":true,"cctv":true,"managerTel":"0553925473","source":"public","category":"public"},{"id":"202053800000100195","name":"새터어린이공원","lat":35.320286,"lng":128.991801,"roadAddr":"경상남도 양산시 물금읍 가촌서7길 19","jibunAddr":"경상남도 양산시 물금읍 가촌리 554-5","openHours":"상시","maleToilets":1,"femaleToilets":1,"disabled":true,"diaperTable":true,"emergencyBell":true,"cctv":true,"managerTel":"0553925473","source":"public","category":"public"},{"id":"202353800000100001","name":"황산공원 파크골프주차장 10번","lat":35.298094,"lng":128.995836,"jibunAddr":"경상남도 양산시 물금읍 증산리 999","openHours":"상시","maleToilets":3,"femaleToilets":2,"disabled":false,"diaperTable":false,"emergencyBell":true,"cctv":false,"managerTel":"0553922824","source":"public","category":"public"},{"id":"202053800000100026","name":"터미널주유소화장실","lat":35.291143,"lng":129.01138,"roadAddr":"경남 양산시 물금읍 제방로 21 (증산리)","openHours":"상시","maleToilets":4,"femaleToilets":1,"disabled":false,"diaperTable":false,"emergencyBell":false,"cctv":false,"managerTel":"0553922603","source":"public","category":"public"},{"id":"202053800000100197","name":"부산대양산캠퍼스 지하철역 화장실","lat":35.316885,"lng":129.013941,"roadAddr":"물금읍 메기로 270(부산대양산캠퍼스 지하철역)","openHours":"09~18","maleToilets":16,"femaleToilets":12,"disabled":true,"diaperTable":false,"emergencyBell":true,"cctv":false,"managerTel":"0553812227","source":"public","category":"public"},{"id":"202053800000100296","name":"물금역 화장실","lat":35.30706,"lng":128.985708,"roadAddr":"황산로 347(물금역)","openHours":"04:30~23:00","maleToilets":8,"femaleToilets":3,"disabled":true,"diaperTable":false,"emergencyBell":true,"cctv":false,"managerTel":"0553594292","source":"public","category":"public"},{"id":"202053800000100028","name":"증산셀프주유소화장실","lat":35.308972,"lng":129.006823,"roadAddr":"경남 양산시 물금읍 증산역로 158 (증산리)","openHours":"상시","maleToilets":1,"femaleToilets":0,"disabled":false,"diaperTable":false,"emergencyBell":false,"cctv":false,"managerTel":"0553922603","source":"public","category":"public"},{"id":"202353800000100020","name":"물금LPG충전소","lat":35.293693,"lng":129.005418,"roadAddr":"경상남도 양산시 물금읍 황산로 112","jibunAddr":"경상남도 양산시 물금읍 증산리 845-4","openHours":"-시간","maleToilets":2,"femaleToilets":2,"disabled":false,"diaperTable":false,"emergencyBell":false,"cctv":false,"source":"public","category":"public"},{"id":"202653800000100010","name":"물금읍행정복지센터","lat":35.310355,"lng":128.987284,"roadAddr":"경상남도 양산시 물금읍 황산로 384, 물금읍사무소","jibunAddr":"경상남도 양산시 물금읍 물금리 800-6 물금읍사무소","openHours":"9~18","maleToilets":12,"femaleToilets":8,"disabled":false,"diaperTable":true,"emergencyBell":false,"cctv":false,"managerTel":"0553927017","source":"public","category":"public"},{"id":"202653800000100012","name":"음악분수공원","lat":35.32763,"lng":129.018071,"roadAddr":"경상남도 양산시 물금읍 메기로 399","jibunAddr":"경상남도 양산시 물금읍 범어리 2714-2","openHours":"상시","maleToilets":8,"femaleToilets":8,"disabled":true,"diaperTable":false,"emergencyBell":true,"cctv":false,"managerTel":"0553925473","source":"public","category":"public"},{"id":"202053800000100196","name":"증산역지하철역 화장실","lat":35.308246,"lng":129.010278,"roadAddr":"물금읍 메기로 168(증산지하철역)","openHours":"09~18","maleToilets":11,"femaleToilets":9,"disabled":true,"diaperTable":false,"emergencyBell":true,"cctv":false,"managerTel":"0516786240","source":"public","category":"public"},{"id":"202053800000100030","name":"물금주유소","lat":35.319208,"lng":128.99399,"roadAddr":"경남 양산시 물금읍 황산로 501 (가촌리)","openHours":"09~18","maleToilets":2,"femaleToilets":1,"disabled":false,"diaperTable":false,"emergencyBell":false,"cctv":false,"managerTel":"0553922603","source":"public","category":"public"},{"id":"202053800000100364","name":"수학체험공원","lat":35.319065,"lng":129.007082,"roadAddr":"경상남도 양산시 물금읍 범어리 2768-1","openHours":"상시","maleToilets":4,"femaleToilets":3,"disabled":true,"diaperTable":false,"emergencyBell":true,"cctv":true,"managerTel":"0553925473","source":"public","category":"public"},{"id":"202053800000100127","name":"수질정화공원 축구장","lat":35.306236,"lng":129.02056,"roadAddr":"경상남도 양산시 동면 강변로 54","openHours":"상시","maleToilets":5,"femaleToilets":5,"disabled":true,"diaperTable":false,"emergencyBell":false,"cctv":false,"managerTel":"0553925482","source":"public","category":"public"},{"id":"202053800000100187","name":"완충녹지13호","lat":35.321698,"lng":129.021664,"roadAddr":"동면 석산리 1288-10","jibunAddr":"경상남도 양산시 동면 석산리 1528","openHours":"상시","maleToilets":3,"femaleToilets":1,"disabled":true,"diaperTable":false,"emergencyBell":true,"cctv":false,"managerTel":"0553925473","source":"public","category":"public"},{"id":"202353800000100006","name":"황산공원 야구장앞 6번화장실","lat":35.298126,"lng":128.987479,"jibunAddr":"경상남도 양산시 물금읍 물금리 199-3","openHours":"상시","maleToilets":3,"femaleToilets":2,"disabled":false,"diaperTable":false,"emergencyBell":true,"cctv":true,"managerTel":"0553922824","source":"public","category":"public"},{"id":"202353800000100008","name":"황산공원 서부광장주차장2번","lat":35.306733,"lng":128.982451,"jibunAddr":"경상남도 양산시 물금읍 물금리 783-1","openHours":"상시","maleToilets":3,"femaleToilets":2,"disabled":false,"diaperTable":false,"emergencyBell":true,"cctv":true,"managerTel":"0553922824","source":"public","category":"public"},{"id":"202653800000100021","name":"제45호완충녹지","lat":35.32797,"lng":129.022404,"jibunAddr":"경상남도 양산시 남부동 892","openHours":"상시","maleToilets":2,"femaleToilets":3,"disabled":true,"diaperTable":true,"emergencyBell":true,"cctv":true,"managerTel":"0553925473","source":"public","category":"public"}]