[{"id":"202453600000100492","name":"남천공원 화장실","lat":35.486602,"lng":128.74184,"roadAddr":"경상남도 밀양시 밀양대로 1853-42","jibunAddr":"경상남도 밀양시 내이동 1408-2","openHours":"상시","maleToilets":4,"femaleToilets":4,"disabled":true,"diaperTable":true,"emergencyBell":true,"cctv":true,"managerTel":"0553595363","source":"public","category":"public"},{"id":"202453600000100621","name":"삼문둔치 바닥분수 이동식화장실","lat":35.478395,"lng":128.751831,"roadAddr":"경상남도 밀양시 삼문강변로 101 (삼문동)","jibunAddr":"경상남도 밀양시 삼문동 702-3","openHours":"상시","maleToilets":5,"femaleToilets":5,"disabled":true,"diaperTable":false,"emergencyBell":true,"cctv":false,"managerTel":"0553595537","source":"public","category":"public"},{"id":"202453600000100500","name":"한솔장례식장","lat":35.50617,"lng":128.734446,"roadAddr":"경상남도 밀양시 창밀로 3528","jibunAddr":"경상남도 밀양시 내이동 184","openHours":"상시","maleToilets":16,"femaleToilets":5,"disabled":true,"diaperTable":false,"emergencyBell":false,"cctv":false,"managerTel":"0553567212","source":"public","category":"public"},{"id":"202453600000100481","name":"공설화장장화장실","lat":35.499323,"lng":128.759346,"roadAddr":"경상남도 밀양시 북성로7길 59","jibunAddr":"경상남도 밀양시 교동 476-1","openHours":"08:00~16:00","maleToilets":6,"femaleToilets":3,"disabled":true,"diaperTable":false,"emergencyBell":false,"cctv":false,"managerTel":"0553594634","source":"public","category":"public"},{"id":"202453600000100607","name":"김해세무서 밀양지서","lat":35.484697,"lng":128.757082,"roadAddr":"경상남도 밀양시 중앙로 235","jibunAddr":"경상남도 밀양시 삼문동 141-2","openHours":"09:00~18:00","maleToilets":9,"femaleToilets":12,"disabled":true,"diaperTable":false,"emergencyBell":false,"cctv":false,"managerTel":"0553590200","source":"public","category":"public"},{"id":"202653600000100006","name":"상권활성화지원센터","lat":35.493067,"lng":128.751928,"roadAddr":"경상남도 밀양시 상설시장1길 7 (내일동)","jibunAddr":"경상남도 밀양시 내일동 577-1","openHours":"09:00~18:00","maleToilets":11,"femaleToilets":5,"disabled":true,"diaperTable":false,"emergencyBell":true,"cctv":false,"source":"public","category":"public"},{"id":"202453600000100504","name":"상설시장","lat":35.493059,"lng":128.752554,"roadAddr":"경상남도 밀양시 상설시장1길 11","jibunAddr":"경상남도 밀양시 내일동 583-1","openHours":"상시","maleToilets":7,"femaleToilets":5,"disabled":true,"diaperTable":false,"emergencyBell":true,"cctv":false,"managerTel":"0553596835","source":"public","category":"public"},{"id":"202453600000100563","name":"추원재","lat":35.483873,"lng":128.718474,"roadAddr":"경상남도 밀양시 부북면 추원재길 58","jibunAddr":"경상남도 밀양시 부북면 제대리 701","openHours":"9시간","maleToilets":3,"femaleToilets":2,"disabled":false,"diaperTable":false,"emergencyBell":true,"cctv":false,"managerTel":"0553595640","source":"public","category":"public"},{"id":"202453600000100557","name":"사포농협협동조합","lat":35.473929,"lng":128.738167,"roadAddr":"경상남도 밀양시 사포로 158","jibunAddr":"경상남도 밀양시 부북면 전사포리 301-22","openHours":"09:00~18:00","maleToilets":3,"femaleToilets":2,"disabled":false,"diaperTable":false,"emergencyBell":false,"cctv":false,"managerTel":"0553551804","source":"public","category":"public"},{"id":"202453600000100608","name":"동남주유소","lat":35.485528,"lng":128.757422,"roadAddr":"경상남도 밀양시 중앙로 246","jibunAddr":"경상남도 밀양시 삼문동 170-7","openHours":"영업시간중","maleToilets":1,"femaleToilets":1,"disabled":false,"diaperTable":false,"emergencyBell":false,"cctv":false,"managerTel":"0553520036","source":"public","category":"public"},{"id":"202453600000100496","name":"부북농업협동조합주유소","lat":35.507509,"lng":128.733578,"roadAddr":"경상남도 밀양시 창밀로 3509","jibunAddr":"경상남도 밀양시 내이동 192-1","openHours":"상시","maleToilets":3,"femaleToilets":1,"disabled":false,"diaperTable":false,"emergencyBell":false,"cctv":false,"managerTel":"0553547212","source":"public","category":"public"},{"id":"202453600000100478","name":"밀양공설운동장","lat":35.506383,"lng":128.747483,"roadAddr":"경상남도 밀양시 밀양대로2057-21","jibunAddr":"경상남도 밀양시 교동 1111","openHours":"상시","maleToilets":80,"femaleToilets":50,"disabled":true,"diaperTable":false,"emergencyBell":true,"cctv":false,"managerTel":"0553594616","source":"public","category":"public"},{"id":"202453600000100622","name":"삼문동둔치주차장","lat":35.489521,"lng":128.752233,"jibunAddr":"경상남도 밀양시 삼문동 295-1","openHours":"상시","maleToilets":5,"femaleToilets":5,"disabled":true,"diaperTable":false,"emergencyBell":true,"cctv":false,"managerTel":"0553595348","source":"public","category":"public"},{"id":"202453600000100613","name":"삼문동우체국","lat":35.486494,"lng":128.75559,"roadAddr":"경상남도 밀양시 삼문중앙로3길 48","jibunAddr":"경상남도 밀양시 삼문동 180-13","openHours":"09:00~18:00","maleToilets":0,"femaleToilets":0,"disabled":false,"diaperTable":false,"emergencyBell":false,"cctv":false,"managerTel":"0553530807","source":"public","category":"public"},{"id":"202453600000100507","name":"영남루 주차장 화장실","lat":35.491982,"lng":128.754273,"jibunAddr":"경상남도 밀양시 내일동 64","openHours":"9시간","maleToilets":5,"femaleToilets":5,"disabled":true,"diaperTable":false,"emergencyBell":true,"cctv":true,"managerTel":"0553595640","source":"public","category":"public"},{"id":"202453600000100616","name":"주식회사 셀 / 삼성주유소","lat":35.481721,"lng":128.754353,"roadAddr":"경상남도 밀양시 밀양대로 1744","jibunAddr":"경상남도 밀양시 삼문동 106-4","openHours":"영업시간중","maleToilets":1,"femaleToilets":1,"disabled":false,"diaperTable":false,"emergencyBell":false,"cctv":false,"managerTel":"0553525188","source":"public","category":"public"},{"id":"202453600000100503","name":"내일재래시장","lat":35.493329,"lng":128.753018,"roadAddr":"경상남도 밀양시 상설시장3길 18-4","jibunAddr":"경상남도 밀양시 내일동 174-2","openHours":"상시","maleToilets":6,"femaleToilets":4,"disabled":true,"diaperTable":false,"emergencyBell":true,"cctv":false,"managerTel":"0553596835","source":"public","category":"public"},{"id":"202453600000100612","name":"밀양현대주유소 / sk밀양주유소","lat":35.486307,"lng":128.74923,"roadAddr":"경상남도 밀양시 밀양대로 1811","jibunAddr":"경상남도 밀양시 삼문동 358-110","openHours":"영업시간중","maleToilets":3,"femaleToilets":2,"disabled":false,"diaperTable":false,"emergencyBell":false,"cctv":false,"managerTel":"0553568051","source":"public","category":"public"},{"id":"202453600000100559","name":"동암체육공원","lat":35.473852,"lng":128.741236,"jibunAddr":"경상남도 밀양시 부북면 전사포리 339","openHours":"상시","maleToilets":2,"femaleToilets":2,"disabled":true,"diaperTable":false,"emergencyBell":true,"cctv":false,"managerTel":"0553595780","source":"public","category":"public"},{"id":"202453600000100629","name":"밀양주유소","lat":35.464455,"lng":128.756954,"roadAddr":"경상남도 밀양시 상남면 밀양대로 1481","jibunAddr":"경상남도 밀양시 상남면 예림리 1452-6","openHours":"상시","maleToilets":2,"femaleToilets":1,"disabled":false,"diaperTable":false,"emergencyBell":false,"cctv":false,"managerTel":"0553546166","source":"public","category":"public"},{"id":"202453600000100505","name":"아북산공원 이동식화장실","lat":35.497071,"lng":128.756103,"roadAddr":"경상남도 밀양시 내이중앙2길 15-30","jibunAddr":"경상남도 밀양시 내일동 431-621","openHours":"상시","maleToilets":4,"femaleToilets":2,"disabled":false,"diaperTable":false,"emergencyBell":true,"cctv":false,"managerTel":"0553595302","source":"public","category":"public"},{"id":"202453600000100486","name":"밀양시민주유소","lat":35.507284,"lng":128.757246,"roadAddr":"경상남도 밀양시 밀양대로 2168","jibunAddr":"경상남도 밀양시 교동 750","openHours":"상시","maleToilets":2,"femaleToilets":1,"disabled":false,"diaperTable":false,"emergencyBell":false,"cctv":false,"managerTel":"0553541889","source":"public","category":"public"},{"id":"202453600000100498","name":"우리주유소","lat":35.499709,"lng":128.742464,"roadAddr":"경상남도 밀양시 밀양대로 1974","jibunAddr":"경상남도 밀양시 내이동 1177-3","openHours":"상시","maleToilets":3,"femaleToilets":1,"disabled":false,"diaperTable":false,"emergencyBell":false,"cctv":false,"managerTel":"0553560700","source":"public","category":"public"},{"id":"202453600000100605","name":"S.K 밀양에너지","lat":35.478629,"lng":128.755375,"roadAddr":"경상남도 밀양시 밀양대로 1710","jibunAddr":"경상남도 밀양시 삼문동 102-24","openHours":"영업시간중","maleToilets":2,"femaleToilets":1,"disabled":false,"diaperTable":false,"emergencyBell":false,"cctv":false,"managerTel":"0553556700","source":"public","category":"public"},{"id":"202453600000100619","name":"밀양시립영어도서관 화장실","lat":35.486791,"lng":128.754853,"roadAddr":"경상남도 밀양시 중앙로 265","jibunAddr":"경상남도 밀양시 삼문동 184-11","openHours":"09:00~18:00(화~일)","maleToilets":6,"femaleToilets":10,"disabled":true,"diaperTable":false,"emergencyBell":true,"cctv":true,"managerTel":"0553596029","source":"public","category":"public"},{"id":"202453600000100506","name":"밀양관아","lat":35.494176,"lng":128.753946,"jibunAddr":"경상남도 밀양시 내일동 376-1","openHours":"9시간","maleToilets":5,"femaleToilets":3,"disabled":false,"diaperTable":false,"emergencyBell":true,"cctv":false,"managerTel":"0553595640","source":"public","category":"public"},{"id":"202453600000100501","name":"홈플러스","lat":35.488903,"lng":128.740771,"roadAddr":"경상남도 밀양시 점필재로 45","jibunAddr":"경상남도 밀양시 내이동 1403-11","openHours":"10:00~22:00","maleToilets":10,"femaleToilets":10,"disabled":true,"diaperTable":false,"emergencyBell":false,"cctv":false,"managerTel":"0553598000","source":"public","category":"public"},{"id":"202453600000100632","name":"예림주유소","lat":35.464126,"lng":128.756157,"roadAddr":"경상남도 밀양시 상남면 밀양대로 1473","jibunAddr":"경상남도 밀양시 상남면 예림리 1451","openHours":"05:00~23:00","maleToilets":3,"femaleToilets":1,"disabled":false,"diaperTable":false,"emergencyBell":false,"cctv":false,"managerTel":"0553555119","source":"public","category":"public"},{"id":"202453600000100483","name":"밀양아리랑아트센터","lat":35.504426,"lng":128.758515,"roadAddr":"경상남도 밀양시 밀양대공원로 112","jibunAddr":"경상남도 밀양시 교동 487","openHours":"09:00~18:00","maleToilets":29,"femaleToilets":53,"disabled":true,"diaperTable":true,"emergencyBell":true,"cctv":true,"managerTel":"0553594500","source":"public","category":"public"},{"id":"202453600000100624","name":"종합사회복지관","lat":35.483687,"lng":128.758951,"roadAddr":"경상남도 밀양시 중앙로 218","jibunAddr":"경상남도 밀양시 삼문동 34-13","openHours":"09:00~18:00","maleToilets":20,"femaleToilets":12,"disabled":true,"diaperTable":false,"emergencyBell":true,"cctv":false,"managerTel":"0553501000","source":"public","category":"public"},{"id":"202453600000100611","name":"밀양소방서","lat":35.482811,"lng":128.753405,"roadAddr":"경상남도 밀양시 밀양대로 1760","jibunAddr":"경상남도 밀양시 삼문동 111-50","openHours":"09:00~18:00","maleToilets":5,"femaleToilets":0,"disabled":false,"diaperTable":false,"emergencyBell":false,"cctv":false,"managerTel":"0553509215","source":"public","category":"public"},{"id":"202453600000100558","name":"해뜨는주유소","lat":35.47375,"lng":128.754668,"roadAddr":"경상남도 밀양시 밀양대로 1645","jibunAddr":"경상남도 밀양시 부북면 전사포리 4-10","openHours":"상시","maleToilets":3,"femaleToilets":2,"disabled":false,"diaperTable":false,"emergencyBell":false,"cctv":false,"managerTel":"0553552080","source":"public","category":"public"},{"id":"202453600000100499","name":"제일병원","lat":35.4962,"lng":128.748385,"roadAddr":"경상남도 밀양시 노상하4길 4","jibunAddr":"경상남도 밀양시 내이동 701-6","openHours":"09:00~21:00","maleToilets":10,"femaleToilets":8,"disabled":true,"diaperTable":false,"emergencyBell":false,"cctv":false,"managerTel":"0553527851","source":"public","category":"public"},{"id":"202453600000100487","name":"범북고개주유소","lat":35.507364,"lng":128.756413,"roadAddr":"경상남도 밀양시 밀양대로 2167","jibunAddr":"경상남도 밀양시 교동 743-5","openHours":"상시","maleToilets":2,"femaleToilets":1,"disabled":false,"diaperTable":false,"emergencyBell":false,"cctv":false,"managerTel":"0553565189","source":"public","category":"public"},{"id":"202453600000100495","name":"내이동행정복지센터","lat":35.497101,"lng":128.746183,"roadAddr":"경상남도 밀양시 중앙로 425-4","jibunAddr":"경상남도 밀양시 내이동 1193-15","openHours":"09:00~18:00","maleToilets":5,"femaleToilets":1,"disabled":true,"diaperTable":false,"emergencyBell":false,"cctv":false,"managerTel":"0553596878","source":"public","category":"public"},{"id":"202453600000100497","name":"시외버스터미널","lat":35.498458,"lng":128.743849,"roadAddr":"경상남도 밀양시 북성로 7","jibunAddr":"경상남도 밀양시 내이동 1187-1","openHours":"06:00~22:00","maleToilets":12,"femaleToilets":6,"disabled":true,"diaperTable":false,"emergencyBell":true,"cctv":false,"managerTel":"0553546107","source":"public","category":"public"},{"id":"202453600000100614","name":"삼문동행정복지센터","lat":35.481757,"lng":128.74865,"roadAddr":"경상남도 밀양시 미리벌중앙로1길 12-1","jibunAddr":"경상남도 밀양시 삼문동 721-7","openHours":"09:00~18:00","maleToilets":8,"femaleToilets":4,"disabled":false,"diaperTable":false,"emergencyBell":false,"cctv":false,"managerTel":"0553596923","source":"public","category":"public"},{"id":"202453600000100623","name":"청소년수련관","lat":35.488385,"lng":128.758107,"roadAddr":"경상남도 밀양시 삼문송림길 26","jibunAddr":"경상남도 밀양시 삼문동 4-19","openHours":"09:00~18:00","maleToilets":28,"femaleToilets":15,"disabled":true,"diaperTable":false,"emergencyBell":false,"cctv":false,"managerTel":"0553525164","source":"public","category":"public"},{"id":"202453600000100494","name":"내이동우체국","lat":35.492945,"lng":128.750808,"roadAddr":"경상남도 밀양시 약산로 53","jibunAddr":"경상남도 밀양시 내이동 908","openHours":"09:00~18:00","maleToilets":3,"femaleToilets":1,"disabled":true,"diaperTable":false,"emergencyBell":false,"cctv":false,"managerTel":"0553523650","source":"public","category":"public"},{"id":"202453600000100488","name":"삼양사","lat":35.504655,"lng":128.750435,"roadAddr":"경상남도 밀양시 밀양대로 2083-11","jibunAddr":"경상남도 밀양시 교동 964","openHours":"상시","maleToilets":6,"femaleToilets":5,"disabled":false,"diaperTable":false,"emergencyBell":false,"cctv":false,"managerTel":"0553543267","source":"public","category":"public"},{"id":"202453600000100625","name":"문화체육회관","lat":35.488419,"lng":128.757363,"roadAddr":"경상남도 밀양시 삼문송림길 25","jibunAddr":"경상남도 밀양시 삼문동 232-2","openHours":"개방시만","maleToilets":22,"femaleToilets":13,"disabled":true,"diaperTable":false,"emergencyBell":true,"cctv":false,"managerTel":"0553594616","source":"public","category":"public"},{"id":"202553600000100001","name":"교동지놀이공원 화장실","lat":35.507525,"lng":128.751631,"roadAddr":"경상남도 밀양시 교동로 48 (교동)","jibunAddr":"경상남도 밀양시 교동 1090-4","openHours":"상시","maleToilets":1,"femaleToilets":1,"disabled":true,"diaperTable":false,"emergencyBell":true,"cctv":false,"managerTel":"0553596893","source":"public","category":"public"},{"id":"202453600000100604","name":"JK웨딩컨벤션","lat":35.482415,"lng":128.752554,"roadAddr":"경상남도 밀양시 밀양대로 1757","jibunAddr":"경상남도 밀양시 삼문동 551-1","openHours":"영업시간중","maleToilets":36,"femaleToilets":24,"disabled":false,"diaperTable":false,"emergencyBell":false,"cctv":false,"managerTel":"0553526789","source":"public","category":"public"},{"id":"202453600000100491","name":"평화주유소","lat":35.503526,"lng":128.75356,"roadAddr":"경상남도 밀양시 밀양대로 2108","jibunAddr":"경상남도 밀양시 교동 874-26","openHours":"상시","maleToilets":3,"femaleToilets":1,"disabled":false,"diaperTable":false,"emergencyBell":false,"cctv":false,"managerTel":"0553542456","source":"public","category":"public"},{"id":"202453600000100562","name":"예림서원","lat":35.466313,"lng":128.730398,"jibunAddr":"경상남도 밀양시 부북면 후사포리 169","openHours":"9시간","maleToilets":5,"femaleToilets":1,"disabled":true,"diaperTable":false,"emergencyBell":true,"cctv":true,"managerTel":"0553595640","source":"public","category":"public"},{"id":"202453600000100620","name":"밀양시보건소","lat":35.48567,"lng":128.756061,"roadAddr":"경상남도 밀양시 삼문중앙로 41","jibunAddr":"경상남도 밀양시 삼문동 159-1","openHours":"09:00~18:00","maleToilets":32,"femaleToilets":15,"disabled":true,"diaperTable":true,"emergencyBell":true,"cctv":true,"managerTel":"0553597008","source":"public","category":"public"},{"id":"202453600000100508","name":"영남루화장실","lat":35.491545,"lng":128.755608,"roadAddr":"경상남도 밀양시 중앙로 324","jibunAddr":"경상남도 밀양시 내일동 40","openHours":"9시간","maleToilets":5,"femaleToilets":3,"disabled":false,"diaperTable":true,"emergencyBell":true,"cctv":true,"managerTel":"0553595640","source":"public","category":"public"},{"id":"202453600000100617","name":"청구상가","lat":35.485636,"lng":128.757943,"roadAddr":"경상남도 밀양시 중앙로 238-12","jibunAddr":"경상남도 밀양시 삼문동 15-26","openHours":"상시","maleToilets":12,"femaleToilets":6,"disabled":false,"diaperTable":false,"emergencyBell":false,"cctv":false,"managerTel":"0553566811","source":"public","category":"public"},{"id":"202453600000100609","name":"밀양병원","lat":35.487193,"lng":128.748832,"roadAddr":"경상남도 밀양시 밀양대로 1823","jibunAddr":"경상남도 밀양시 삼문동 368-22","openHours":"영업시간중","maleToilets":24,"femaleToilets":12,"disabled":true,"diaperTable":false,"emergencyBell":true,"cctv":false,"managerTel":"0553513993","source":"public","category":"public"},{"id":"202453600000100615","name":"운동장시범화장실","lat":35.487073,"lng":128.759024,"jibunAddr":"경상남도 밀양시 삼문동 15-21","openHours":"09:00~21:00","maleToilets":12,"femaleToilets":7,"disabled":true,"diaperTable":true,"emergencyBell":true,"cctv":false,"managerTel":"0553596923","source":"public","category":"public"},{"id":"202453600000100502","name":"내일동행정복지센터","lat":35.493705,"lng":128.754246,"roadAddr":"경상남도 밀양시 중앙로 346","jibunAddr":"경상남도 밀양시 내일동 268-1","openHours":"09:00~18:00","maleToilets":5,"femaleToilets":2,"disabled":false,"diaperTable":false,"emergencyBell":false,"cctv":false,"managerTel":"0553596835","source":"public","category":"public"},{"id":"202453600000100485","name":"밀양성당","lat":35.50146,"lng":128.758903,"roadAddr":"경상남도 밀양시 밀양대공원로 74","jibunAddr":"경상남도 밀양시 교동 911-7","openHours":"상시","maleToilets":22,"femaleToilets":15,"disabled":true,"diaperTable":false,"emergencyBell":false,"cctv":false,"managerTel":"0553564000","source":"public","category":"public"},{"id":"202453600000100618","name":"밀양시립도서관 화장실","lat":35.486791,"lng":128.754853,"roadAddr":"경상남도 밀양시 중앙로 265","jibunAddr":"경상남도 밀양시 삼문동 184-11","openHours":"08:00~22:00(화~일), 09:00~18:00(월)","maleToilets":34,"femaleToilets":24,"disabled":false,"diaperTable":true,"emergencyBell":true,"cctv":true,"managerTel":"0553596029","source":"public","category":"public"},{"id":"202453600000100477","name":"밀양시립박물관 화장실","lat":35.502965,"lng":128.759364,"roadAddr":"경상남도 밀양시 밀양대공원로 100","jibunAddr":"경상남도 밀양시 교동 480","openHours":"09:00~18:00","maleToilets":6,"femaleToilets":6,"disabled":true,"diaperTable":true,"emergencyBell":true,"cctv":true,"managerTel":"0553596060","source":"public","category":"public"},{"id":"202453600000100648","name":"동문고개주차장 화장실","lat":35.495182,"lng":128.757652,"roadAddr":"경상남도 밀양시 용평로 37","jibunAddr":"경상남도 밀양시 용평동 436-1","openHours":"9시간","maleToilets":3,"femaleToilets":3,"disabled":true,"diaperTable":false,"emergencyBell":true,"cctv":true,"managerTel":"0553595640","source":"public","category":"public"},{"id":"202453600000100626","name":"삼문파크골프장","lat":35.480352,"lng":128.742759,"roadAddr":"경상남도 밀양시 삼문동 643","jibunAddr":"경상남도 밀양시 삼문동 643","openHours":"상시","maleToilets":13,"femaleToilets":7,"disabled":true,"diaperTable":false,"emergencyBell":true,"cctv":true,"managerTel":"0553594616","source":"public","category":"public"},{"id":"202453600000100474","name":"밀양시청","lat":35.503448,"lng":128.747419,"roadAddr":"경상남도 밀양시 밀양대로 2047","jibunAddr":"경상남도 밀양시 교동 1000-1","openHours":"상시","maleToilets":127,"femaleToilets":61,"disabled":true,"diaperTable":true,"emergencyBell":false,"cctv":false,"managerTel":"0553595443","source":"public","category":"public"},{"id":"202453600000100606","name":"강변주유소","lat":35.479613,"lng":128.754904,"roadAddr":"경상남도 밀양시 밀양대로 1719","jibunAddr":"경상남도 밀양시 삼문동 100","openHours":"영업시간중","maleToilets":3,"femaleToilets":1,"disabled":false,"diaperTable":false,"emergencyBell":false,"cctv":false,"managerTel":"0553535152","source":"public","category":"public"},{"id":"202453600000100493","name":"경민주유소","lat":35.49329,"lng":128.744667,"roadAddr":"경상남도 밀양시 밀양대로 1900","jibunAddr":"경상남도 밀양시 내이동 1052-1","openHours":"상시","maleToilets":2,"femaleToilets":1,"disabled":true,"diaperTable":false,"emergencyBell":false,"cctv":false,"managerTel":"0553531339","source":"public","category":"public"}]