[{"id":"202453600000100662","name":"남밀양농협주유소","lat":35.42199,"lng":128.672255,"roadAddr":"경상남도 밀양시 초동면 초동로 103","jibunAddr":"경상남도 밀양시 초동면 오방리 61","openHours":"상시","maleToilets":4,"femaleToilets":1,"disabled":false,"diaperTable":false,"emergencyBell":false,"cctv":false,"managerTel":"0553914040","source":"public","category":"public"},{"id":"202453600000100666","name":"초동면행정복지센터","lat":35.421725,"lng":128.67305,"roadAddr":"경상남도 밀양시 초동면 초동로 111","jibunAddr":"경상남도 밀양시 초동면 오방리 53","openHours":"정시","maleToilets":4,"femaleToilets":1,"disabled":true,"diaperTable":false,"emergencyBell":false,"cctv":false,"managerTel":"0553596743","source":"public","category":"public"},{"id":"202453600000100663","name":"초동치안센터","lat":35.421102,"lng":128.673475,"roadAddr":"경상남도 밀양시 초동면 초동로 115","jibunAddr":"경상남도 밀양시 초동면 오방리 49","openHours":"정시","maleToilets":2,"femaleToilets":1,"disabled":false,"diaperTable":false,"emergencyBell":false,"cctv":false,"managerTel":"0553917113","source":"public","category":"public"},{"id":"202453600000100658","name":"봉황보건진료소","lat":35.453754,"lng":128.692694,"roadAddr":"경상남도 밀양시 초동면 봉황중앙길 10-3","jibunAddr":"경상남도 밀양시 초동면 봉황리 629-2","openHours":"정시","maleToilets":0,"femaleToilets":0,"disabled":false,"diaperTable":false,"emergencyBell":false,"cctv":false,"managerTel":"0553596190","source":"public","category":"public"},{"id":"202453600000100661","name":"남밀양농협","lat":35.421204,"lng":128.672384,"roadAddr":"경상남도 밀양시 초동면 초동로 112","jibunAddr":"경상남도 밀양시 초동면 범평리 487","openHours":"정시","maleToilets":10,"femaleToilets":2,"disabled":true,"diaperTable":true,"emergencyBell":false,"cctv":false,"managerTel":"0553914113","source":"public","category":"public"}]