[{"id":"202453600000100684","name":"제일주유소","lat":35.370215,"lng":128.729971,"roadAddr":"경상남도 밀양시 하남읍 명례로 72","jibunAddr":"경상남도 밀양시 하남읍 수산리 67-9","openHours":"정시","maleToilets":2,"femaleToilets":1,"disabled":false,"diaperTable":false,"emergencyBell":false,"cctv":false,"managerTel":"0553917777","source":"public","category":"public"},{"id":"202653600000100005","name":"하남파크골프장","lat":35.369078,"lng":128.719404,"roadAddr":"경상남도 밀양시 하남읍 명품십리길 34, 하남파크골프장","jibunAddr":"경상남도 밀양시 하남읍 수산리 418-5 하남파크골프장 주차장","openHours":"상시","maleToilets":4,"femaleToilets":4,"disabled":true,"diaperTable":false,"emergencyBell":true,"cctv":false,"source":"public","category":"public"},{"id":"202453600000100677","name":"대평마을회관","lat":35.36576,"lng":128.729392,"roadAddr":"경상남도 밀양시 하남읍 대평3길 4","jibunAddr":"경상남도 밀양시 하남읍 수산리 343-3","openHours":"정시","maleToilets":1,"femaleToilets":1,"disabled":false,"diaperTable":false,"emergencyBell":false,"cctv":false,"managerTel":"0553911116","source":"public","category":"public"},{"id":"202453600000100685","name":"하남119안전센터","lat":35.368426,"lng":128.733158,"roadAddr":"경상남도 밀양시 하남읍 명례로 108","jibunAddr":"경상남도 밀양시 하남읍 수산리 63-21","openHours":"정시","maleToilets":4,"femaleToilets":0,"disabled":false,"diaperTable":false,"emergencyBell":false,"cctv":false,"managerTel":"0553912119","source":"public","category":"public"},{"id":"202453600000100692","name":"밀양아리랑오토캠핑장","lat":35.351232,"lng":128.75693,"jibunAddr":"경상남도 밀양시 하남읍 백산리 474-32","openHours":"상시","maleToilets":19,"femaleToilets":11,"disabled":true,"diaperTable":false,"emergencyBell":true,"cctv":false,"managerTel":"0553594616","source":"public","category":"public"},{"id":"202453600000100671","name":"백산보건진료소","lat":35.367638,"lng":128.749108,"roadAddr":"경상남도 밀양시 하남읍 백산3길 9","jibunAddr":"경상남도 밀양시 하남읍 백산리 1312","openHours":"정시","maleToilets":0,"femaleToilets":0,"disabled":true,"diaperTable":false,"emergencyBell":true,"cctv":true,"managerTel":"0553596174","source":"public","category":"public"},{"id":"202456700000100004","name":"대산문화체육공원(플라워랜드)","lat":35.355186,"lng":128.717205,"jibunAddr":"경상남도 창원시 의창구 대산면 모산리 5-1","openHours":"상시","maleToilets":5,"femaleToilets":5,"disabled":true,"diaperTable":false,"emergencyBell":true,"cctv":false,"managerTel":"0552254664","source":"public","category":"public"},{"id":"202456700000100003","name":"대산문화체육공원(야구장)","lat":35.351395,"lng":128.722044,"jibunAddr":"경상남도 창원시 의창구 대산면 북부리 197-2","openHours":"상시","maleToilets":5,"femaleToilets":5,"disabled":true,"diaperTable":false,"emergencyBell":false,"cctv":false,"managerTel":"0552254664","source":"public","category":"public"}]