[{"id":"202453600000100631","name":"상남주유소","lat":35.404484,"lng":128.755217,"roadAddr":"경상남도 밀양시 상남면 하남로 437","jibunAddr":"경상남도 밀양시 상남면 조음리 44-1","openHours":"상시","maleToilets":3,"femaleToilets":2,"disabled":false,"diaperTable":false,"emergencyBell":false,"cctv":false,"managerTel":"0553537782","source":"public","category":"public"},{"id":"202453600000100678","name":"도야주유소","lat":35.384506,"lng":128.733194,"roadAddr":"경상남도 밀양시 하남읍 하남로 65","jibunAddr":"경상남도 밀양시 하남읍 양동리 360-10","openHours":"정시","maleToilets":3,"femaleToilets":1,"disabled":false,"diaperTable":false,"emergencyBell":false,"cctv":false,"managerTel":"0553912001","source":"public","category":"public"},{"id":"202453600000100674","name":"수산역사공원","lat":35.381983,"lng":128.717088,"jibunAddr":"경상남도 밀양시 하남읍 양동리 671","openHours":"상시","maleToilets":1,"femaleToilets":2,"disabled":true,"diaperTable":false,"emergencyBell":true,"cctv":true,"managerTel":"0553595863","source":"public","category":"public"},{"id":"202453600000100681","name":"부경에너지주유소","lat":35.399591,"lng":128.750945,"roadAddr":"경상남도 밀양시 하남읍 밀양대로 630","jibunAddr":"경상남도 밀양시 하남읍 파서리 98-7","openHours":"정시","maleToilets":3,"femaleToilets":2,"disabled":false,"diaperTable":false,"emergencyBell":false,"cctv":false,"managerTel":"0553915001","source":"public","category":"public"},{"id":"202453600000100670","name":"남전보건진료소","lat":35.412684,"lng":128.726197,"roadAddr":"경상남도 밀양시 하남읍 남전6길 26-6","jibunAddr":"경상남도 밀양시 하남읍 남전리 252-1","openHours":"정시","maleToilets":0,"femaleToilets":0,"disabled":false,"diaperTable":false,"emergencyBell":true,"cctv":true,"managerTel":"0553596176","source":"public","category":"public"},{"id":"202453600000100673","name":"수산역사공원홍보관","lat":35.381983,"lng":128.717088,"jibunAddr":"경상남도 밀양시 하남읍 양동리 671","openHours":"상시","maleToilets":1,"femaleToilets":2,"disabled":true,"diaperTable":false,"emergencyBell":true,"cctv":true,"source":"public","category":"public"}]