[{"id":"202632900000100006","name":"부산콘서트홀 2층 관객화장실2","lat":35.169373,"lng":129.054253,"roadAddr":"부산광역시 부산진구 동평로 250 (연지동)","jibunAddr":"부산광역시 부산진구 연지동 60","openHours":"10:00-19:00","maleToilets":4,"femaleToilets":4,"disabled":true,"diaperTable":false,"emergencyBell":true,"cctv":true,"source":"public","category":"public"},{"id":"202632900000100001","name":"부산콘서트홀 지하1층 관객 화장실1","lat":35.169373,"lng":129.054253,"roadAddr":"부산광역시 부산진구 동평로 250 (연지동)","jibunAddr":"부산광역시 부산진구 연지동 60","openHours":"10:00-19:00","maleToilets":4,"femaleToilets":12,"disabled":true,"diaperTable":false,"emergencyBell":true,"cctv":true,"source":"public","category":"public"},{"id":"202632900000100004","name":"부산콘서트홀 1층 관객화장실2","lat":35.169373,"lng":129.054253,"roadAddr":"부산광역시 부산진구 동평로 250 (연지동)","jibunAddr":"부산광역시 부산진구 연지동 60","openHours":"10:00-19:00","maleToilets":5,"femaleToilets":12,"disabled":true,"diaperTable":false,"emergencyBell":true,"cctv":true,"source":"public","category":"public"},{"id":"202632900000100008","name":"밭개마을센터","lat":35.162004,"lng":129.067306,"roadAddr":"부산광역시 부산진구 동성로112번길 47 (전포동)","jibunAddr":"부산광역시 부산진구 전포동 176-21","openHours":"10:00-19:00","maleToilets":3,"femaleToilets":2,"disabled":true,"diaperTable":false,"emergencyBell":false,"cctv":false,"source":"public","category":"public"},{"id":"202432900000101218","name":"부전지구대","lat":35.163848,"lng":129.061079,"roadAddr":"부산광역시 부산진구 부전로 185","openHours":"상시","maleToilets":3,"femaleToilets":1,"disabled":true,"diaperTable":false,"emergencyBell":false,"cctv":false,"source":"public","category":"public"},{"id":"202432900000101100","name":"부산시설공단 본사 3층","lat":35.171648,"lng":129.049962,"roadAddr":"부산광역시 부산진구 새싹로174(연지동)","jibunAddr":"부산광역시 부산진구 연지동 340-4","openHours":"09:00-18:00","maleToilets":4,"femaleToilets":2,"disabled":false,"diaperTable":false,"emergencyBell":false,"cctv":false,"source":"public","category":"public"},{"id":"202632900000100003","name":"부산콘서트홀 1층 관객화장실1","lat":35.169373,"lng":129.054253,"roadAddr":"부산광역시 부산진구 동평로 250 (연지동)","jibunAddr":"부산광역시 부산진구 연지동 60","openHours":"10:00-19:00","maleToilets":2,"femaleToilets":17,"disabled":true,"diaperTable":true,"emergencyBell":true,"cctv":true,"source":"public","category":"public"},{"id":"202632900000100007","name":"성지종합사회복지관","lat":35.177319,"lng":129.049262,"roadAddr":"부산광역시 부산진구 성지로153번길 101 (초읍동)","jibunAddr":"부산광역시 부산진구 초읍동 산 70-1","openHours":"06:00-18:00","maleToilets":6,"femaleToilets":6,"disabled":true,"diaperTable":false,"emergencyBell":true,"cctv":false,"source":"public","category":"public"},{"id":"202632900000100002","name":"부산콘서트홀 지하1층 관객화장실2","lat":35.169373,"lng":129.054253,"roadAddr":"부산광역시 부산진구 동평로 250 (연지동)","jibunAddr":"부산광역시 부산진구 연지동 60","openHours":"10:00-19:00","maleToilets":5,"femaleToilets":7,"disabled":true,"diaperTable":false,"emergencyBell":true,"cctv":true,"source":"public","category":"public"},{"id":"202432900000101111","name":"어린이대공원 제8호","lat":35.185876,"lng":129.042012,"roadAddr":"부산광역시 부산진구 초읍동 43","jibunAddr":"부산광역시 부산진구 새싹로 295","openHours":"상시","maleToilets":7,"femaleToilets":5,"disabled":false,"diaperTable":false,"emergencyBell":false,"cctv":false,"source":"public","category":"public"},{"id":"202432900000101123","name":"부산시민공원방문자센터 1층","lat":35.165543,"lng":129.05584,"roadAddr":"부산광역시 부산진구 시민공원로 73","jibunAddr":"부산광역시 부산진구 범전동200","openHours":"05:00-24:00","maleToilets":6,"femaleToilets":6,"disabled":true,"diaperTable":true,"emergencyBell":true,"cctv":false,"source":"public","category":"public"},{"id":"202432900000101131","name":"부산시민공원 시민사랑채","lat":35.165543,"lng":129.05584,"roadAddr":"부산광역시 부산진구 시민공원로 73","jibunAddr":"부산광역시 부산진구 범전동100","openHours":"05:00~24:00","maleToilets":5,"femaleToilets":4,"disabled":true,"diaperTable":false,"emergencyBell":false,"cctv":false,"source":"public","category":"public"},{"id":"202432900000101115","name":"어린이대공원 제12호","lat":35.185876,"lng":129.042012,"roadAddr":"부산광역시 부산진구 초읍동 43산 98-1","jibunAddr":"부산광역시 부산진구 새싹로 295","openHours":"상시","maleToilets":3,"femaleToilets":2,"disabled":true,"diaperTable":false,"emergencyBell":false,"cctv":false,"source":"public","category":"public"},{"id":"202432900000101333","name":"영광도서","lat":35.158824,"lng":129.057614,"roadAddr":"부산광역시 부산진구 서면문화로 10, 영광도서 (부전동)","openHours":"12시간","maleToilets":5,"femaleToilets":5,"disabled":false,"diaperTable":false,"emergencyBell":false,"cctv":false,"source":"public","category":"public"},{"id":"202432900000101013","name":"연지오토셀프주유소","lat":35.170561,"lng":129.053319,"roadAddr":"부산광역시 부산진구 동평로 239, 연지오토셀프주유소 (연지동)","openHours":"18시간","maleToilets":2,"femaleToilets":1,"disabled":false,"diaperTable":false,"emergencyBell":false,"cctv":false,"source":"public","category":"public"},{"id":"202432900000101343","name":"백양가족공원","lat":35.173029,"lng":129.028749,"jibunAddr":"부산광역시 부산진구 당감동 794-2","openHours":"상시","maleToilets":2,"femaleToilets":3,"disabled":true,"diaperTable":true,"emergencyBell":true,"cctv":false,"managerTel":"0516056315","source":"public","category":"public"},{"id":"202432900000101103","name":"개금쉼터 4,5층","lat":35.158257,"lng":129.027262,"roadAddr":"부산광역시 부산진구 백양대로210","jibunAddr":"부산광역시 부산진구 개금3동 58-2번지","openHours":"상시","maleToilets":2,"femaleToilets":1,"disabled":false,"diaperTable":false,"emergencyBell":false,"cctv":false,"source":"public","category":"public"},{"id":"202432900000101114","name":"어린이대공원 제11호","lat":35.185876,"lng":129.042012,"roadAddr":"부산광역시 부산진구 초읍동 43","jibunAddr":"부산광역시 부산진구 새싹로 295","openHours":"상시","maleToilets":6,"femaleToilets":5,"disabled":false,"diaperTable":false,"emergencyBell":false,"cctv":false,"source":"public","category":"public"},{"id":"202432900000101337","name":"서면전자랜드","lat":35.157482,"lng":129.060191,"roadAddr":"부산광역시 부산진구 서전로 4  (부전동)","openHours":"12시간","maleToilets":2,"femaleToilets":1,"disabled":false,"diaperTable":false,"emergencyBell":false,"cctv":false,"source":"public","category":"public"},{"id":"202432900000101101","name":"부산시설공단 본사 4층","lat":35.171648,"lng":129.049962,"roadAddr":"부산광역시 부산진구 새싹로174(연지동)","jibunAddr":"부산광역시 부산진구 연지동 340-4","openHours":"09:00-18:00","maleToilets":4,"femaleToilets":2,"disabled":false,"diaperTable":false,"emergencyBell":false,"cctv":false,"source":"public","category":"public"},{"id":"202432900000101085","name":"전포2치안센터","lat":35.161387,"lng":129.065615,"roadAddr":"부산광역시 부산진구 전포대로276번길 1, 전포2치안센터 (전포동)","openHours":"24시간","maleToilets":2,"femaleToilets":0,"disabled":false,"diaperTable":false,"emergencyBell":false,"cctv":false,"managerTel":"0518167013","source":"public","category":"public"},{"id":"202432900000101212","name":"부산부암동우체국","lat":35.16896,"lng":129.050711,"roadAddr":"부산광역시 부산진구 동평로 211","openHours":"09:00~18:00","maleToilets":2,"femaleToilets":1,"disabled":false,"diaperTable":false,"emergencyBell":false,"cctv":false,"managerTel":"0518030580","source":"public","category":"public"},{"id":"202432900000101116","name":"중부지하도상가 부전몰A","lat":35.160233,"lng":129.061105,"roadAddr":"부산광역시 부산진구 중앙대로 지하737","jibunAddr":"부산광역시 부산진구 부전동 573-1","openHours":"05:00-23:00","maleToilets":8,"femaleToilets":8,"disabled":false,"diaperTable":false,"emergencyBell":true,"cctv":true,"source":"public","category":"public"},{"id":"202432900000101108","name":"어린이대공원 제5호","lat":35.185876,"lng":129.042012,"roadAddr":"부산광역시 부산진구 초읍동 43","jibunAddr":"부산광역시 부산진구 새싹로 295","openHours":"상시","maleToilets":7,"femaleToilets":3,"disabled":true,"diaperTable":false,"emergencyBell":true,"cctv":false,"source":"public","category":"public"},{"id":"202432900000101319","name":"하나은행(서면역지점)","lat":35.159024,"lng":129.059736,"roadAddr":"부산광역시 부산진구 중앙대로 743, 하나은행 서면역지점 (부전동)","openHours":"6시간","maleToilets":5,"femaleToilets":2,"disabled":false,"diaperTable":false,"emergencyBell":false,"cctv":false,"source":"public","category":"public"},{"id":"202432900000101019","name":"대양주유소","lat":35.162821,"lng":129.054556,"roadAddr":"부산광역시 부산진구 새싹로 61-1, 대양주유소 (부암동)","openHours":"18시간","maleToilets":3,"femaleToilets":2,"disabled":false,"diaperTable":false,"emergencyBell":false,"cctv":false,"source":"public","category":"public"},{"id":"202632900000100011","name":"부산진구 어린이청소년도서관","lat":35.169016,"lng":129.039653,"roadAddr":"부산광역시 부산진구 백양순환로110번길 25, 부암3동 주민센터 (부암동)","jibunAddr":"부산광역시 부산진구 부암동 441-7 부암3동 주민센터","openHours":"화~금: 09:00-20:00","maleToilets":8,"femaleToilets":9,"disabled":true,"diaperTable":true,"emergencyBell":false,"cctv":false,"source":"public","category":"public"},{"id":"202432900000101143","name":"개금종합사회복지관","lat":35.164128,"lng":129.024995,"roadAddr":"부산광역시 부산진구 백양관문로77번길 140, 개금종합사회복지관 (개금동)","openHours":"09:00-18:00","maleToilets":9,"femaleToilets":9,"disabled":true,"diaperTable":true,"emergencyBell":true,"cctv":false,"source":"public","category":"public"},{"id":"202432900000101065","name":"부전1동주민센터 5층","lat":35.163513,"lng":129.063002,"roadAddr":"부산광역시 부산진구 범전로5번길 13","jibunAddr":"부산광역시 부산진구 부전동 25-1","openHours":"09:00-18:00","maleToilets":3,"femaleToilets":5,"disabled":true,"diaperTable":false,"emergencyBell":false,"cctv":true,"source":"public","category":"public"},{"id":"202432900000101014","name":"성지주유소","lat":35.171655,"lng":129.058219,"roadAddr":"부산광역시 부산진구 동평로 289, 성지주유소 (연지동)","openHours":"18시간","maleToilets":2,"femaleToilets":1,"disabled":false,"diaperTable":false,"emergencyBell":false,"cctv":false,"source":"public","category":"public"},{"id":"202432900000101022","name":"진성3주유소","lat":35.162042,"lng":129.040769,"roadAddr":"부산광역시 부산진구 백양대로 78 (당감동)","jibunAddr":"부산광역시 부산진구 당감동 219-3","openHours":"18시간","maleToilets":2,"femaleToilets":1,"disabled":false,"diaperTable":false,"emergencyBell":false,"cctv":false,"source":"public","category":"public"},{"id":"202432900000101318","name":"기업은행(부전동지점)","lat":35.158547,"lng":129.05934,"roadAddr":"부산광역시 부산진구 중앙대로 735, 기업은행 부전동지점 (부전동)","openHours":"6시간","maleToilets":4,"femaleToilets":2,"disabled":false,"diaperTable":false,"emergencyBell":false,"cctv":false,"source":"public","category":"public"},{"id":"202432900000101076","name":"당감1치안센터","lat":35.162745,"lng":129.044141,"roadAddr":"부산광역시 부산진구 백양대로 50, 당감1치안센터 (당감동)","openHours":"상시","maleToilets":0,"femaleToilets":0,"disabled":false,"diaperTable":false,"emergencyBell":false,"cctv":false,"source":"public","category":"public"},{"id":"202432900000101060","name":"부암3동주민센터","lat":35.169016,"lng":129.039653,"roadAddr":"부산광역시 부산진구 백양순환로110번길 25, 부암3동주민센터 (부암동)","openHours":"09:00-18:00","maleToilets":7,"femaleToilets":3,"disabled":true,"diaperTable":true,"emergencyBell":true,"cctv":false,"source":"public","category":"public"},{"id":"202432900000101106","name":"어린이대공원 제3호","lat":35.185876,"lng":129.042012,"roadAddr":"부산광역시 부산진구 초읍동 43","jibunAddr":"부산광역시 부산진구 새싹로 295","openHours":"상시","maleToilets":9,"femaleToilets":4,"disabled":false,"diaperTable":false,"emergencyBell":false,"cctv":false,"source":"public","category":"public"},{"id":"202432900000101341","name":"이마트트레이더스 서면점","lat":35.163904,"lng":129.052551,"roadAddr":"부산광역시 부산진구 시민공원로 31, 이마트트레이더스 서면점 (부암동)","openHours":"13시간","maleToilets":6,"femaleToilets":6,"disabled":true,"diaperTable":false,"emergencyBell":false,"cctv":false,"source":"public","category":"public"},{"id":"202432900000101102","name":"부산시설공단 본사 5층","lat":35.171648,"lng":129.049962,"roadAddr":"부산광역시 부산진구 새싹로174(연지동)","jibunAddr":"부산광역시 부산진구 연지동 340-4","openHours":"09:00-18:00","maleToilets":4,"femaleToilets":2,"disabled":false,"diaperTable":false,"emergencyBell":false,"cctv":false,"source":"public","category":"public"},{"id":"202432900000101127","name":"부산시민공원 문화예술촌","lat":35.165543,"lng":129.05584,"roadAddr":"부산광역시 부산진구 시민공원로 73","jibunAddr":"부산광역시 부산진구 범번동 374","openHours":"05:00-24:00","maleToilets":10,"femaleToilets":15,"disabled":true,"diaperTable":true,"emergencyBell":true,"cctv":false,"source":"public","category":"public"},{"id":"202432900000101330","name":"삼정기업빌딩","lat":35.161622,"lng":129.061378,"roadAddr":"부산광역시 부산진구 중앙대로775번길 5, 삼정기업빌딩 (부전동)","openHours":"12시간","maleToilets":8,"femaleToilets":8,"disabled":false,"diaperTable":false,"emergencyBell":false,"cctv":false,"source":"public","category":"public"},{"id":"202432900000101057","name":"부산진구청","lat":35.162831,"lng":129.053188,"roadAddr":"부산광역시 부산진구 시민공원로 30","jibunAddr":"부산광역시 부산진구 부암동 666-16","openHours":"09:00-18:00","maleToilets":74,"femaleToilets":55,"disabled":true,"diaperTable":true,"emergencyBell":true,"cctv":false,"source":"public","category":"public"},{"id":"202432900000101221","name":"성지지구대","lat":35.179012,"lng":129.051664,"roadAddr":"부산광역시 부산진구 성지로 113번길 27","openHours":"상시","maleToilets":3,"femaleToilets":1,"disabled":true,"diaperTable":false,"emergencyBell":false,"cctv":false,"source":"public","category":"public"},{"id":"202432900000101086","name":"당감119안전센터","lat":35.171689,"lng":129.028526,"roadAddr":"부산광역시 부산진구 백양산로53번길 65, 당감119안전센터 (당감동)","openHours":"상시","maleToilets":2,"femaleToilets":2,"disabled":false,"diaperTable":false,"emergencyBell":false,"cctv":false,"source":"public","category":"public"},{"id":"202432900000101223","name":"부암지구대","lat":35.167187,"lng":129.050135,"roadAddr":"부산광역시 부산진구 신천대로 283","openHours":"24시간","maleToilets":1,"femaleToilets":0,"disabled":false,"diaperTable":false,"emergencyBell":false,"cctv":false,"managerTel":"0518092278","source":"public","category":"public"},{"id":"202432900000101063","name":"부전1동주민센터 3층","lat":35.163513,"lng":129.063002,"roadAddr":"부산광역시 부산진구 범전로5번길 13","jibunAddr":"부산광역시 부산진구 부전동 25-1","openHours":"09:00-18:00","maleToilets":2,"femaleToilets":3,"disabled":true,"diaperTable":false,"emergencyBell":false,"cctv":true,"source":"public","category":"public"},{"id":"202432900000101129","name":"부산시민공원 뽀로로도서관","lat":35.165543,"lng":129.05584,"roadAddr":"부산광역시 부산진구 시민공원로 73","jibunAddr":"부산광역시 부산진구 범전동200","openHours":"05:00-24:00","maleToilets":3,"femaleToilets":4,"disabled":false,"diaperTable":true,"emergencyBell":true,"cctv":false,"source":"public","category":"public"},{"id":"202432900000101026","name":"주공에너지주유소","lat":35.15724,"lng":129.02542,"roadAddr":"부산광역시 부산진구 백양대로 231 (개금동)","jibunAddr":"부산광역시 부산진구 개금동 59-3","openHours":"18시간","maleToilets":2,"femaleToilets":1,"disabled":false,"diaperTable":false,"emergencyBell":false,"cctv":false,"source":"public","category":"public"},{"id":"202432900000101051","name":"당감2동주민센터","lat":35.157894,"lng":129.047889,"roadAddr":"부산광역시 부산진구 가야대로703번길 13, 당감2동주민센터 (당감동)","openHours":"09:00-18:00","maleToilets":9,"femaleToilets":5,"disabled":true,"diaperTable":false,"emergencyBell":false,"cctv":false,"source":"public","category":"public"},{"id":"202432900000101062","name":"부전1동주민센터 2층","lat":35.163513,"lng":129.063002,"roadAddr":"부산광역시 부산진구 범전로5번길 13","jibunAddr":"부산광역시 부산진구 부전동 25-1","openHours":"09:00-18:00","maleToilets":2,"femaleToilets":3,"disabled":true,"diaperTable":false,"emergencyBell":false,"cctv":true,"managerTel":"0516056502","source":"public","category":"public"},{"id":"202432900000101314","name":"신한은행(부산서면지점)","lat":35.158725,"lng":129.058738,"roadAddr":"부산광역시 부산진구 새싹로 6, 신한은행 부산서면지점 (부전동)","openHours":"6시간","maleToilets":4,"femaleToilets":2,"disabled":false,"diaperTable":false,"emergencyBell":false,"cctv":false,"source":"public","category":"public"},{"id":"202432900000101309","name":"ABC메디칼센터","lat":35.157994,"lng":129.055777,"roadAddr":"부산광역시 부산진구 가야대로 769, ABC메디칼센터 (부전동)","openHours":"24시간","maleToilets":2,"femaleToilets":2,"disabled":false,"diaperTable":false,"emergencyBell":false,"cctv":false,"source":"public","category":"public"},{"id":"202432900000101301","name":"부산광역시교육청","lat":35.176048,"lng":129.06394,"roadAddr":"부산광역시 부산진구 화지로 12 (양정동)","openHours":"9시간","maleToilets":6,"femaleToilets":3,"disabled":true,"diaperTable":false,"emergencyBell":false,"cctv":false,"source":"public","category":"public"},{"id":"202432900000101081","name":"부암3치안센터","lat":35.170276,"lng":129.04059,"roadAddr":"부산광역시 부산진구 백양순환로119번길 12-5, 부암3치안센터 (부암동)","openHours":"24시간","maleToilets":2,"femaleToilets":0,"disabled":false,"diaperTable":false,"emergencyBell":false,"cctv":false,"managerTel":"0518053844","source":"public","category":"public"},{"id":"202432900000101215","name":"부산당감4동우체국","lat":35.171515,"lng":129.028296,"roadAddr":"부산광역시 부산진구 백양산로 53번길 71","openHours":"(평일)09:00-12:00+(평일)13:00-18:00","maleToilets":2,"femaleToilets":1,"disabled":true,"diaperTable":false,"emergencyBell":false,"cctv":false,"source":"public","category":"public"},{"id":"202432900000101090","name":"지하철 서면역","lat":35.157764,"lng":129.059036,"roadAddr":"부산광역시 부산진구 중앙대로 지하 730","jibunAddr":"부산광역시 부산진구 부전동 573-1","openHours":"05:00-24:00","maleToilets":23,"femaleToilets":25,"disabled":true,"diaperTable":true,"emergencyBell":true,"cctv":true,"source":"public","category":"public"},{"id":"202432900000101220","name":"당감지구대","lat":35.163274,"lng":129.039411,"roadAddr":"부산광역시 부산진구 당감로 17-1","openHours":"상시","maleToilets":3,"femaleToilets":1,"disabled":true,"diaperTable":false,"emergencyBell":false,"cctv":false,"source":"public","category":"public"},{"id":"202432900000101126","name":"부산시민공원 공원역사관","lat":35.165543,"lng":129.05584,"roadAddr":"부산광역시 부산진구 시민공원로 73","jibunAddr":"부산광역시 부산진구 범번동 374","openHours":"05:00-24:00","maleToilets":5,"femaleToilets":6,"disabled":true,"diaperTable":true,"emergencyBell":true,"cctv":false,"source":"public","category":"public"},{"id":"202632900000100010","name":"부산진구 기적의도서관","lat":35.174031,"lng":129.064702,"roadAddr":"부산광역시 부산진구 범양로125번길 19, 부산진구 기적의도서관 (양정동)","jibunAddr":"부산광역시 부산진구 양정동 506-6 부산진구 기적의도서관","openHours":"화~금: 09:00-22:00 / 토: 09:00-18:00 / 일: 09:00-17:00","maleToilets":12,"femaleToilets":9,"disabled":true,"diaperTable":true,"emergencyBell":true,"cctv":true,"source":"public","category":"public"},{"id":"202632900000100009","name":"부산진구 당감도서관","lat":35.157661,"lng":129.04688,"roadAddr":"부산광역시 부산진구 가야대로703번나길 33, 당감복합공공도서관 (당감동)","jibunAddr":"부산광역시 부산진구 당감동 93-17 당감복합공공도서관","openHours":"화~금: 09:00-22:00 / 토: 09:00-18:00 / 일: 09:00-17:00","maleToilets":3,"femaleToilets":8,"disabled":true,"diaperTable":false,"emergencyBell":true,"cctv":false,"source":"public","category":"public"},{"id":"202432900000101134","name":"송상현광장 선큰광장","lat":35.164161,"lng":129.065136,"roadAddr":"부산광역시 부산진구 중앙대로 818","jibunAddr":"부산광역시 부산진구 전포동 575","openHours":"상시","maleToilets":4,"femaleToilets":3,"disabled":true,"diaperTable":true,"emergencyBell":true,"cctv":false,"source":"public","category":"public"},{"id":"202432900000101214","name":"부산양정1동우체국","lat":35.172693,"lng":129.064536,"roadAddr":"부산광역시 부산진구 범양로 103","openHours":"09:00~18:00","maleToilets":2,"femaleToilets":1,"disabled":false,"diaperTable":false,"emergencyBell":false,"cctv":false,"managerTel":"0518674103","source":"public","category":"public"},{"id":"202432900000101156","name":"신선마을 공유센터","lat":35.168829,"lng":129.045672,"roadAddr":"부산광역시 부산진구 동평로131번길 94","jibunAddr":"부산광역시 부산진구 부암동 320-314","openHours":"09:00-18:00","maleToilets":6,"femaleToilets":3,"disabled":true,"diaperTable":false,"emergencyBell":true,"cctv":false,"source":"public","category":"public"},{"id":"202432900000101094","name":"지하철 부암역(온종합병원)","lat":35.157436,"lng":129.050428,"roadAddr":"부산광역시 부산진구 가야대로 지하 719","jibunAddr":"부산광역시 부산진구 범천동 368-12","openHours":"05:00-24:00","maleToilets":11,"femaleToilets":5,"disabled":true,"diaperTable":true,"emergencyBell":true,"cctv":true,"source":"public","category":"public"},{"id":"202432900000101339","name":"서면종합시장","lat":35.161915,"lng":129.058985,"roadAddr":"부산광역시 부산진구 부전로162번길 28, 서면종합시장 (부전동)","openHours":"12시간","maleToilets":6,"femaleToilets":5,"disabled":true,"diaperTable":false,"emergencyBell":false,"cctv":false,"source":"public","category":"public"},{"id":"202432900000101099","name":"부산시설공단 본사 2층","lat":35.171648,"lng":129.049962,"roadAddr":"부산광역시 부산진구 새싹로174(연지동)","jibunAddr":"부산광역시 부산진구 연지동 340-4","openHours":"09:00-18:00","maleToilets":4,"femaleToilets":2,"disabled":false,"diaperTable":false,"emergencyBell":false,"cctv":false,"source":"public","category":"public"},{"id":"202432900000101224","name":"양정지구대","lat":35.174432,"lng":129.062575,"roadAddr":"부산광역시 부산진구 동평로 342","openHours":"상시","maleToilets":2,"femaleToilets":1,"disabled":true,"diaperTable":false,"emergencyBell":false,"cctv":false,"source":"public","category":"public"},{"id":"202432900000101017","name":"양정셀프주유소","lat":35.175091,"lng":129.06464,"roadAddr":"부산광역시 부산진구 동평로 361 (양정동)","jibunAddr":"부산광역시 부산진구 양정동 508-6","openHours":"18시간","maleToilets":4,"femaleToilets":4,"disabled":false,"diaperTable":false,"emergencyBell":false,"cctv":false,"source":"public","category":"public"},{"id":"202432900000101213","name":"부산당감3동우체국","lat":35.159643,"lng":129.032962,"roadAddr":"부산광역시 부산진구 백양대로 156","openHours":"09:00-18:00","maleToilets":0,"femaleToilets":0,"disabled":false,"diaperTable":false,"emergencyBell":false,"cctv":false,"source":"public","category":"public"},{"id":"202432900000101325","name":"한신밴","lat":35.159057,"lng":129.062634,"roadAddr":"부산광역시 부산진구 동천로 116, 한신밴 (전포동)","openHours":"12시간","maleToilets":6,"femaleToilets":3,"disabled":false,"diaperTable":false,"emergencyBell":false,"cctv":false,"source":"public","category":"public"},{"id":"202432900000101144","name":"당감종합사회복지관","lat":35.162324,"lng":129.036601,"roadAddr":"부산광역시 부산진구 당감서로 16, 당감종합사회복지관 (당감동)","openHours":"09:00-18:00","maleToilets":15,"femaleToilets":10,"disabled":true,"diaperTable":false,"emergencyBell":false,"cctv":false,"source":"public","category":"public"},{"id":"202432900000101137","name":"부전역(철도)","lat":35.164042,"lng":129.060506,"roadAddr":"부산광역시 부산진구 부전로 181","jibunAddr":"부산광역시 부신진구 부전동","openHours":"05:00~00:30","maleToilets":19,"femaleToilets":21,"disabled":true,"diaperTable":true,"emergencyBell":false,"cctv":true,"source":"public","category":"public"},{"id":"202432900000101033","name":"백양산 등산로","lat":35.17586,"lng":129.028216,"roadAddr":"부산광역시 부산진구 백양산로 138","jibunAddr":"부산광역시 부산진구 부암동 628","openHours":"상시","maleToilets":5,"femaleToilets":6,"disabled":false,"diaperTable":false,"emergencyBell":true,"cctv":false,"managerTel":"0516054441","source":"public","category":"public"},{"id":"202432900000101132","name":"부산시민공원 다솜관","lat":35.165543,"lng":129.05584,"roadAddr":"부산광역시 부산진구 시민공원로 73","jibunAddr":"부산광역시 부산진구 범전동100","openHours":"05:00-24:00","maleToilets":10,"femaleToilets":12,"disabled":true,"diaperTable":true,"emergencyBell":true,"cctv":true,"source":"public","category":"public"},{"id":"202432900000101023","name":"대흥주유소","lat":35.164792,"lng":129.031769,"roadAddr":"부산광역시 부산진구 동평로 21, 대흥주유소 (당감동)","openHours":"18시간","maleToilets":3,"femaleToilets":1,"disabled":false,"diaperTable":false,"emergencyBell":false,"cctv":false,"source":"public","category":"public"},{"id":"202632900000100005","name":"부산콘서트홀 2층 관객화장실1","lat":35.169373,"lng":129.054253,"roadAddr":"부산광역시 부산진구 동평로 250 (연지동)","jibunAddr":"부산광역시 부산진구 연지동 60","openHours":"10:00-19:00","maleToilets":5,"femaleToilets":4,"disabled":true,"diaperTable":false,"emergencyBell":true,"cctv":true,"source":"public","category":"public"},{"id":"202432900000101109","name":"어린이대공원 제6호","lat":35.185876,"lng":129.042012,"roadAddr":"부산광역시 부산진구 초읍동 43","jibunAddr":"부산광역시 부산진구 새싹로 295","openHours":"상시","maleToilets":5,"femaleToilets":3,"disabled":false,"diaperTable":false,"emergencyBell":false,"cctv":false,"source":"public","category":"public"},{"id":"202432900000101105","name":"어린이대공원 제2호","lat":35.185876,"lng":129.042012,"roadAddr":"부산광역시 부산진구 초읍동 43","jibunAddr":"부산광역시 부산진구 새싹로 295","openHours":"상시","maleToilets":8,"femaleToilets":8,"disabled":true,"diaperTable":true,"emergencyBell":false,"cctv":false,"source":"public","category":"public"},{"id":"202432900000101140","name":"부산광역시립시민도서관","lat":35.182806,"lng":129.050142,"roadAddr":"부산광역시 부산진구 월드컵대로 462 (초읍동)","openHours":"07:00-22:00","maleToilets":4,"femaleToilets":4,"disabled":false,"diaperTable":false,"emergencyBell":false,"cctv":true,"source":"public","category":"public"},{"id":"202432900000101091","name":"지하철 부전역","lat":35.162636,"lng":129.063012,"roadAddr":"부산광역시 부산진구 중앙대로 지하 786","jibunAddr":"부산광역시 부산진구 전포동 573-1","openHours":"05:00-24:00","maleToilets":9,"femaleToilets":9,"disabled":true,"diaperTable":true,"emergencyBell":true,"cctv":true,"source":"public","category":"public"},{"id":"202432900000101042","name":"백양산 바람고개","lat":35.178467,"lng":129.037996,"roadAddr":"부산광역시 부산진구 초읍동 산129","jibunAddr":"부산광역시 부산진구 초읍동 산129","openHours":"상시","maleToilets":2,"femaleToilets":2,"disabled":false,"diaperTable":false,"emergencyBell":true,"cctv":true,"source":"public","category":"public"},{"id":"202432900000101079","name":"범전치안센터","lat":35.166443,"lng":129.062697,"roadAddr":"부산광역시 부산진구 범전로32번길 35, 범전치안센터 (범전동)","openHours":"24시간","maleToilets":2,"femaleToilets":0,"disabled":false,"diaperTable":false,"emergencyBell":false,"cctv":false,"managerTel":"0518094082","source":"public","category":"public"},{"id":"202432900000101228","name":"국립부산국악원","lat":35.17146,"lng":129.05413,"roadAddr":"부산광역시 부산진구 국악로2","openHours":"09:00~18:00","maleToilets":3,"femaleToilets":3,"disabled":true,"diaperTable":false,"emergencyBell":false,"cctv":false,"managerTel":"0518110202","source":"public","category":"public"},{"id":"202432900000101133","name":"부산시민공원 야외주차장","lat":35.165543,"lng":129.05584,"roadAddr":"부산광역시 부산진구 시민공원로 73","jibunAddr":"부산광역시 부산진구 범전동49","openHours":"05:00~24:00","maleToilets":4,"femaleToilets":4,"disabled":true,"diaperTable":false,"emergencyBell":false,"cctv":false,"source":"public","category":"public"},{"id":"202432900000101125","name":"부산시민공원방문자센터지하2층","lat":35.165543,"lng":129.05584,"roadAddr":"부산광역시 부산진구 시민공원로 73","jibunAddr":"부산광역시 부산진구 범전동200","openHours":"05:00-24:00","maleToilets":5,"femaleToilets":5,"disabled":false,"diaperTable":false,"emergencyBell":true,"cctv":false,"source":"public","category":"public"},{"id":"202432900000101321","name":"한사랑요양병원","lat":35.166113,"lng":129.051925,"roadAddr":"부산광역시 부산진구 새싹로 107, 한사랑요양병원 (부암동)","openHours":"6시간","maleToilets":3,"femaleToilets":0,"disabled":true,"diaperTable":false,"emergencyBell":false,"cctv":false,"source":"public","category":"public"},{"id":"202432900000101329","name":"양정현대프라자","lat":35.174494,"lng":129.063241,"roadAddr":"부산광역시 부산진구 동평로 350, 양정현대프라자 (양정동)","openHours":"12시간","maleToilets":6,"femaleToilets":2,"disabled":false,"diaperTable":false,"emergencyBell":false,"cctv":false,"source":"public","category":"public"},{"id":"202432900000101135","name":"송상현광장 역사마당","lat":35.164161,"lng":129.065136,"roadAddr":"부산광역시 부산진구 중앙대로 818","jibunAddr":"부산광역시 부산진구 전포동 864-1","openHours":"상시","maleToilets":8,"femaleToilets":9,"disabled":true,"diaperTable":true,"emergencyBell":true,"cctv":false,"source":"public","category":"public"},{"id":"202432900000101216","name":"국민건강보험공단 부산진구지사 1층","lat":35.16279,"lng":129.063578,"roadAddr":"부산광역시 부산진구 중앙대로 798","openHours":"(평일)09:00-12:00+(평일)13:00-18:00","maleToilets":4,"femaleToilets":2,"disabled":true,"diaperTable":false,"emergencyBell":true,"cctv":false,"source":"public","category":"public"},{"id":"202432900000101128","name":"부산시민공원 숲속북카페","lat":35.165543,"lng":129.05584,"roadAddr":"부산광역시 부산진구 시민공원로 73","jibunAddr":"부산광역시 부산진구 연지동 53-1","openHours":"05:00-24:00","maleToilets":4,"femaleToilets":4,"disabled":true,"diaperTable":false,"emergencyBell":true,"cctv":false,"managerTel":"16708114","source":"public","category":"public"},{"id":"202432900000101211","name":"부산당감동우체국","lat":35.166178,"lng":129.039236,"roadAddr":"부산광역시 부산진구 당감로 50-1","openHours":"(평일)09:00-12:00+(평일)13:00-18:00","maleToilets":2,"femaleToilets":1,"disabled":true,"diaperTable":false,"emergencyBell":false,"cctv":false,"source":"public","category":"public"},{"id":"202432900000101159","name":"부산진구여성가족문화센터 3층","lat":35.159574,"lng":129.032743,"roadAddr":"부산광역시 부산진구 백양대로 160","jibunAddr":"부산광역시 부산진구 당감동 516-8","openHours":"09:00-18:00","maleToilets":2,"femaleToilets":3,"disabled":false,"diaperTable":false,"emergencyBell":false,"cctv":false,"source":"public","category":"public"},{"id":"202432900000101149","name":"철길마을건강생활센터","lat":35.160995,"lng":129.053162,"roadAddr":"부산광역시 부산진구 신천대로204번길56","jibunAddr":"부산광역시 부산진구 부암동 679-6","openHours":"09:00-17:00","maleToilets":2,"femaleToilets":1,"disabled":false,"diaperTable":false,"emergencyBell":false,"cctv":false,"source":"public","category":"public"},{"id":"202432900000101157","name":"부산진구여성가족문화센터 1층","lat":35.159574,"lng":129.032743,"roadAddr":"부산광역시 부산진구 백양대로 160","jibunAddr":"부산광역시 부산진구 당감동 516-8","openHours":"09:00-18:00","maleToilets":1,"femaleToilets":2,"disabled":true,"diaperTable":true,"emergencyBell":false,"cctv":true,"source":"public","category":"public"},{"id":"202432900000101009","name":"럭키주유소","lat":35.176737,"lng":129.048735,"roadAddr":"부산광역시 부산진구 새싹로 230, 럭키주유소 (초읍동)","openHours":"18시간","maleToilets":2,"femaleToilets":1,"disabled":false,"diaperTable":false,"emergencyBell":false,"cctv":false,"source":"public","category":"public"},{"id":"202432900000101163","name":"부산진구노인장애인복지관","lat":35.164048,"lng":129.065847,"roadAddr":"부산광역시 부산진구 전포대로 300번길 6","jibunAddr":"부산광역시 부산진구 전포동 581","openHours":"09:00-18:00","maleToilets":20,"femaleToilets":20,"disabled":true,"diaperTable":true,"emergencyBell":true,"cctv":false,"source":"public","category":"public"},{"id":"202432900000101217","name":"부산진경찰서","lat":35.160292,"lng":129.054407,"roadAddr":"부산광역시 부산진구부전로 111번길 6","openHours":"상시","maleToilets":7,"femaleToilets":3,"disabled":true,"diaperTable":false,"emergencyBell":true,"cctv":false,"source":"public","category":"public"},{"id":"202432900000101071","name":"전포2동주민센터","lat":35.161683,"lng":129.066202,"roadAddr":"부산광역시 동성로118번길 34","jibunAddr":"부산광역시 부산진구 전포동 175-26","openHours":"09:00-18:00","maleToilets":4,"femaleToilets":4,"disabled":true,"diaperTable":true,"emergencyBell":true,"cctv":false,"source":"public","category":"public"},{"id":"202432900000101061","name":"부전1동주민센터 1층","lat":35.163513,"lng":129.063002,"roadAddr":"부산광역시 부산진구 범전로5번길 13","openHours":"09:00-18:00","maleToilets":1,"femaleToilets":1,"disabled":true,"diaperTable":false,"emergencyBell":false,"cctv":true,"source":"public","category":"public"},{"id":"202432900000101113","name":"어린이대공원 제10호","lat":35.185876,"lng":129.042012,"roadAddr":"부산광역시 부산진구 초읍동 43","jibunAddr":"부산광역시 부산진구 새싹로 295","openHours":"상시","maleToilets":7,"femaleToilets":5,"disabled":false,"diaperTable":false,"emergencyBell":false,"cctv":false,"source":"public","category":"public"},{"id":"202432900000101098","name":"부산시설공단 본사 1층","lat":35.171648,"lng":129.049962,"roadAddr":"부산광역시 부산진구 새싹로174(연지동)","jibunAddr":"부산광역시 부산진구 연지동 340-4","openHours":"09:00-18:00","maleToilets":2,"femaleToilets":0,"disabled":true,"diaperTable":false,"emergencyBell":false,"cctv":false,"source":"public","category":"public"},{"id":"202432900000101087","name":"부산진소방서","lat":35.158073,"lng":129.064635,"roadAddr":"부산광역시 부산진구 서전로 43, 부산진소방서 (전포동)","openHours":"상시","maleToilets":2,"femaleToilets":3,"disabled":true,"diaperTable":false,"emergencyBell":false,"cctv":false,"source":"public","category":"public"},{"id":"202432900000101161","name":"부산진구여성가족문화센터 5층","lat":35.159574,"lng":129.032743,"roadAddr":"부산광역시 부산진구 백양대로 160","jibunAddr":"부산광역시 부산진구 당감동 516-8","openHours":"09:00-18:00","maleToilets":2,"femaleToilets":3,"disabled":true,"diaperTable":true,"emergencyBell":false,"cctv":false,"source":"public","category":"public"},{"id":"202432900000101056","name":"부산진구 건강증진센터","lat":35.162831,"lng":129.053188,"roadAddr":"부산광역시 부산진구 시민공원로 30","jibunAddr":"부산광역시 부산진구 부암동 666-16","openHours":"09:00-18:00","maleToilets":4,"femaleToilets":6,"disabled":false,"diaperTable":false,"emergencyBell":false,"cctv":false,"source":"public","category":"public"},{"id":"202432900000101080","name":"부암119 안전센터","lat":35.166904,"lng":129.050729,"roadAddr":"부산광역시 부산진구 신천대로 282, 부암119안전센터 (부암동)","openHours":"상시","maleToilets":0,"femaleToilets":0,"disabled":false,"diaperTable":false,"emergencyBell":false,"cctv":false,"source":"public","category":"public"},{"id":"202432900000101110","name":"어린이대공원 제7호","lat":35.185876,"lng":129.042012,"roadAddr":"부산광역시 부산진구 초읍동 43","jibunAddr":"부산광역시 부산진구 새싹로 295","openHours":"상시","maleToilets":9,"femaleToilets":4,"disabled":true,"diaperTable":false,"emergencyBell":false,"cctv":false,"source":"public","category":"public"},{"id":"202432900000101311","name":"농협(전포동지점)","lat":35.157976,"lng":129.064387,"roadAddr":"부산광역시 부산진구 서전로 41, 농협 전포동지점 (전포동)","openHours":"6시간","maleToilets":5,"femaleToilets":2,"disabled":false,"diaperTable":false,"emergencyBell":false,"cctv":false,"source":"public","category":"public"},{"id":"202432900000101340","name":"부전시장","lat":35.163234,"lng":129.060906,"roadAddr":"부산광역시 부산진구 중앙대로783번길 23, 부전시장 (부전동)","openHours":"13시간","maleToilets":13,"femaleToilets":8,"disabled":false,"diaperTable":false,"emergencyBell":false,"cctv":false,"source":"public","category":"public"},{"id":"202432900000101064","name":"부전1동주민센터 4층","lat":35.163513,"lng":129.063002,"roadAddr":"부산광역시 부산진구 범전로5번길 13","jibunAddr":"부산광역시 부산진구 부전동 25-1","openHours":"09:00-18:00","maleToilets":2,"femaleToilets":3,"disabled":true,"diaperTable":false,"emergencyBell":false,"cctv":true,"source":"public","category":"public"},{"id":"202532900000100002","name":"삼성화승분산상가","lat":35.1702,"lng":129.036884,"roadAddr":"부산광역시 부산진구 백양순환로 89, 화승분산상가 (부암동)","jibunAddr":"부산광역시 부산진구 부암동 500-6 화승분산상가","openHours":"상시","maleToilets":3,"femaleToilets":1,"disabled":false,"diaperTable":false,"emergencyBell":false,"cctv":false,"source":"public","category":"public"},{"id":"202532900000100003","name":"개금주공복합상가","lat":35.159441,"lng":129.031158,"roadAddr":"부산광역시 부산진구 백양관문로 3, 개금주공복합상가 (개금동)","jibunAddr":"부산광역시 부산진구 개금동 53-3 개금주공상가","openHours":"15시간","maleToilets":5,"femaleToilets":3,"disabled":false,"diaperTable":false,"emergencyBell":false,"cctv":false,"source":"public","category":"public"},{"id":"202432900000101077","name":"당감4치안센터","lat":35.16738,"lng":129.037811,"roadAddr":"부산광역시 부산진구 당감서로80번길 16, 당감4치안센터 (당감동)","openHours":"24시간","maleToilets":2,"femaleToilets":0,"disabled":false,"diaperTable":false,"emergencyBell":false,"cctv":false,"managerTel":"0518960101","source":"public","category":"public"},{"id":"202432900000101305","name":"부산롯데호텔","lat":35.15679,"lng":129.056416,"roadAddr":"부산광역시 부산진구 가야대로 772, 부산롯데호텔 (부전동)","openHours":"24시간","maleToilets":8,"femaleToilets":5,"disabled":true,"diaperTable":false,"emergencyBell":false,"cctv":false,"source":"public","category":"public"},{"id":"202432900000101117","name":"중부지하도상가 부전몰B","lat":35.160233,"lng":129.061105,"roadAddr":"부산광역시 부산진구 중앙대로 지하737","jibunAddr":"부산광역시 부산진구 부전동 573-1","openHours":"05:00-23:00","maleToilets":9,"femaleToilets":8,"disabled":false,"diaperTable":false,"emergencyBell":true,"cctv":false,"source":"public","category":"public"},{"id":"202432900000101088","name":"연지치안센터","lat":35.170983,"lng":129.050033,"roadAddr":"부산광역시 부산진구 새싹로 166, 연지치안센터 (연지동)","openHours":"24시간","maleToilets":2,"femaleToilets":0,"disabled":false,"diaperTable":false,"emergencyBell":false,"cctv":false,"managerTel":"0518094048","source":"public","category":"public"},{"id":"202432900000101018","name":"한일주유소","lat":35.169213,"lng":129.039455,"roadAddr":"부산광역시 부산진구 백양순환로110번길 19, 한일주유소 (부암동)","openHours":"18시간","maleToilets":2,"femaleToilets":1,"disabled":false,"diaperTable":false,"emergencyBell":false,"cctv":false,"source":"public","category":"public"},{"id":"202432900000101320","name":"국민은행(서면중앙지점)","lat":35.158566,"lng":129.059037,"roadAddr":"부산광역시 부산진구 새싹로 2  (부전동)","openHours":"6시간","maleToilets":5,"femaleToilets":2,"disabled":false,"diaperTable":false,"emergencyBell":false,"cctv":false,"source":"public","category":"public"},{"id":"202432900000101052","name":"당감4동주민센터","lat":35.168222,"lng":129.033422,"roadAddr":"부산광역시 부산진구 백양순환로 40(당감동)","jibunAddr":"부산광역시 부산진구 당감동 696-1","openHours":"09:00-18:00","maleToilets":10,"femaleToilets":10,"disabled":true,"diaperTable":false,"emergencyBell":false,"cctv":false,"managerTel":"0516054916","source":"public","category":"public"},{"id":"202432900000101104","name":"어린이대공원 제1호","lat":35.185876,"lng":129.042012,"roadAddr":"부산광역시 부산진구 초읍동 43","jibunAddr":"부산광역시 부산진구 새싹로 295","openHours":"05:00-24:00","maleToilets":9,"femaleToilets":9,"disabled":true,"diaperTable":false,"emergencyBell":true,"cctv":false,"source":"public","category":"public"},{"id":"202432900000101072","name":"초읍동주민센터","lat":35.181453,"lng":129.04736,"roadAddr":"부산광역시 부산진구 새싹로 284, 초읍동주민센터(성지문화복합센터) (초읍동)","jibunAddr":"부산광역시 부산진구 초읍동 291-38 초읍동주민센터(성지문화복합센터)","openHours":"09:00-18:00","maleToilets":21,"femaleToilets":10,"disabled":true,"diaperTable":true,"emergencyBell":false,"cctv":false,"source":"public","category":"public"},{"id":"202432900000101024","name":"진성주유소","lat":35.157078,"lng":129.024178,"roadAddr":"부산광역시 부산진구 백양대로 242, 진성주유소 (개금동)","openHours":"18시간","maleToilets":4,"femaleToilets":2,"disabled":false,"diaperTable":false,"emergencyBell":false,"cctv":false,"source":"public","category":"public"},{"id":"202432900000101170","name":"부산진구장애인보호작업장","lat":35.164048,"lng":129.065847,"roadAddr":"부산광역시 부산진구 전포대로 300번길 6","jibunAddr":"부산광역시 부산진구 전포동 581","openHours":"09:00~18:00","maleToilets":4,"femaleToilets":4,"disabled":true,"diaperTable":false,"emergencyBell":false,"cctv":false,"managerTel":"0517108190","source":"public","category":"public"},{"id":"202432900000101112","name":"어린이대공원 제9호","lat":35.185876,"lng":129.042012,"roadAddr":"부산광역시 부산진구 초읍동 43","jibunAddr":"부산광역시 부산진구 새싹로 295","openHours":"상시","maleToilets":9,"femaleToilets":4,"disabled":false,"diaperTable":false,"emergencyBell":false,"cctv":false,"source":"public","category":"public"},{"id":"202432900000101303","name":"부산적십자회관","lat":35.161487,"lng":129.063595,"roadAddr":"부산광역시 부산진구 동성로 144 (전포동)","openHours":"9시간","maleToilets":6,"femaleToilets":2,"disabled":false,"diaperTable":false,"emergencyBell":false,"cctv":false,"source":"public","category":"public"},{"id":"202432900000101025","name":"백양주유소","lat":35.157515,"lng":129.02475,"roadAddr":"부산광역시 부산진구 백양대로 234, 백양주유소 (개금동)","openHours":"18시간","maleToilets":2,"femaleToilets":1,"disabled":false,"diaperTable":false,"emergencyBell":false,"cctv":false,"source":"public","category":"public"},{"id":"202432900000101316","name":"농협(부산지역본부)","lat":35.162825,"lng":129.062337,"roadAddr":"부산광역시 부산진구 중앙대로783번길 14, 농협 부산지역본부 (부전동)","openHours":"6시간","maleToilets":4,"femaleToilets":2,"disabled":false,"diaperTable":false,"emergencyBell":false,"cctv":false,"source":"public","category":"public"},{"id":"202432900000101059","name":"부암1동주민센터","lat":35.163287,"lng":129.048562,"roadAddr":"부산광역시 부산진구 신천대로241번길 41","jibunAddr":"부산광역시 부산진구 부암동 226","openHours":"09:00-18:00","maleToilets":12,"femaleToilets":6,"disabled":true,"diaperTable":true,"emergencyBell":true,"cctv":false,"source":"public","category":"public"},{"id":"202432900000101313","name":"국민은행(부전동지점)","lat":35.158937,"lng":129.057818,"roadAddr":"부산광역시 부산진구 새싹로 11, 국민은행 부전동지점 (부전동)","openHours":"6시간","maleToilets":5,"femaleToilets":2,"disabled":false,"diaperTable":false,"emergencyBell":false,"cctv":false,"source":"public","category":"public"},{"id":"202432900000101036","name":"개금숲길공원","lat":35.161011,"lng":129.02604,"roadAddr":"부산광역시 부산진구 백양대로 208번길 70","jibunAddr":"부산광역시 부산진구 개금동 56","openHours":"상시","maleToilets":5,"femaleToilets":3,"disabled":false,"diaperTable":true,"emergencyBell":true,"cctv":true,"source":"public","category":"public"},{"id":"202432900000101130","name":"부산시민공원 카페테리아","lat":35.165543,"lng":129.05584,"roadAddr":"부산광역시 부산진구 시민공원로 73","jibunAddr":"부산광역시 부산진구 범전동131","openHours":"05:00-24:00","maleToilets":9,"femaleToilets":14,"disabled":true,"diaperTable":true,"emergencyBell":true,"cctv":false,"source":"public","category":"public"},{"id":"202432900000101335","name":"부전인삼시장","lat":35.163234,"lng":129.060906,"roadAddr":"부산광역시 부산진구 중앙대로783번길 23, 부전인삼시장 (부전동)","openHours":"12시간","maleToilets":6,"femaleToilets":4,"disabled":false,"diaperTable":false,"emergencyBell":false,"cctv":false,"source":"public","category":"public"},{"id":"202432900000101334","name":"경동파크타워","lat":35.160593,"lng":129.057325,"roadAddr":"부산광역시 부산진구 새싹로 30 (부전동, 경동파크타워)","openHours":"12시간","maleToilets":6,"femaleToilets":5,"disabled":false,"diaperTable":false,"emergencyBell":false,"cctv":false,"source":"public","category":"public"},{"id":"202432900000101148","name":"당감행복마루센터","lat":35.16276,"lng":129.040004,"roadAddr":"부산광역시 부산진구 당감로10번길3","jibunAddr":"부산광역시 부산진구 당감동 252-104","openHours":"10:00-18:00","maleToilets":2,"femaleToilets":2,"disabled":false,"diaperTable":false,"emergencyBell":false,"cctv":false,"source":"public","category":"public"},{"id":"202432900000101007","name":"스마일주유소","lat":35.165213,"lng":129.034758,"roadAddr":"부산광역시 부산진구 동평로 49","openHours":"18시간","maleToilets":2,"femaleToilets":1,"disabled":false,"diaperTable":false,"emergencyBell":false,"cctv":false,"source":"public","category":"public"},{"id":"202432900000101107","name":"어린이대공원 제4호","lat":35.185876,"lng":129.042012,"roadAddr":"부산광역시 부산진구 초읍동 43","jibunAddr":"부산광역시 부산진구 새싹로 295","openHours":"상시","maleToilets":5,"femaleToilets":2,"disabled":true,"diaperTable":true,"emergencyBell":false,"cctv":false,"source":"public","category":"public"},{"id":"202432900000101078","name":"대공원치안센터","lat":35.182719,"lng":129.046995,"roadAddr":"부산광역시 부산진구 성지곡로 3, 대공원치안센터 (초읍동)","openHours":"24시간","maleToilets":2,"femaleToilets":0,"disabled":false,"diaperTable":false,"emergencyBell":false,"cctv":false,"managerTel":"0518172875","source":"public","category":"public"},{"id":"202432900000101158","name":"부산진구여성가족문화센터 2층","lat":35.159574,"lng":129.032743,"roadAddr":"부산광역시 부산진구 백양대로 160","jibunAddr":"부산광역시 부산진구 당감동 516-8","openHours":"09:00-18:00","maleToilets":2,"femaleToilets":3,"disabled":false,"diaperTable":true,"emergencyBell":false,"cctv":true,"source":"public","category":"public"},{"id":"202432900000101338","name":"부산전자종합상가","lat":35.163752,"lng":129.062435,"roadAddr":"부산광역시 부산진구 부전로 196, 부산전자종합상가 (부전동)","openHours":"12시간","maleToilets":7,"femaleToilets":4,"disabled":false,"diaperTable":false,"emergencyBell":false,"cctv":false,"source":"public","category":"public"},{"id":"202432900000101038","name":"초연근린공원","lat":35.180052,"lng":129.04889,"roadAddr":"부산광역시 부산진구 성지로143번길 27","jibunAddr":"부산광역시 부산진구 초읍동 산66-1 일원","openHours":"상시","maleToilets":2,"femaleToilets":2,"disabled":false,"diaperTable":false,"emergencyBell":true,"cctv":true,"managerTel":"0516056315","source":"public","category":"public"},{"id":"202432900000101160","name":"부산진구여성가족문화센터 4층","lat":35.159574,"lng":129.032743,"roadAddr":"부산광역시 부산진구 백양대로 160","jibunAddr":"부산광역시 부산진구 당감동 516-8","openHours":"09:00-18:00","maleToilets":2,"femaleToilets":3,"disabled":true,"diaperTable":true,"emergencyBell":false,"cctv":true,"source":"public","category":"public"},{"id":"202432900000101069","name":"연지동주민센터","lat":35.172776,"lng":129.052838,"roadAddr":"부산광역시 부산진구 국악로 30","jibunAddr":"부산광역시 부산진구 연지동 238-9","openHours":"09:00-18:00","maleToilets":3,"femaleToilets":2,"disabled":true,"diaperTable":false,"emergencyBell":false,"cctv":false,"source":"public","category":"public"},{"id":"202432900000101040","name":"화목어린이공원","lat":35.163032,"lng":129.027265,"roadAddr":"부산광역시 부산진구 백양관문로 77번길","jibunAddr":"부산광역시 부산진구 개금동 1-2","openHours":"상시","maleToilets":3,"femaleToilets":2,"disabled":false,"diaperTable":false,"emergencyBell":true,"cctv":false,"managerTel":"0516056315","source":"public","category":"public"},{"id":"202432900000101124","name":"부산시민공원방문자센터지하1층","lat":35.165543,"lng":129.05584,"roadAddr":"부산광역시 부산진구 시민공원로 73","jibunAddr":"부산광역시 부산진구 범전동200","openHours":"05:00-24:00","maleToilets":5,"femaleToilets":7,"disabled":true,"diaperTable":true,"emergencyBell":true,"cctv":false,"source":"public","category":"public"},{"id":"202432900000101317","name":"신한은행(부전동지점)","lat":35.159002,"lng":129.060566,"roadAddr":"부산광역시 부산진구 중앙대로 748, 신한은행 부전동지점 (부전동)","openHours":"6시간","maleToilets":6,"femaleToilets":3,"disabled":false,"diaperTable":false,"emergencyBell":false,"cctv":false,"source":"public","category":"public"},{"id":"202432900000101050","name":"당감1동주민센터","lat":35.164276,"lng":129.035747,"roadAddr":"부산광역시 부산진구 동평로44번길 49-6, 당감1동주민센터 (당감동)","openHours":"09:00-18:00","maleToilets":2,"femaleToilets":2,"disabled":true,"diaperTable":false,"emergencyBell":false,"cctv":true,"source":"public","category":"public"},{"id":"202432900000101315","name":"부산은행(부전동지점)","lat":35.158173,"lng":129.058102,"roadAddr":"부산광역시 부산진구 새싹로 1, 부산은행 부전동지점 (부전동)","openHours":"6시간","maleToilets":6,"femaleToilets":3,"disabled":false,"diaperTable":false,"emergencyBell":false,"cctv":false,"source":"public","category":"public"},{"id":"202433000000100276","name":"사직 지하철역(1호선)","lat":35.198969,"lng":129.065059,"roadAddr":"부산광역시 동래구 아시아드대로 지하 153","jibunAddr":"부산광역시 동래구 사직동 161-1","openHours":"05:00~24:00","maleToilets":7,"femaleToilets":8,"disabled":true,"diaperTable":true,"emergencyBell":true,"cctv":true,"source":"public","category":"public"},{"id":"202433000000100174","name":"사직종합사회복지관","lat":35.199015,"lng":129.057339,"roadAddr":"부산광역시 동래구 사직북로63번길 20-7","jibunAddr":"부산광역시 동래구 사직동 29-9","openHours":"09:00~18:00","maleToilets":14,"femaleToilets":14,"disabled":true,"diaperTable":true,"emergencyBell":true,"cctv":true,"source":"public","category":"public"},{"id":"202433000000100248","name":"야구장외곽화장실","lat":35.194367,"lng":129.059901,"roadAddr":"부산광역시 동래구 사직로 45","jibunAddr":"부산광역시 동래구 사직동 960","openHours":"00:00~24:00","maleToilets":10,"femaleToilets":8,"disabled":false,"diaperTable":false,"emergencyBell":false,"cctv":true,"source":"public","category":"public"},{"id":"202433000000100245","name":"부산시체육회관","lat":35.194698,"lng":129.057426,"roadAddr":"부산광역시 동래구 사직로 77","jibunAddr":"부산광역시 동래구 사직2동 749-6","openHours":"06:00~22:00","maleToilets":25,"femaleToilets":29,"disabled":true,"diaperTable":false,"emergencyBell":false,"cctv":false,"source":"public","category":"public"},{"id":"202433000000100249","name":"체육관외곽화장실","lat":35.194367,"lng":129.059901,"roadAddr":"부산광역시 동래구 사직로 45","jibunAddr":"부산광역시 동래구 사직동 960","openHours":"00:00~24:00","maleToilets":7,"femaleToilets":5,"disabled":false,"diaperTable":false,"emergencyBell":false,"cctv":true,"source":"public","category":"public"},{"id":"202433000000100179","name":"사직119안전센터","lat":35.194657,"lng":129.059244,"roadAddr":"부산광역시 동래구 체육공원로 74","jibunAddr":"부산광역시 동래구 사직동 749-5","openHours":"09:00~18:00","maleToilets":4,"femaleToilets":2,"disabled":false,"diaperTable":false,"emergencyBell":false,"cctv":false,"source":"public","category":"public"},{"id":"202433000000100216","name":"사직제1동 행정복지센터","lat":35.198956,"lng":129.061948,"roadAddr":"부산광역시 동래구 석사로 19","jibunAddr":"부산광역시 동래구 사직동 50-16","openHours":"09:00~18:00","maleToilets":3,"femaleToilets":1,"disabled":true,"diaperTable":false,"emergencyBell":false,"cctv":false,"source":"public","category":"public"},{"id":"202433000000100246","name":"사직실내수영장","lat":35.192312,"lng":129.060681,"roadAddr":"부산광역시 동래구 사직로 55-32","jibunAddr":"부산광역시 동래구 사직동 930-2","openHours":"06:00~21:00","maleToilets":52,"femaleToilets":28,"disabled":true,"diaperTable":false,"emergencyBell":true,"cctv":false,"source":"public","category":"public"},{"id":"202433000000100247","name":"사직실내체육관","lat":35.192312,"lng":129.060681,"roadAddr":"부산광역시 동래구 사직로 55-32","jibunAddr":"부산광역시 동래구 사직동 930-2","openHours":"06:00~21:00","maleToilets":117,"femaleToilets":70,"disabled":true,"diaperTable":false,"emergencyBell":true,"cctv":false,"source":"public","category":"public"},{"id":"202433000000100223","name":"사직 우체국","lat":35.198331,"lng":129.065548,"roadAddr":"부산광역시 동래구 아시아드대로 154","jibunAddr":"부산광역시 동래구 사직동 64-6","openHours":"09:00~18:00","maleToilets":2,"femaleToilets":1,"disabled":false,"diaperTable":false,"emergencyBell":false,"cctv":false,"source":"public","category":"public"},{"id":"202433000000100217","name":"사직제2동 행정복지센터","lat":35.199186,"lng":129.057515,"roadAddr":"부산광역시 동래구 사직북로63번길 22","jibunAddr":"부산광역시 동래구 사직동 1036","openHours":"09:00~18:00","maleToilets":9,"femaleToilets":6,"disabled":true,"diaperTable":true,"emergencyBell":false,"cctv":false,"source":"public","category":"public"},{"id":"202433000000100250","name":"사직야구장","lat":35.194367,"lng":129.059901,"roadAddr":"부산광역시 동래구 사직로 45","jibunAddr":"부산광역시 동래구 사직동 960","openHours":"06:00~21:00","maleToilets":96,"femaleToilets":16,"disabled":false,"diaperTable":false,"emergencyBell":false,"cctv":false,"source":"public","category":"public"},{"id":"202433000000100236","name":"사직2치안센터","lat":35.199186,"lng":129.057515,"roadAddr":"부산광역시 동래구 사직북로63번길 22","jibunAddr":"부산광역시 동래구 사직동 29-8","openHours":"09:00~18:00","maleToilets":2,"femaleToilets":1,"disabled":false,"diaperTable":false,"emergencyBell":false,"cctv":true,"source":"public","category":"public"},{"id":"202433700000100277","name":"곰두리스포츠센터","lat":35.185239,"lng":129.065732,"roadAddr":"부산광역시 연제구 화지로 109(거제동)","jibunAddr":"부산광역시 연제구 거제동 801-89","openHours":"09:00~18:00","maleToilets":7,"femaleToilets":4,"disabled":true,"diaperTable":false,"emergencyBell":false,"cctv":false,"source":"public","category":"public"},{"id":"202433700000100246","name":"거제4동 행정복지센터 (1층)","lat":35.180007,"lng":129.065918,"roadAddr":"부산광역시 연제구 화지로 52번길 33","jibunAddr":"부산광역시 연제구 거제동 676-316","openHours":"09:00~18:00","maleToilets":1,"femaleToilets":0,"disabled":true,"diaperTable":false,"emergencyBell":true,"cctv":true,"managerTel":"0516655774","source":"public","category":"public"},{"id":"202433700000100222","name":"만덕초읍지소(남)","lat":35.186877,"lng":129.051687,"roadAddr":"부산광역시 연제구 월드컵대로 430","jibunAddr":"부산광역시 연제구 거제동 산 120-10","openHours":"09:00~18:00","maleToilets":2,"femaleToilets":0,"disabled":false,"diaperTable":false,"emergencyBell":false,"cctv":false,"managerTel":"16708127","source":"public","category":"public"},{"id":"202433700000100293","name":"부산현대주유소","lat":35.193888,"lng":129.066091,"roadAddr":"부산광역시 연제구 아시아드대로 107(거제동)","jibunAddr":"부산광역시 연제구 거제동 891-2","openHours":"상시","maleToilets":4,"femaleToilets":2,"disabled":false,"diaperTable":false,"emergencyBell":false,"cctv":false,"source":"public","category":"public"},{"id":"202433700000100262","name":"종합운동장","lat":35.19163,"lng":129.06722,"roadAddr":"부산광역시 연제구 아시아드대로 지하 73","jibunAddr":"부산광역시 연제구 거제동 1191-2","openHours":"05:00~24:00","maleToilets":9,"femaleToilets":9,"disabled":true,"diaperTable":true,"emergencyBell":true,"cctv":true,"managerTel":"0516407266","source":"public","category":"public"}]