[{"id":"202334000000100211","name":"소두방공원(3호)","lat":35.325212,"lng":129.181435,"roadAddr":"부산광역시 기장군 정관읍 정관중앙로 100","jibunAddr":"부산광역시 기장군 정관읍 방곡리 442","openHours":"상시","maleToilets":3,"femaleToilets":2,"disabled":false,"diaperTable":false,"emergencyBell":true,"cctv":false,"managerTel":"0517924726","source":"public","category":"public"},{"id":"202334000000100201","name":"부산시설공단 곰내지소","lat":35.296645,"lng":129.169299,"roadAddr":"부산광역시 기장군 철마면 정관산업로 910","jibunAddr":"부산광역시 기장군 철마면 웅천리 218","openHours":"정시","maleToilets":2,"femaleToilets":1,"disabled":false,"diaperTable":false,"emergencyBell":false,"cctv":false,"managerTel":"16708121","source":"public","category":"public"},{"id":"202334000000100213","name":"나무누리공원","lat":35.327535,"lng":129.165869,"jibunAddr":"부산광역시 기장군 정관읍 용수리 1356","openHours":"상시","maleToilets":2,"femaleToilets":2,"disabled":false,"diaperTable":false,"emergencyBell":true,"cctv":true,"managerTel":"0517924726","source":"public","category":"public"},{"id":"202334000000100090","name":"홍연폭포","lat":35.299207,"lng":129.167233,"jibunAddr":"부산광역시 기장군 철마면 웅천리 산 109번지 2호","openHours":"상시","maleToilets":2,"femaleToilets":1,"disabled":false,"diaperTable":false,"emergencyBell":false,"cctv":false,"managerTel":"0517924717","source":"public","category":"public"},{"id":"202434000000100018","name":"정관우체국","lat":35.322169,"lng":129.183175,"roadAddr":"부산광역시 기장군 정관읍 정관덕산2길 14, 부산정관우체국","jibunAddr":"부산광역시 기장군 정관읍 방곡리 288-30 부산정관우체국","openHours":"정시","maleToilets":2,"femaleToilets":1,"disabled":false,"diaperTable":false,"emergencyBell":false,"cctv":false,"managerTel":"0517273300","source":"public","category":"public"},{"id":"202334000000100214","name":"근린공원(1호)","lat":35.317421,"lng":129.186371,"roadAddr":"부산광역시 기장군 정관읍 산단로 363","jibunAddr":"부산광역시 기장군 정관읍 달산리 1036","openHours":"상시","maleToilets":2,"femaleToilets":2,"disabled":false,"diaperTable":false,"emergencyBell":true,"cctv":false,"managerTel":"0517924726","source":"public","category":"public"},{"id":"202334000000100086","name":"매암산 등산로","lat":35.323126,"lng":129.161885,"jibunAddr":"부산광역시 기장군 정관읍 용수리 1047번지","openHours":"상시","maleToilets":2,"femaleToilets":1,"disabled":true,"diaperTable":false,"emergencyBell":false,"cctv":false,"managerTel":"0517924717","source":"public","category":"public"},{"id":"202334000000100210","name":"소두방공원 관리사무실","lat":35.328536,"lng":129.183901,"roadAddr":"부산광역시 기장군 정관읍 정관중앙로 138-11, 소두방공원관리동","jibunAddr":"부산광역시 기장군 정관읍 방곡리 442 소두방공원관리동","openHours":"상시","maleToilets":8,"femaleToilets":12,"disabled":true,"diaperTable":false,"emergencyBell":true,"cctv":false,"managerTel":"0517924726","source":"public","category":"public"},{"id":"202334000000100187","name":"기장군육아종합지원센터","lat":35.3263,"lng":129.181937,"roadAddr":"부산광역시 기장군 정관읍 정관중앙로 110","jibunAddr":"부산광역시 기장군 정관읍 방곡리 442","openHours":"정시","maleToilets":3,"femaleToilets":2,"disabled":true,"diaperTable":false,"emergencyBell":false,"cctv":true,"managerTel":"0519910777","source":"public","category":"public"},{"id":"202434000000100030","name":"기장군도시관리공단","lat":35.323001,"lng":129.183609,"roadAddr":"부산광역시 기장군 정관읍 정관덕산길 33, 기장군도시관리공단","jibunAddr":"부산광역시 기장군 정관읍 방곡리 269-3 기장군도시관리공단","openHours":"정시","maleToilets":6,"femaleToilets":3,"disabled":false,"diaperTable":false,"emergencyBell":false,"cctv":false,"managerTel":"0517924700","source":"public","category":"public"},{"id":"202334000000100069","name":"구목정공원","lat":35.324387,"lng":129.17362,"jibunAddr":"부산광역시 기장군 정관읍 용수리 1354","openHours":"상시","maleToilets":2,"femaleToilets":3,"disabled":true,"diaperTable":true,"emergencyBell":true,"cctv":false,"managerTel":"0517924717","source":"public","category":"public"},{"id":"202434000000100021","name":"한국폴리텍대학동부산캠퍼스","lat":35.311294,"lng":129.179318,"roadAddr":"부산광역시 기장군 정관읍 산단4로 2-69, 한국폴리텍대학 동부산캠퍼스","jibunAddr":"부산광역시 기장군 정관읍 달산리 938-40 한국폴리텍대학 동부산캠퍼스","openHours":"정시","maleToilets":171,"femaleToilets":156,"disabled":false,"diaperTable":false,"emergencyBell":false,"cctv":false,"managerTel":"0516096000","source":"public","category":"public"},{"id":"202434000000100044","name":"정관읍경로식당","lat":35.322188,"lng":129.181896,"roadAddr":"부산광역시 기장군 정관읍 구연3로 27","jibunAddr":"부산광역시 기장군 정관읍 매학리 742","openHours":"정시","maleToilets":1,"femaleToilets":2,"disabled":true,"diaperTable":false,"emergencyBell":false,"cctv":false,"managerTel":"0517092884","source":"public","category":"public"},{"id":"202334000000100119","name":"연잎","lat":35.320339,"lng":129.189969,"jibunAddr":"부산광역시 기장군 정관읍 달산리 1220번지","openHours":"상시","maleToilets":5,"femaleToilets":4,"disabled":true,"diaperTable":true,"emergencyBell":true,"cctv":false,"managerTel":"0517924708","source":"public","category":"public"},{"id":"202334000000100212","name":"중앙공원","lat":35.322188,"lng":129.181896,"roadAddr":"부산광역시 기장군 정관읍 구연3로 27","jibunAddr":"부산광역시 기장군 정관읍 매학리 742","openHours":"상시","maleToilets":5,"femaleToilets":4,"disabled":true,"diaperTable":true,"emergencyBell":true,"cctv":false,"managerTel":"0517924726","source":"public","category":"public"},{"id":"202334000000100059","name":"정관보건지소","lat":35.325197,"lng":129.179377,"roadAddr":"부산광역시 기장군 정관읍 용수로 11, 정관보건지소","jibunAddr":"부산광역시 기장군 정관읍 용수리 1314-1 정관보건지소","openHours":"정시","maleToilets":16,"femaleToilets":12,"disabled":true,"diaperTable":true,"emergencyBell":false,"cctv":false,"managerTel":"0517092901","source":"public","category":"public"},{"id":"202334000000100118","name":"죽순","lat":35.319372,"lng":129.194855,"jibunAddr":"부산광역시 기장군 정관읍 달산리 1246번지","openHours":"상시","maleToilets":4,"femaleToilets":5,"disabled":true,"diaperTable":true,"emergencyBell":true,"cctv":true,"managerTel":"0517924717","source":"public","category":"public"},{"id":"202334000000100058","name":"정관어린이도서관","lat":35.323884,"lng":129.17762,"roadAddr":"부산광역시 기장군 정관읍 정관8로 11","jibunAddr":"부산광역시 기장군 정관읍 매학리 709","openHours":"정시","maleToilets":4,"femaleToilets":4,"disabled":true,"diaperTable":true,"emergencyBell":true,"cctv":true,"managerTel":"0517095388","source":"public","category":"public"},{"id":"202334000000100036","name":"정관읍교육행복센터","lat":35.325503,"lng":129.180292,"roadAddr":"부산광역시 기장군 정관읍 용수로 4, 정관읍행정복지센터","jibunAddr":"부산광역시 기장군 정관읍 용수리 141 정관읍행정복지센터","openHours":"정시","maleToilets":9,"femaleToilets":15,"disabled":true,"diaperTable":true,"emergencyBell":true,"cctv":false,"managerTel":"0517095247","source":"public","category":"public"},{"id":"202434000000100013","name":"윗골공원","lat":35.323884,"lng":129.17762,"roadAddr":"부산광역시 기장군 정관읍 정관8로 11","jibunAddr":"부산광역시 기장군 정관읍 매학리 709","openHours":"상시","maleToilets":3,"femaleToilets":2,"disabled":false,"diaperTable":false,"emergencyBell":false,"cctv":false,"managerTel":"0517924726","source":"public","category":"public"},{"id":"202434000000100031","name":"정관지구대","lat":35.325332,"lng":129.178884,"roadAddr":"부산광역시 기장군 정관읍 용수로 17","jibunAddr":"부산광역시 기장군 정관읍 용수리 1314-2","openHours":"정시","maleToilets":10,"femaleToilets":2,"disabled":false,"diaperTable":false,"emergencyBell":false,"cctv":false,"managerTel":"0517273112","source":"public","category":"public"},{"id":"202334000000100196","name":"정관도서관","lat":35.325212,"lng":129.181435,"roadAddr":"부산광역시 기장군 정관읍 정관중앙로 100","jibunAddr":"부산광역시 기장군 정관읍 방곡리 442","openHours":"정시","maleToilets":20,"femaleToilets":20,"disabled":true,"diaperTable":true,"emergencyBell":true,"cctv":true,"managerTel":"0517093926","source":"public","category":"public"},{"id":"202334000000100038","name":"정관읍행정복지센터","lat":35.325503,"lng":129.180292,"roadAddr":"부산광역시 기장군 정관읍 용수로 4, 정관읍행정복지센터","jibunAddr":"부산광역시 기장군 정관읍 용수리 141 정관읍행정복지센터","openHours":"정시","maleToilets":7,"femaleToilets":5,"disabled":true,"diaperTable":true,"emergencyBell":true,"cctv":false,"managerTel":"0517095247","source":"public","category":"public"}]