[{"id":"202432900000101255","name":"동의과학대학교","lat":35.16585,"lng":129.072227,"roadAddr":"부산광역시 부산진구 양지로 54","jibunAddr":"부산광역시 부산진구 양정동 429-19","openHours":"정시","maleToilets":6,"femaleToilets":3,"disabled":true,"diaperTable":false,"emergencyBell":false,"cctv":false,"source":"public","category":"public"},{"id":"202432900000101067","name":"양정1동주민센터","lat":35.172144,"lng":129.068723,"roadAddr":"부산광역시 부산진구 동평로406번길 38","jibunAddr":"부산광역시 부산진구 양정동 397-5","openHours":"정시","maleToilets":13,"femaleToilets":7,"disabled":true,"diaperTable":false,"emergencyBell":false,"cctv":true,"source":"public","category":"public"},{"id":"202432900000101210","name":"부산양정동우체국","lat":35.170357,"lng":129.068605,"roadAddr":"부산광역시 부산진구 거제대로 22번길 20","openHours":"정시","maleToilets":1,"femaleToilets":0,"disabled":false,"diaperTable":false,"emergencyBell":false,"cctv":false,"managerTel":"0518520001","source":"public","category":"public"},{"id":"202432900000101083","name":"양정119안전센터","lat":35.174808,"lng":129.076677,"roadAddr":"부산광역시 부산진구 연수로 50, 양정119안전센터 (양정동)","openHours":"상시","maleToilets":5,"femaleToilets":3,"disabled":false,"diaperTable":false,"emergencyBell":false,"cctv":false,"source":"public","category":"public"},{"id":"202432900000101092","name":"지하철 양정역","lat":35.172967,"lng":129.071222,"roadAddr":"부산광역시 부산진구 중앙대로 지하 930","jibunAddr":"부산광역시 부산진구 양정동 408","openHours":"정시","maleToilets":10,"femaleToilets":5,"disabled":true,"diaperTable":true,"emergencyBell":true,"cctv":true,"source":"public","category":"public"},{"id":"202432900000101328","name":"양정시장","lat":35.172765,"lng":129.069762,"roadAddr":"부산광역시 부산진구 동평로420번길 18, 양정시장 (양정동)","openHours":"정시","maleToilets":6,"femaleToilets":2,"disabled":false,"diaperTable":false,"emergencyBell":false,"cctv":false,"source":"public","category":"public"},{"id":"202432900000101015","name":"남부산고속주유소","lat":35.176104,"lng":129.068057,"roadAddr":"부산광역시 부산진구 거제대로 84 (양정동)","jibunAddr":"부산광역시 부산진구 양정동 281","openHours":"정시","maleToilets":2,"femaleToilets":2,"disabled":false,"diaperTable":false,"emergencyBell":false,"cctv":false,"source":"public","category":"public"},{"id":"202432900000101136","name":"상수도사업본부","lat":35.175165,"lng":129.072352,"roadAddr":"부산광역시 부산진구 중앙대로955","jibunAddr":"부산광역시 부산진구 양정동 273-20번지","openHours":"정시","maleToilets":72,"femaleToilets":26,"disabled":true,"diaperTable":false,"emergencyBell":false,"cctv":false,"source":"public","category":"public"},{"id":"202432900000101032","name":"황령산레포츠공원(생태공원)","lat":35.157029,"lng":129.075383,"roadAddr":"부산광역시 부산진구 진남로328번길99","jibunAddr":"부산광역시 부산진구전포동327-39","openHours":"정시","maleToilets":5,"femaleToilets":2,"disabled":false,"diaperTable":false,"emergencyBell":true,"cctv":false,"managerTel":"0226007895","source":"public","category":"public"},{"id":"202432900000101030","name":"황령산레포츠공원(관리실)","lat":35.157029,"lng":129.075383,"roadAddr":"부산광역시 부산진구 진남로328번길99","jibunAddr":"부산광역시 부산진구 전포동327-39","openHours":"정시","maleToilets":6,"femaleToilets":2,"disabled":true,"diaperTable":false,"emergencyBell":true,"cctv":false,"managerTel":"0226007895","source":"public","category":"public"},{"id":"202432900000101044","name":"황령산 금성사","lat":35.157291,"lng":129.077307,"roadAddr":"부산광역시 부산진구 전포동 산29-1","jibunAddr":"부산광역시 부산진구 전포동 산29-1","openHours":"상시","maleToilets":2,"femaleToilets":1,"disabled":false,"diaperTable":false,"emergencyBell":true,"cctv":true,"source":"public","category":"public"},{"id":"202432900000101257","name":"동의대학교 양정캠퍼스","lat":35.169046,"lng":129.076734,"roadAddr":"부산광역시 부산진구 양정로 52-57","jibunAddr":"부산광역시 부산진구 양정동 산 45-1","openHours":"정시","maleToilets":6,"femaleToilets":2,"disabled":true,"diaperTable":false,"emergencyBell":false,"cctv":false,"source":"public","category":"public"},{"id":"202432900000101068","name":"양정2동주민센터","lat":35.172873,"lng":129.075726,"roadAddr":"부산광역시 부산진구 양정로15번길 26","jibunAddr":"부산광역시 부산진구 양정동 52-2","openHours":"정시","maleToilets":3,"femaleToilets":2,"disabled":false,"diaperTable":false,"emergencyBell":false,"cctv":false,"source":"public","category":"public"},{"id":"202432900000101165","name":"양정어르신쉼터","lat":35.170377,"lng":129.071086,"roadAddr":"부산광역시 부산진구 양지로17번길 39","jibunAddr":"부산광역시 부산진구 양정동 355-42","openHours":"정시","maleToilets":3,"femaleToilets":3,"disabled":false,"diaperTable":false,"emergencyBell":false,"cctv":false,"source":"public","category":"public"},{"id":"202432900000101016","name":"하마정주유소","lat":35.174054,"lng":129.068364,"roadAddr":"부산광역시 부산진구 동평로 398, 하마정주유소 (양정동)","openHours":"정시","maleToilets":2,"femaleToilets":1,"disabled":false,"diaperTable":false,"emergencyBell":false,"cctv":false,"source":"public","category":"public"},{"id":"202532900000100001","name":"전포1배수지","lat":35.166842,"lng":129.070721,"jibunAddr":"부산광역시 부산진구 양정동 418-247","openHours":"상시","maleToilets":2,"femaleToilets":2,"disabled":true,"diaperTable":true,"emergencyBell":true,"cctv":false,"source":"public","category":"public"},{"id":"202432900000101037","name":"양정라이온스공원","lat":35.166367,"lng":129.068579,"roadAddr":"부산광역시 부산진구 중앙대로848번길","jibunAddr":"부산광역시 부산진구 전포동109-1","openHours":"상시","maleToilets":4,"femaleToilets":6,"disabled":true,"diaperTable":true,"emergencyBell":true,"cctv":true,"managerTel":"0516056315","source":"public","category":"public"},{"id":"202432900000101268","name":"부산여자대학교","lat":35.169237,"lng":129.072055,"roadAddr":"부산광역시 부산진구 진남로 506","jibunAddr":"부산광역시 부산진구 양정동 17-7","openHours":"정시","maleToilets":3,"femaleToilets":1,"disabled":false,"diaperTable":false,"emergencyBell":false,"cctv":false,"source":"public","category":"public"},{"id":"202432900000101084","name":"양정2치안센터","lat":35.175445,"lng":129.072907,"roadAddr":"부산광역시 부산진구 중앙대로 961, 양정2치안센터 (양정동)","openHours":"정시","maleToilets":2,"femaleToilets":0,"disabled":false,"diaperTable":false,"emergencyBell":false,"cctv":false,"managerTel":"0518620113","source":"public","category":"public"},{"id":"202432900000101031","name":"황령산레포츠공원(생활체육센터)","lat":35.157029,"lng":129.075383,"roadAddr":"부산광역시 부산진구 진남로328번길99","jibunAddr":"부산광역시 부산진구 전포동327-39","openHours":"정시","maleToilets":7,"femaleToilets":6,"disabled":true,"diaperTable":false,"emergencyBell":true,"cctv":false,"managerTel":"0226007895","source":"public","category":"public"},{"id":"202433000000100192","name":"수안체육공원 공중화장실","lat":35.199023,"lng":129.081356,"roadAddr":"부산광역시 동래구 온천천로 235","jibunAddr":"부산광역시 동래구 수안동 7-11","openHours":"상시","maleToilets":2,"femaleToilets":2,"disabled":true,"diaperTable":false,"emergencyBell":true,"cctv":false,"source":"public","category":"public"},{"id":"202433000000100205","name":"낙민공원 공중화장실","lat":35.195293,"lng":129.097192,"roadAddr":"부산광역시 동래구 안남로 47","jibunAddr":"부산광역시 동래구 낙민동 92-8","openHours":"상시","maleToilets":1,"femaleToilets":1,"disabled":true,"diaperTable":false,"emergencyBell":true,"cctv":false,"source":"public","category":"public"},{"id":"202433000000100244","name":"충렬사","lat":35.199559,"lng":129.095993,"roadAddr":"부산광역시 동래구 충렬대로 345","jibunAddr":"부산광역시 동래구 안락동 421-33","openHours":"정시","maleToilets":7,"femaleToilets":5,"disabled":true,"diaperTable":true,"emergencyBell":true,"cctv":false,"source":"public","category":"public"},{"id":"202433000000100176","name":"동래구 장애인복지관","lat":35.197042,"lng":129.100383,"roadAddr":"부산광역시 동래구 충렬대로 386","jibunAddr":"부산광역시 동래구 안락동 436-19","openHours":"정시","maleToilets":16,"femaleToilets":12,"disabled":true,"diaperTable":false,"emergencyBell":false,"cctv":false,"source":"public","category":"public"},{"id":"202433000000100199","name":"영산홍화장실","lat":35.193389,"lng":129.093885,"roadAddr":"부산광역시 동래구 온천천로 372","jibunAddr":"부산광역시 동래구 낙민동 87","openHours":"상시","maleToilets":3,"femaleToilets":4,"disabled":true,"diaperTable":true,"emergencyBell":true,"cctv":false,"source":"public","category":"public"},{"id":"202433000000100209","name":"안락누리도서관","lat":35.196986,"lng":129.10771,"roadAddr":"부산광역시 동래구 명안로10번길 64","jibunAddr":"부산광역시 동래구 안락동 459-4","openHours":"정시","maleToilets":8,"femaleToilets":7,"disabled":true,"diaperTable":true,"emergencyBell":false,"cctv":true,"source":"public","category":"public"},{"id":"202433000000100256","name":"부산사회복지종합센터","lat":35.197776,"lng":129.090763,"roadAddr":"부산광역시 동래구 낙민로 25","jibunAddr":"부산광역시 동래구 낙민동 127-4","openHours":"정시","maleToilets":10,"femaleToilets":31,"disabled":true,"diaperTable":true,"emergencyBell":true,"cctv":false,"source":"public","category":"public"},{"id":"202433000000100231","name":"안락제1동 행정복지센터","lat":35.197112,"lng":129.098583,"roadAddr":"부산광역시 동래구 안연로110번길 9","jibunAddr":"부산광역시 동래구 안락동 433-24","openHours":"정시","maleToilets":4,"femaleToilets":4,"disabled":true,"diaperTable":true,"emergencyBell":false,"cctv":false,"source":"public","category":"public"},{"id":"202433000000100282","name":"동래역(동해남부선)","lat":35.197242,"lng":129.091105,"roadAddr":"부산광역시 동래구 낙민로 27","jibunAddr":"부산광역시 동래구 낙민동 130-4","openHours":"불규칙","maleToilets":9,"femaleToilets":10,"disabled":true,"diaperTable":true,"emergencyBell":true,"cctv":false,"source":"public","category":"public"},{"id":"202433000000100218","name":"수민동 행정복지센터","lat":35.196005,"lng":129.091034,"roadAddr":"부산광역시 동래구 온천천로339번길 48","jibunAddr":"부산광역시 동래구 낙민동 135-10","openHours":"정시","maleToilets":6,"femaleToilets":8,"disabled":true,"diaperTable":false,"emergencyBell":false,"cctv":false,"source":"public","category":"public"},{"id":"202433000000100203","name":"벚꽃화장실","lat":35.195466,"lng":129.085013,"roadAddr":"부산광역시 동래구 온천천로 288","jibunAddr":"부산광역시 동래구 수안동 50-2","openHours":"상시","maleToilets":2,"femaleToilets":2,"disabled":false,"diaperTable":false,"emergencyBell":true,"cctv":false,"source":"public","category":"public"},{"id":"202433000000100271","name":"충렬사 지하철역(4호선)","lat":35.199693,"lng":129.097539,"roadAddr":"부산광역시 동래구 반송로 지하 205","jibunAddr":"부산광역시 동래구 안락동 473","openHours":"정시","maleToilets":6,"femaleToilets":7,"disabled":true,"diaperTable":true,"emergencyBell":true,"cctv":true,"source":"public","category":"public"},{"id":"202433000000100229","name":"사직제3동 행정복지센터","lat":35.199439,"lng":129.069432,"roadAddr":"부산광역시 동래구 아시아드대로154번길 79","jibunAddr":"부산광역시 동래구 사직동 123-23","openHours":"정시","maleToilets":2,"femaleToilets":1,"disabled":true,"diaperTable":false,"emergencyBell":false,"cctv":false,"source":"public","category":"public"},{"id":"202433000000100200","name":"칸나화장실","lat":35.190837,"lng":129.107521,"roadAddr":"부산광역시 동래구 온천천자전거길 987","jibunAddr":"부산광역시 동래구 안락동 1070-2","openHours":"상시","maleToilets":0,"femaleToilets":2,"disabled":true,"diaperTable":false,"emergencyBell":true,"cctv":false,"source":"public","category":"public"},{"id":"202433000000100207","name":"동래구청","lat":35.196693,"lng":129.092825,"roadAddr":"부산광역시 동래구 온천천로359번길 70","jibunAddr":"부산광역시 동래구 낙민동 150-3","openHours":"정시","maleToilets":64,"femaleToilets":73,"disabled":true,"diaperTable":false,"emergencyBell":true,"cctv":false,"source":"public","category":"public"},{"id":"202433000000100281","name":"안락역(동해남부선)","lat":35.196021,"lng":129.100549,"roadAddr":"부산광역시 동래구 안연로98번길 57","jibunAddr":"부산광역시 동래구 안락동 201-2","openHours":"불규칙","maleToilets":10,"femaleToilets":10,"disabled":true,"diaperTable":true,"emergencyBell":true,"cctv":false,"source":"public","category":"public"},{"id":"202433000000100286","name":"낙민파출소","lat":35.193796,"lng":129.092476,"roadAddr":"부산광역시 동래구 온천천로 359, 낙민파출소 (낙민동)","jibunAddr":"부산광역시 동래구 낙민동 82-17 낙민파출소","openHours":"정시","maleToilets":1,"femaleToilets":0,"disabled":false,"diaperTable":false,"emergencyBell":false,"cctv":false,"source":"public","category":"public"},{"id":"202433000000100204","name":"카페거리화장실","lat":35.191895,"lng":129.100225,"roadAddr":"부산광역시 동래구 온천천로 432","jibunAddr":"부산광역시 동래구 안락동 684-4","openHours":"상시","maleToilets":1,"femaleToilets":2,"disabled":true,"diaperTable":true,"emergencyBell":true,"cctv":false,"source":"public","category":"public"},{"id":"202433000000100186","name":"한국전력 동래지사","lat":35.196892,"lng":129.104726,"roadAddr":"부산광역시 동래구 충렬대로 423","jibunAddr":"부산광역시 동래구 안락동 451-10","openHours":"정시","maleToilets":16,"femaleToilets":12,"disabled":false,"diaperTable":false,"emergencyBell":false,"cctv":false,"source":"public","category":"public"},{"id":"202433000000100181","name":"충렬지구대","lat":35.199635,"lng":129.097106,"roadAddr":"부산광역시 동래구 반송로 207","jibunAddr":"부산광역시 동래구 안락동 420-77","openHours":"정시","maleToilets":2,"femaleToilets":1,"disabled":true,"diaperTable":false,"emergencyBell":false,"cctv":false,"source":"public","category":"public"},{"id":"202433000000100230","name":"안락제2동 행정복지센터","lat":35.197762,"lng":129.110072,"roadAddr":"부산광역시 동래구 명안로18번길 103","jibunAddr":"부산광역시 동래구 안락동 464-38","openHours":"정시","maleToilets":3,"femaleToilets":2,"disabled":true,"diaperTable":false,"emergencyBell":false,"cctv":false,"source":"public","category":"public"},{"id":"202433000000100177","name":"수안119안전센터","lat":35.198151,"lng":129.083814,"roadAddr":"부산광역시 동래구 명륜로45번길 7","jibunAddr":"부산광역시 동래구 수안동 11-5","openHours":"정시","maleToilets":12,"femaleToilets":1,"disabled":false,"diaperTable":false,"emergencyBell":false,"cctv":false,"source":"public","category":"public"},{"id":"202333100000100222","name":"황령산 봉수대","lat":35.15687,"lng":129.0823,"roadAddr":"부산광역시 남구 황령산로 391-40 (대연동)","jibunAddr":"부산광역시 남구 대연동 산 53-1","openHours":"상시","maleToilets":3,"femaleToilets":2,"disabled":false,"diaperTable":false,"emergencyBell":true,"cctv":true,"managerTel":"0516074448","source":"public","category":"public"},{"id":"202433700000100279","name":"연동시장","lat":35.188843,"lng":129.092523,"roadAddr":"부산광역시 연제구 연동로8번길 22 (연산동)","jibunAddr":"부산광역시 연제구 연산동 312-18","openHours":"상시","maleToilets":2,"femaleToilets":1,"disabled":false,"diaperTable":false,"emergencyBell":false,"cctv":false,"source":"public","category":"public"},{"id":"202433700000100271","name":"워크재활의학과병원","lat":35.186747,"lng":129.084182,"roadAddr":"부산광역시 연제구 고분로13번길 15(연산동)","jibunAddr":"부산광역시 연제구 연산동 603-8","openHours":"정시","maleToilets":6,"femaleToilets":5,"disabled":true,"diaperTable":false,"emergencyBell":false,"cctv":false,"source":"public","category":"public"},{"id":"202433700000100301","name":"진도빌딩","lat":35.184427,"lng":129.080855,"roadAddr":"부산광역시 연제구 중앙대로 1084(연산동)","jibunAddr":"부산광역시 연제구 연산동 702-10","openHours":"정시","maleToilets":4,"femaleToilets":2,"disabled":false,"diaperTable":false,"emergencyBell":false,"cctv":false,"source":"public","category":"public"},{"id":"202433700000100309","name":"금룡산 배드민턴장","lat":35.176208,"lng":129.079741,"roadAddr":"부산광역시 연제구","jibunAddr":"부산광역시 연제구 거제동 산52","openHours":"상시","maleToilets":2,"femaleToilets":2,"disabled":false,"diaperTable":false,"emergencyBell":false,"cctv":false,"managerTel":"0516654442","source":"public","category":"public"},{"id":"202433700000100305","name":"㈜BYC마트","lat":35.190969,"lng":129.079764,"roadAddr":"부산광역시 연제구 중앙대로1159(연산동)","jibunAddr":"부산광역시 연제구 연산동 1122-52","openHours":"정시","maleToilets":4,"femaleToilets":2,"disabled":false,"diaperTable":false,"emergencyBell":false,"cctv":false,"source":"public","category":"public"},{"id":"202433700000100219","name":"거제(동해선)","lat":35.189511,"lng":129.07429,"roadAddr":"부산광역시 연제구 법원남로9번길 17","jibunAddr":"부산광역시 연제구 거제동 419-2","openHours":"정시","maleToilets":12,"femaleToilets":14,"disabled":true,"diaperTable":true,"emergencyBell":true,"cctv":false,"managerTel":"15447788","source":"public","category":"public"},{"id":"202433700000100273","name":"감사드림주유소","lat":35.17734,"lng":129.068457,"roadAddr":"부산광역시 연제구 거제대로 98(거제동)","jibunAddr":"부산광역시 연제구 거제동 718-22","openHours":"상시","maleToilets":2,"femaleToilets":1,"disabled":true,"diaperTable":false,"emergencyBell":false,"cctv":false,"source":"public","category":"public"},{"id":"202433700000100236","name":"연제구청 (1층)","lat":35.176212,"lng":129.079746,"roadAddr":"부산광역시 연제구 연제로 2","jibunAddr":"부산광역시 연제구 연산동 1555","openHours":"정시","maleToilets":4,"femaleToilets":3,"disabled":true,"diaperTable":true,"emergencyBell":true,"cctv":true,"managerTel":"0516654988","source":"public","category":"public"},{"id":"202433700000100232","name":"부산과학교육원","lat":35.183231,"lng":129.100836,"roadAddr":"부산광역시 연제구 토곡로 66","jibunAddr":"부산광역시 연제구 연산동 3-1","openHours":"정시","maleToilets":17,"femaleToilets":17,"disabled":false,"diaperTable":false,"emergencyBell":false,"cctv":false,"source":"public","category":"public"},{"id":"202433700000100242","name":"연산4동행정복지센터 (1층)","lat":35.186288,"lng":129.084928,"roadAddr":"부산광역시 연제구 쌍미천로151번길 42","jibunAddr":"부산광역시 연제구 연산동 630-22","openHours":"정시","maleToilets":2,"femaleToilets":1,"disabled":true,"diaperTable":false,"emergencyBell":false,"cctv":false,"managerTel":"0516655851","source":"public","category":"public"},{"id":"202433700000100228","name":"연제도서관 지하, 1층, 2층","lat":35.174145,"lng":129.08297,"roadAddr":"부산광역시 연제구 황령산로 612","jibunAddr":"부산광역시 연제구 연산동 2302","openHours":"정시","maleToilets":15,"femaleToilets":10,"disabled":true,"diaperTable":true,"emergencyBell":false,"cctv":false,"managerTel":"0516655512","source":"public","category":"public"},{"id":"202433700000100220","name":"거제해맞이","lat":35.18117,"lng":129.068996,"roadAddr":"부산광역시 연제구 거제대로 123","jibunAddr":"부산광역시 연제구 거제동 676-1","openHours":"정시","maleToilets":9,"femaleToilets":10,"disabled":true,"diaperTable":true,"emergencyBell":true,"cctv":false,"managerTel":"15447788","source":"public","category":"public"},{"id":"202433700000100224","name":"연제구 보훈회관","lat":35.194811,"lng":129.080758,"roadAddr":"부산광역시 연제구 명륜로2번길9","jibunAddr":"부산광역시 연제구 거제동 1426-10","openHours":"정시","maleToilets":6,"femaleToilets":2,"disabled":true,"diaperTable":false,"emergencyBell":false,"cctv":false,"managerTel":"0516654314","source":"public","category":"public"},{"id":"202433700000100226","name":"거제종합사회복지관","lat":35.188602,"lng":129.070853,"roadAddr":"부산광역시 연제구 아시아드대로46번길 45","jibunAddr":"부산광역시 연제구 거제동 901-8","openHours":"정시","maleToilets":18,"femaleToilets":18,"disabled":true,"diaperTable":false,"emergencyBell":false,"cctv":false,"managerTel":"0515078171","source":"public","category":"public"},{"id":"202433700000100280","name":"영남종합시장","lat":35.18045,"lng":129.07776,"roadAddr":"부산광역시 연제구 중앙대로 1030-1(연산동)","jibunAddr":"부산광역시 연제구 연산동 1328-15","openHours":"상시","maleToilets":3,"femaleToilets":2,"disabled":false,"diaperTable":false,"emergencyBell":false,"cctv":false,"source":"public","category":"public"},{"id":"202433700000100284","name":"한양타워빌딩","lat":35.195982,"lng":129.081498,"roadAddr":"부산광역시 연제구 명륜로 10(거제동)","jibunAddr":"부산광역시 연제구 거제동 150-6","openHours":"정시","maleToilets":11,"femaleToilets":5,"disabled":false,"diaperTable":false,"emergencyBell":false,"cctv":false,"source":"public","category":"public"},{"id":"202433700000100288","name":"연산 해수피아","lat":35.191607,"lng":129.085257,"roadAddr":"부산광역시 연제구 거제천로 258(연산동)","jibunAddr":"부산광역시 연제구 연산동 581-4","openHours":"상시","maleToilets":5,"femaleToilets":2,"disabled":false,"diaperTable":false,"emergencyBell":false,"cctv":false,"source":"public","category":"public"},{"id":"202433700000100290","name":"현대오일뱅크 셀프주유소","lat":35.192792,"lng":129.079536,"roadAddr":"부산광역시 연제구 중앙대로 1179(거제동)","jibunAddr":"부산광역시 연제구 거제동 1-4","openHours":"상시","maleToilets":3,"femaleToilets":1,"disabled":false,"diaperTable":false,"emergencyBell":false,"cctv":false,"source":"public","category":"public"},{"id":"202433700000100298","name":"연제주유소(천일)","lat":35.17572,"lng":129.080262,"roadAddr":"부산광역시 연제구 연수로 87(연산동)","jibunAddr":"부산광역시 연제구 연산동 824-19","openHours":"상시","maleToilets":2,"femaleToilets":1,"disabled":false,"diaperTable":false,"emergencyBell":false,"cctv":false,"source":"public","category":"public"},{"id":"202433700000100294","name":"금천주유소","lat":35.183304,"lng":129.107411,"roadAddr":"부산광역시 연제구 과정로 134(연산동)","jibunAddr":"부산광역시 연제구 연산동 480-19","openHours":"상시","maleToilets":3,"femaleToilets":1,"disabled":false,"diaperTable":false,"emergencyBell":false,"cctv":false,"source":"public","category":"public"},{"id":"202433700000100313","name":"물만골 체육시설","lat":35.176208,"lng":129.079741,"roadAddr":"부산광역시 연제구","jibunAddr":"부산광역시 연제구 연산동 산183","openHours":"상시","maleToilets":2,"femaleToilets":2,"disabled":false,"diaperTable":false,"emergencyBell":false,"cctv":false,"managerTel":"0516654442","source":"public","category":"public"},{"id":"202433700000100317","name":"온천천시민공원 수국","lat":35.176208,"lng":129.079741,"roadAddr":"부산광역시 연제구","jibunAddr":"부산광역시 연제구 거제동 1462-42","openHours":"상시","maleToilets":2,"femaleToilets":2,"disabled":false,"diaperTable":false,"emergencyBell":true,"cctv":false,"managerTel":"0516654981","source":"public","category":"public"},{"id":"202433700000100347","name":"연제고등학교","lat":35.176208,"lng":129.079741,"roadAddr":"부산광역시 연제구","jibunAddr":"부산광역시 연제구 연산동 2143","openHours":"정시","maleToilets":7,"femaleToilets":4,"disabled":false,"diaperTable":false,"emergencyBell":false,"cctv":false,"managerTel":"0518502700","source":"public","category":"public"},{"id":"202433700000100303","name":"해성빌딩","lat":35.188945,"lng":129.080597,"roadAddr":"부산광역시 연제구 중앙대로 1135(연산동)","jibunAddr":"부산광역시 연제구 연산동 1123-21","openHours":"정시","maleToilets":2,"femaleToilets":2,"disabled":true,"diaperTable":false,"emergencyBell":false,"cctv":false,"source":"public","category":"public"},{"id":"202433700000100307","name":"화지산 체육시설","lat":35.176208,"lng":129.079741,"roadAddr":"부산광역시 연제구","jibunAddr":"부산광역시 연제구 거제동 산57-2","openHours":"상시","maleToilets":2,"femaleToilets":2,"disabled":false,"diaperTable":false,"emergencyBell":false,"cctv":false,"managerTel":"0516654442","source":"public","category":"public"},{"id":"202433700000100257","name":"연산","lat":35.186072,"lng":129.081505,"roadAddr":"부산광역시 연제구 중앙대로 지하 1101","jibunAddr":"부산광역시 연제구 연산동 1515-1","openHours":"정시","maleToilets":15,"femaleToilets":16,"disabled":true,"diaperTable":true,"emergencyBell":true,"cctv":true,"managerTel":"0516407266","source":"public","category":"public"},{"id":"202433700000100253","name":"국민연금관리공단","lat":35.177864,"lng":129.075644,"roadAddr":"부산광역시 연제구 중앙대로 1000","jibunAddr":"부산광역시 연제구 연산동 1422-8","openHours":"정시","maleToilets":7,"femaleToilets":2,"disabled":false,"diaperTable":false,"emergencyBell":false,"cctv":false,"source":"public","category":"public"},{"id":"202433700000100233","name":"부산교육연수원","lat":35.183231,"lng":129.100836,"roadAddr":"부산광역시 연제구 토곡로 66","jibunAddr":"부산광역시 연제구 연산동 3-1","openHours":"정시","maleToilets":3,"femaleToilets":3,"disabled":false,"diaperTable":false,"emergencyBell":false,"cctv":false,"source":"public","category":"public"},{"id":"202433700000100237","name":"부산광역시청","lat":35.179926,"lng":129.075095,"roadAddr":"부산광역시 연제구 중앙대로 1001","jibunAddr":"부산광역시 연제구 연산동 1000","openHours":"상시","maleToilets":30,"femaleToilets":17,"disabled":true,"diaperTable":true,"emergencyBell":true,"cctv":false,"source":"public","category":"public"},{"id":"202433700000100323","name":"과정공원","lat":35.176208,"lng":129.079741,"roadAddr":"부산광역시 연제구","jibunAddr":"부산광역시 연제구 연산동 407","openHours":"상시","maleToilets":3,"femaleToilets":3,"disabled":true,"diaperTable":true,"emergencyBell":true,"cctv":false,"managerTel":"0516654442","source":"public","category":"public"},{"id":"202433700000100292","name":"에너지드림주유소","lat":35.189801,"lng":129.08695,"roadAddr":"부산광역시 연제구 반송로 68(연산동)","jibunAddr":"부산광역시 연제구 연산동 589-2","openHours":"상시","maleToilets":2,"femaleToilets":1,"disabled":false,"diaperTable":false,"emergencyBell":false,"cctv":false,"source":"public","category":"public"},{"id":"202433700000100296","name":"신한양주유소","lat":35.189638,"lng":129.107494,"roadAddr":"부산광역시 연제구 연안로 20(연산동)","jibunAddr":"부산광역시 연제구 연산동 458-2","openHours":"상시","maleToilets":2,"femaleToilets":1,"disabled":false,"diaperTable":false,"emergencyBell":false,"cctv":false,"source":"public","category":"public"},{"id":"202433700000100310","name":"황령산 정상체육시설","lat":35.176208,"lng":129.079741,"roadAddr":"부산광역시 연제구","jibunAddr":"부산광역시 연제구 연산동 산180-1","openHours":"상시","maleToilets":3,"femaleToilets":3,"disabled":false,"diaperTable":false,"emergencyBell":false,"cctv":false,"managerTel":"0516654442","source":"public","category":"public"},{"id":"202433700000100314","name":"함박골 체육시설","lat":35.176208,"lng":129.079741,"roadAddr":"부산광역시 연제구","jibunAddr":"부산광역시 연제구 연산동 산184","openHours":"상시","maleToilets":2,"femaleToilets":2,"disabled":false,"diaperTable":false,"emergencyBell":false,"cctv":false,"managerTel":"0516654442","source":"public","category":"public"},{"id":"202433700000100318","name":"온천천시민공원 동백","lat":35.176208,"lng":129.079741,"roadAddr":"부산광역시 연제구","jibunAddr":"부산광역시 연제구 연산동 2042-1","openHours":"상시","maleToilets":3,"femaleToilets":2,"disabled":true,"diaperTable":false,"emergencyBell":true,"cctv":false,"managerTel":"0516654981","source":"public","category":"public"},{"id":"202433700000100247","name":"거제3동 행정복지센터 (1층)","lat":35.184286,"lng":129.071201,"roadAddr":"부산광역시 연제구 거제대로 180","jibunAddr":"부산광역시 연제구 거제동 581-1","openHours":"정시","maleToilets":3,"femaleToilets":4,"disabled":false,"diaperTable":false,"emergencyBell":false,"cctv":false,"managerTel":"0516655751","source":"public","category":"public"},{"id":"202433700000100243","name":"연산3동행정복지센터 (1층)","lat":35.173317,"lng":129.094219,"roadAddr":"부산광역시 연제구 연수로 218번길 4","jibunAddr":"부산광역시 연제구 연산동 1799-73","openHours":"정시","maleToilets":2,"femaleToilets":2,"disabled":true,"diaperTable":false,"emergencyBell":false,"cctv":false,"managerTel":"0516655831","source":"public","category":"public"},{"id":"202433700000100297","name":"영웅주유소","lat":35.19106,"lng":129.099862,"roadAddr":"부산광역시 연제구 온천천남로 86(연산동)","jibunAddr":"부산광역시 연제구 연산동 386-1","openHours":"상시","maleToilets":2,"femaleToilets":1,"disabled":false,"diaperTable":false,"emergencyBell":false,"cctv":false,"source":"public","category":"public"},{"id":"202433700000100312","name":"바람고개 체육시설","lat":35.176208,"lng":129.079741,"roadAddr":"부산광역시 연제구","jibunAddr":"부산광역시 연제구 연산동 산51-1","openHours":"상시","maleToilets":2,"femaleToilets":2,"disabled":false,"diaperTable":false,"emergencyBell":false,"cctv":false,"managerTel":"0516654442","source":"public","category":"public"},{"id":"202433700000100316","name":"연제문화체육시설","lat":35.176208,"lng":129.079741,"roadAddr":"부산광역시 연제구","jibunAddr":"부산광역시 연제구 연산동 952-462","openHours":"상시","maleToilets":4,"femaleToilets":4,"disabled":true,"diaperTable":true,"emergencyBell":true,"cctv":false,"managerTel":"0516654124","source":"public","category":"public"},{"id":"202433700000100300","name":"아시아드새마을 금고","lat":35.188975,"lng":129.068352,"roadAddr":"부산광역시 연제구 아시아드대로46번길 3(거제동)","jibunAddr":"부산광역시 연제구 거제동 1011-1","openHours":"정시","maleToilets":2,"femaleToilets":1,"disabled":false,"diaperTable":false,"emergencyBell":false,"cctv":false,"source":"public","category":"public"},{"id":"202433700000100304","name":"재능빌딩","lat":35.184682,"lng":129.080168,"roadAddr":"부산광역시 연제구 중앙대로 1081(연산동)","jibunAddr":"부산광역시 연제구 연산동 1287-9","openHours":"정시","maleToilets":4,"femaleToilets":2,"disabled":true,"diaperTable":false,"emergencyBell":false,"cctv":false,"source":"public","category":"public"},{"id":"202433700000100308","name":"금룡산 체육시설","lat":35.176208,"lng":129.079741,"roadAddr":"부산광역시 연제구","jibunAddr":"부산광역시 연제구 거제동 산79","openHours":"상시","maleToilets":2,"femaleToilets":2,"disabled":false,"diaperTable":false,"emergencyBell":false,"cctv":false,"managerTel":"0516654442","source":"public","category":"public"},{"id":"202433700000100282","name":"거제시장","lat":35.181889,"lng":129.072661,"roadAddr":"부산광역시 연제구 거제시장로14번길 28(거제동)","jibunAddr":"부산광역시 연제구 거제동 486-1","openHours":"상시","maleToilets":5,"femaleToilets":4,"disabled":false,"diaperTable":false,"emergencyBell":false,"cctv":false,"source":"public","category":"public"},{"id":"202433700000100286","name":"정림빌딩","lat":35.191841,"lng":129.074691,"roadAddr":"부산광역시 연제구 법원로 34(거제동)","jibunAddr":"부산광역시 연제구 거제동 1487-1","openHours":"정시","maleToilets":4,"femaleToilets":2,"disabled":true,"diaperTable":false,"emergencyBell":false,"cctv":false,"source":"public","category":"public"},{"id":"202433700000100320","name":"온천천시민공원 영산홍","lat":35.176208,"lng":129.079741,"roadAddr":"부산광역시 연제구","jibunAddr":"부산광역시 연제구 연산동 2042-1","openHours":"상시","maleToilets":3,"femaleToilets":2,"disabled":false,"diaperTable":false,"emergencyBell":true,"cctv":false,"managerTel":"0516654981","source":"public","category":"public"},{"id":"202433700000100324","name":"한들공원","lat":35.176208,"lng":129.079741,"roadAddr":"부산광역시 연제구","jibunAddr":"부산광역시 연제구 연산동 2314","openHours":"상시","maleToilets":2,"femaleToilets":2,"disabled":true,"diaperTable":true,"emergencyBell":true,"cctv":false,"managerTel":"0516654442","source":"public","category":"public"},{"id":"202433700000100240","name":"연산6동행정복지센터 (1층)","lat":35.177428,"lng":129.089726,"roadAddr":"부산광역시 연제구 쌍미천로52번길 2","jibunAddr":"부산광역시 연제구 연산동 2149-2","openHours":"정시","maleToilets":6,"femaleToilets":9,"disabled":true,"diaperTable":false,"emergencyBell":false,"cctv":false,"managerTel":"0516655894","source":"public","category":"public"},{"id":"202433700000100244","name":"연산2동행정복지센터 (1층)","lat":35.179974,"lng":129.079295,"roadAddr":"부산광역시 연제구 중앙대로1038번길 39","jibunAddr":"부산광역시 연제구 연산동 1597-12","openHours":"정시","maleToilets":2,"femaleToilets":1,"disabled":true,"diaperTable":false,"emergencyBell":false,"cctv":false,"managerTel":"0516655811","source":"public","category":"public"},{"id":"202433700000100248","name":"거제2동 행정복지센터 (1층)","lat":35.187762,"lng":129.070287,"roadAddr":"부산광역시 연제구 아시아드대로22번길 19","jibunAddr":"부산광역시 연제구 거제동 1180-8","openHours":"정시","maleToilets":4,"femaleToilets":3,"disabled":true,"diaperTable":false,"emergencyBell":false,"cctv":false,"managerTel":"0516655701","source":"public","category":"public"},{"id":"202433700000100218","name":"교대(동해선)","lat":35.193705,"lng":129.079477,"roadAddr":"부산광역시 연제구 중앙대로 1196","jibunAddr":"부산광역시 연제구 거제동 42-3","openHours":"정시","maleToilets":16,"femaleToilets":11,"disabled":true,"diaperTable":true,"emergencyBell":true,"cctv":false,"managerTel":"15447788","source":"public","category":"public"},{"id":"202433700000100281","name":"연미새시장","lat":35.174447,"lng":129.094573,"roadAddr":"부산광역시 연제구 배산로23번길 3(연산동)","jibunAddr":"부산광역시 연제구 연산동 2124-16","openHours":"상시","maleToilets":5,"femaleToilets":3,"disabled":false,"diaperTable":false,"emergencyBell":false,"cctv":false,"source":"public","category":"public"},{"id":"202433700000100289","name":"토곡셀프주유소","lat":35.188027,"lng":129.104824,"roadAddr":"부산광역시 연제구 과정로 208(연산동)","jibunAddr":"부산광역시 연제구 연산동 401-30","openHours":"상시","maleToilets":2,"femaleToilets":1,"disabled":false,"diaperTable":false,"emergencyBell":false,"cctv":false,"source":"public","category":"public"},{"id":"202433700000100285","name":"GS칼텍스 아시아드주유소","lat":35.180088,"lng":129.069474,"roadAddr":"부산광역시 연제구 거제대로 130(거제동)","jibunAddr":"부산광역시 연제구 거제동 740-81","openHours":"상시","maleToilets":2,"femaleToilets":1,"disabled":false,"diaperTable":false,"emergencyBell":false,"cctv":false,"source":"public","category":"public"},{"id":"202433700000100221","name":"푸른도시가꾸기사업소 화장실","lat":35.185179,"lng":129.105355,"roadAddr":"부산광역시 연제구 고분로191번길6","jibunAddr":"부산광역시 연제구 연산동 243-2","openHours":"정시","maleToilets":4,"femaleToilets":2,"disabled":true,"diaperTable":false,"emergencyBell":false,"cctv":false,"managerTel":"0518887115","source":"public","category":"public"},{"id":"202433700000100229","name":"시립연산도서관","lat":35.185948,"lng":129.104008,"roadAddr":"부산광역시 연제구 고분로191번길 16","jibunAddr":"부산광역시 연제구 연산동 255-1","openHours":"정시","maleToilets":19,"femaleToilets":12,"disabled":false,"diaperTable":false,"emergencyBell":false,"cctv":false,"source":"public","category":"public"},{"id":"202433700000100225","name":"부산지방국세청","lat":35.176799,"lng":129.078174,"roadAddr":"부산광역시 연제구 연제로 12","jibunAddr":"부산광역시 연제구 연산동 1557","openHours":"정시","maleToilets":89,"femaleToilets":33,"disabled":false,"diaperTable":false,"emergencyBell":false,"cctv":false,"source":"public","category":"public"},{"id":"202433700000100235","name":"연제구보건소","lat":35.176212,"lng":129.079746,"roadAddr":"부산광역시 연제구 연제로 2, 연제구보건소","jibunAddr":"부산광역시 연제구 연산동 1555","openHours":"정시","maleToilets":15,"femaleToilets":8,"disabled":false,"diaperTable":false,"emergencyBell":false,"cctv":false,"managerTel":"0516654811","source":"public","category":"public"},{"id":"202433700000100239","name":"연산8동 행정복지센터(1층)","lat":35.187087,"lng":129.10102,"roadAddr":"부산광역시 연제구 과정로251번길 33","jibunAddr":"부산광역시 연제구 연산동 408-20","openHours":"정시","maleToilets":2,"femaleToilets":1,"disabled":true,"diaperTable":false,"emergencyBell":false,"cctv":true,"managerTel":"0516655307","source":"public","category":"public"},{"id":"202433700000100231","name":"온천천시민공원 관리사무소","lat":35.192482,"lng":129.095101,"roadAddr":"부산광역시 연제구 온천천남로 39","jibunAddr":"부산광역시 연제구 연산동 503-1","openHours":"정시","maleToilets":5,"femaleToilets":4,"disabled":false,"diaperTable":false,"emergencyBell":false,"cctv":false,"source":"public","category":"public"},{"id":"202433700000100295","name":"부흥주유소","lat":35.182267,"lng":129.107462,"roadAddr":"부산광역시 연제구 과정로 120(연산동)","jibunAddr":"부산광역시 연제구 연산동489-14","openHours":"상시","maleToilets":4,"femaleToilets":2,"disabled":false,"diaperTable":false,"emergencyBell":false,"cctv":false,"source":"public","category":"public"},{"id":"202433700000100299","name":"연산제일(1,8,9동) 새마을금고","lat":35.189137,"lng":129.09416,"roadAddr":"부산광역시 연제구 과정로 306(연산동)","jibunAddr":"부산광역시 연제구 연산동 344-30","openHours":"정시","maleToilets":2,"femaleToilets":2,"disabled":false,"diaperTable":false,"emergencyBell":false,"cctv":false,"source":"public","category":"public"},{"id":"202433700000100291","name":"성학주유소","lat":35.190148,"lng":129.069899,"roadAddr":"부산광역시 연제구 월드컵대로 249(거제동)","jibunAddr":"부산광역시 연제구 거제동 1090-24","openHours":"상시","maleToilets":2,"femaleToilets":1,"disabled":false,"diaperTable":false,"emergencyBell":false,"cctv":false,"source":"public","category":"public"},{"id":"202433700000100321","name":"온천천시민공원 황매실","lat":35.176208,"lng":129.079741,"roadAddr":"부산광역시 연제구","jibunAddr":"부산광역시 연제구 연산동 503-1","openHours":"상시","maleToilets":2,"femaleToilets":1,"disabled":false,"diaperTable":true,"emergencyBell":true,"cctv":false,"managerTel":"0516654981","source":"public","category":"public"},{"id":"202433700000100268","name":"안국선원","lat":35.196515,"lng":129.077689,"roadAddr":"부산광역시 연제구 교대로16번길 27(거제동)","jibunAddr":"부산광역시 연제구 거제동 91-1","openHours":"정시","maleToilets":5,"femaleToilets":7,"disabled":false,"diaperTable":false,"emergencyBell":false,"cctv":false,"source":"public","category":"public"},{"id":"202433700000100264","name":"부산시노인종합복지관","lat":35.191107,"lng":129.0821,"roadAddr":"부산광역시 연제구 거제천로230번길 18","jibunAddr":"부산광역시 연제구 연산동 578-3","openHours":"정시","maleToilets":9,"femaleToilets":4,"disabled":false,"diaperTable":false,"emergencyBell":false,"cctv":false,"source":"public","category":"public"},{"id":"202433700000100260","name":"물만골","lat":35.176759,"lng":129.085607,"roadAddr":"부산광역시 연제구 월드컵대로 지하 23","jibunAddr":"부산광역시 연제구 연산동 1515-11","openHours":"정시","maleToilets":7,"femaleToilets":8,"disabled":true,"diaperTable":true,"emergencyBell":true,"cctv":true,"managerTel":"0516407266","source":"public","category":"public"},{"id":"202433700000100283","name":"하이트빌딩","lat":35.191369,"lng":129.086958,"roadAddr":"부산광역시 연제구 반송로 69(연산동)","jibunAddr":"부산광역시 연제구 연산동 582-6","openHours":"정시","maleToilets":6,"femaleToilets":1,"disabled":true,"diaperTable":false,"emergencyBell":false,"cctv":false,"source":"public","category":"public"},{"id":"202433700000100287","name":"부산은행 토곡지점","lat":35.183832,"lng":129.107368,"roadAddr":"부산광역시 연제구 과정로 140(연산동)","jibunAddr":"부산광역시 연제구 연산동 480-13","openHours":"정시","maleToilets":3,"femaleToilets":2,"disabled":true,"diaperTable":false,"emergencyBell":false,"cctv":false,"source":"public","category":"public"},{"id":"202433700000100252","name":"연산동 우체국","lat":35.174052,"lng":129.09253,"roadAddr":"부산광역시 연제구 연수로 197","jibunAddr":"부산광역시 연제구 연산동 2133-54","openHours":"정시","maleToilets":2,"femaleToilets":1,"disabled":false,"diaperTable":false,"emergencyBell":false,"cctv":false,"source":"public","category":"public"},{"id":"202433700000100256","name":"시청(연제)","lat":35.179777,"lng":129.076624,"roadAddr":"부산광역시 연제구 중앙대로 지하 1017","jibunAddr":"부산광역시 연제구 연산동 1328-9","openHours":"정시","maleToilets":7,"femaleToilets":8,"disabled":true,"diaperTable":true,"emergencyBell":true,"cctv":true,"managerTel":"0516407266","source":"public","category":"public"},{"id":"202433700000100278","name":"연천시장","lat":35.189784,"lng":129.098089,"roadAddr":"부산광역시 연제구 과정로276번길 28(연산동)","jibunAddr":"부산광역시 연제구 연산동 364-1","openHours":"상시","maleToilets":5,"femaleToilets":2,"disabled":false,"diaperTable":false,"emergencyBell":false,"cctv":false,"source":"public","category":"public"},{"id":"202433700000100270","name":"연산관자재요양병원","lat":35.182885,"lng":129.107494,"roadAddr":"부산광역시 연제구 과정로 128(연산동)","jibunAddr":"부산광역시 연제구 연산동 489-3","openHours":"정시","maleToilets":2,"femaleToilets":1,"disabled":false,"diaperTable":false,"emergencyBell":false,"cctv":false,"source":"public","category":"public"},{"id":"202433700000100274","name":"좋은기름나라주유소","lat":35.185819,"lng":129.087853,"roadAddr":"부산광역시 연제구 고분로 51(연산동)","jibunAddr":"부산광역시 연제구 연산동 330-8","openHours":"상시","maleToilets":2,"femaleToilets":1,"disabled":false,"diaperTable":false,"emergencyBell":false,"cctv":false,"source":"public","category":"public"},{"id":"202433700000100265","name":"연산종합사회복지관","lat":35.172739,"lng":129.088936,"roadAddr":"부산광역시 연제구 봉수로 17","jibunAddr":"부산광역시 연제구 연산동 2022-374","openHours":"정시","maleToilets":12,"femaleToilets":12,"disabled":true,"diaperTable":false,"emergencyBell":true,"cctv":false,"managerTel":"0518638360","source":"public","category":"public"},{"id":"202433700000100269","name":"거제교회","lat":35.186615,"lng":129.070343,"roadAddr":"부산광역시 연제구 아시아드대로 12(거제동)","jibunAddr":"부산광역시 연제구 거제동 878-7","openHours":"정시","maleToilets":12,"femaleToilets":13,"disabled":true,"diaperTable":false,"emergencyBell":false,"cctv":false,"source":"public","category":"public"},{"id":"202433700000100261","name":"거제(법원 · 검찰청)","lat":35.188547,"lng":129.073961,"roadAddr":"부산광역시 연제구 월드컵대로 지하 209","jibunAddr":"부산광역시 연제구 거제동 1190-1","openHours":"정시","maleToilets":10,"femaleToilets":9,"disabled":true,"diaperTable":true,"emergencyBell":true,"cctv":true,"managerTel":"0516407266","source":"public","category":"public"},{"id":"202433700000100311","name":"배산 제1체육시설","lat":35.176208,"lng":129.079741,"roadAddr":"부산광역시 연제구","jibunAddr":"부산광역시 연제구 연산동 산52","openHours":"상시","maleToilets":2,"femaleToilets":2,"disabled":false,"diaperTable":false,"emergencyBell":false,"cctv":false,"managerTel":"0516654442","source":"public","category":"public"},{"id":"202433700000100245","name":"연산1동행정복지센터 (1층)","lat":35.189987,"lng":129.090423,"roadAddr":"부산광역시 연제구 연동로8번길 66","jibunAddr":"부산광역시 연제구 연산동 317-3","openHours":"정시","maleToilets":3,"femaleToilets":2,"disabled":true,"diaperTable":false,"emergencyBell":true,"cctv":false,"managerTel":"0516655791","source":"public","category":"public"},{"id":"202433700000100249","name":"거제1동 행정복지센터 (1층)","lat":35.191853,"lng":129.075638,"roadAddr":"부산광역시 연제구 법원북로 88","jibunAddr":"부산광역시 연제구 거제동 1485-1","openHours":"정시","maleToilets":2,"femaleToilets":3,"disabled":true,"diaperTable":false,"emergencyBell":false,"cctv":true,"managerTel":"0516655714","source":"public","category":"public"},{"id":"202433700000100241","name":"연산5동행정복지센터 (1층)","lat":35.184486,"lng":129.076078,"roadAddr":"부산광역시 연제구 거제천로124번길 15","jibunAddr":"부산광역시 연제구 연산동 1478-1","openHours":"정시","maleToilets":2,"femaleToilets":2,"disabled":false,"diaperTable":false,"emergencyBell":false,"cctv":false,"managerTel":"0516655874","source":"public","category":"public"},{"id":"202433700000100251","name":"동래세무서","lat":35.192623,"lng":129.086861,"roadAddr":"부산광역시 연제구 거제천로269번길 16","jibunAddr":"부산광역시 연제구 거제동 1463-4","openHours":"정시","maleToilets":31,"femaleToilets":11,"disabled":false,"diaperTable":false,"emergencyBell":false,"cctv":false,"source":"public","category":"public"},{"id":"202433700000100259","name":"배산","lat":35.17346,"lng":129.09573,"roadAddr":"부산광역시 연제구 연수로 지하 229","jibunAddr":"부산광역시 연제구 연산동 1805-3","openHours":"정시","maleToilets":8,"femaleToilets":8,"disabled":true,"diaperTable":true,"emergencyBell":true,"cctv":true,"managerTel":"0516407266","source":"public","category":"public"},{"id":"202433700000100315","name":"연산6동 배드민턴장","lat":35.176208,"lng":129.079741,"roadAddr":"부산광역시 연제구","jibunAddr":"부산광역시 연제구 연산동 산143-2","openHours":"상시","maleToilets":2,"femaleToilets":2,"disabled":false,"diaperTable":false,"emergencyBell":false,"cctv":false,"managerTel":"0516654442","source":"public","category":"public"},{"id":"202433700000100319","name":"온천천시민공원 백일홍","lat":35.176208,"lng":129.079741,"roadAddr":"부산광역시 연제구","jibunAddr":"부산광역시 연제구 거제동 1419-1","openHours":"상시","maleToilets":7,"femaleToilets":6,"disabled":true,"diaperTable":true,"emergencyBell":true,"cctv":false,"managerTel":"0516654981","source":"public","category":"public"},{"id":"202433700000100267","name":"이마트연산점","lat":35.176156,"lng":129.081314,"roadAddr":"부산광역시 연제구 연수로 89(연산동)","jibunAddr":"부산광역시 연제구 연산동 822-7","openHours":"정시","maleToilets":7,"femaleToilets":6,"disabled":true,"diaperTable":true,"emergencyBell":false,"cctv":true,"source":"public","category":"public"},{"id":"202433700000100263","name":"노동자종합복지관 화장실","lat":35.175007,"lng":129.080448,"roadAddr":"부산광역시 연제구 연수로 86","jibunAddr":"부산광역시 연제구 연산동 844-14","openHours":"정시","maleToilets":46,"femaleToilets":18,"disabled":true,"diaperTable":true,"emergencyBell":false,"cctv":false,"managerTel":"0518687601","source":"public","category":"public"},{"id":"202433700000100276","name":"국제신문","lat":35.195916,"lng":129.079314,"roadAddr":"부산광역시 연제구 중앙대로 1217(거제동)","jibunAddr":"부산광역시 연제구 거제동 76-2","openHours":"정시","maleToilets":12,"femaleToilets":6,"disabled":true,"diaperTable":false,"emergencyBell":false,"cctv":false,"source":"public","category":"public"},{"id":"202433700000100272","name":"아시아드요양병원","lat":35.186775,"lng":129.078628,"roadAddr":"부산광역시 연제구 월드컵대로 161(연산동)","jibunAddr":"부산광역시 연제구 연산동 1143-6","openHours":"정시","maleToilets":4,"femaleToilets":3,"disabled":true,"diaperTable":false,"emergencyBell":true,"cctv":false,"source":"public","category":"public"},{"id":"202433700000100223","name":"연제구 가족센터","lat":35.178818,"lng":129.08577,"roadAddr":"부산광역시 연제구 월드컵대로46번길 11","jibunAddr":"부산광역시 연제구 연산동 660-53","openHours":"정시","maleToilets":3,"femaleToilets":3,"disabled":false,"diaperTable":false,"emergencyBell":false,"cctv":false,"managerTel":"0518515002","source":"public","category":"public"},{"id":"202433700000100227","name":"부산장애인종합복지관","lat":35.190487,"lng":129.081671,"roadAddr":"부산광역시 연제구 중앙대로1150번길 1","jibunAddr":"부산광역시 연제구 연산동 578-5","openHours":"정시","maleToilets":20,"femaleToilets":12,"disabled":false,"diaperTable":false,"emergencyBell":false,"cctv":false,"source":"public","category":"public"},{"id":"202433700000100336","name":"부산광역시\n영재교육진흥원","lat":35.176208,"lng":129.079741,"roadAddr":"부산광역시 연제구","jibunAddr":"부산광역시 연제구 연산9동 3-5","openHours":"정시","maleToilets":9,"femaleToilets":5,"disabled":false,"diaperTable":false,"emergencyBell":false,"cctv":false,"managerTel":"0517501305","source":"public","category":"public"},{"id":"202433700000100351","name":"이사벨고등학교","lat":35.176208,"lng":129.079741,"roadAddr":"부산광역시 연제구","jibunAddr":"부산광역시 연제구 거제1동 75-7","openHours":"정시","maleToilets":12,"femaleToilets":8,"disabled":false,"diaperTable":false,"emergencyBell":false,"cctv":false,"managerTel":"0515902150","source":"public","category":"public"},{"id":"202433700000100230","name":"연제구 국민체육센터","lat":35.184153,"lng":129.087485,"roadAddr":"부산광역시 연제구 쌍미천로 132","jibunAddr":"부산광역시 연제구 연산동 799","openHours":"정시","maleToilets":18,"femaleToilets":20,"disabled":false,"diaperTable":false,"emergencyBell":false,"cctv":false,"source":"public","category":"public"},{"id":"202433700000100238","name":"연산9동 행정복지센터(1층)","lat":35.185903,"lng":129.109382,"roadAddr":"부산광역시 연제구 과정로164번길 38","jibunAddr":"부산광역시 연제구 연산동 475-1","openHours":"정시","maleToilets":5,"femaleToilets":2,"disabled":true,"diaperTable":false,"emergencyBell":false,"cctv":false,"managerTel":"0516655945","source":"public","category":"public"},{"id":"202433700000100234","name":"국립농산물 품질관리원","lat":35.187322,"lng":129.073474,"roadAddr":"부산광역시 연제구 거제대로 222","jibunAddr":"부산광역시 연제구 거제동 501","openHours":"정시","maleToilets":23,"femaleToilets":23,"disabled":false,"diaperTable":false,"emergencyBell":false,"cctv":false,"source":"public","category":"public"},{"id":"202433700000100306","name":"자이주유소","lat":35.1895,"lng":129.091989,"roadAddr":"부산광역시 연제구 과정로 325(연산동)","jibunAddr":"부산광역시 연제구 연산동 312-1","openHours":"상시","maleToilets":2,"femaleToilets":1,"disabled":false,"diaperTable":false,"emergencyBell":false,"cctv":false,"source":"public","category":"public"},{"id":"202433700000100302","name":"은강빌딩","lat":35.185168,"lng":129.080525,"roadAddr":"부산광역시 연제구 중앙대로 1089(연산동)","jibunAddr":"부산광역시 연제구 연산동 1287-2","openHours":"정시","maleToilets":4,"femaleToilets":2,"disabled":true,"diaperTable":false,"emergencyBell":false,"cctv":false,"source":"public","category":"public"},{"id":"202433700000100217","name":"연제구육아종합지원센터","lat":35.179071,"lng":129.070264,"roadAddr":"부산광역시 연제구 거제대로124번길 22","jibunAddr":"부산광역시 연제구 거제동 735-1","openHours":"정시","maleToilets":1,"femaleToilets":1,"disabled":false,"diaperTable":true,"emergencyBell":false,"cctv":true,"managerTel":"0518667191","source":"public","category":"public"},{"id":"202433700000100349","name":"부산경상대학교","lat":35.176208,"lng":129.079741,"roadAddr":"부산광역시 연제구","jibunAddr":"부산광역시 연제구 연산8동 277-4","openHours":"정시","maleToilets":22,"femaleToilets":14,"disabled":false,"diaperTable":false,"emergencyBell":false,"cctv":false,"managerTel":"0518501000","source":"public","category":"public"},{"id":"202433700000100350","name":"부산외국어고","lat":35.176208,"lng":129.079741,"roadAddr":"부산광역시 연제구","jibunAddr":"부산광역시 연제구 연산8동 1110-2","openHours":"정시","maleToilets":9,"femaleToilets":4,"disabled":false,"diaperTable":false,"emergencyBell":false,"cctv":false,"managerTel":"0518501463","source":"public","category":"public"},{"id":"202433700000100322","name":"온천천시민공원 붓드레아","lat":35.176208,"lng":129.079741,"roadAddr":"부산광역시 연제구","jibunAddr":"부산광역시 연제구 거제동 155-1","openHours":"상시","maleToilets":2,"femaleToilets":2,"disabled":false,"diaperTable":false,"emergencyBell":true,"cctv":false,"managerTel":"0516654981","source":"public","category":"public"},{"id":"202433700000100250","name":"연제구 정신건강복지센터","lat":35.184029,"lng":129.073212,"roadAddr":"부산광역시 연제구 거제대로178번길 51-1","jibunAddr":"부산광역시 연제구 거제동 558-3","openHours":"정시","maleToilets":2,"femaleToilets":2,"disabled":false,"diaperTable":false,"emergencyBell":false,"cctv":false,"source":"public","category":"public"},{"id":"202433700000100258","name":"교대","lat":35.1961,"lng":129.079889,"roadAddr":"부산광역시 연제구 중앙대로 지하 1217","jibunAddr":"부산광역시 연제구 거제동 72-25","openHours":"정시","maleToilets":6,"femaleToilets":5,"disabled":true,"diaperTable":true,"emergencyBell":true,"cctv":true,"managerTel":"0516407266","source":"public","category":"public"},{"id":"202433700000100254","name":"부산소방본부","lat":35.183443,"lng":129.105748,"roadAddr":"부산광역시 연제구 고분로 216","jibunAddr":"부산광역시 연제구 연산동 243-24","openHours":"정시","maleToilets":39,"femaleToilets":12,"disabled":false,"diaperTable":false,"emergencyBell":false,"cctv":false,"source":"public","category":"public"},{"id":"202433700000100346","name":"계성여자상업고등학교","lat":35.176208,"lng":129.079741,"roadAddr":"부산광역시 연제구","jibunAddr":"부산광역시 연제구 거제4동 643-162","openHours":"정시","maleToilets":9,"femaleToilets":10,"disabled":false,"diaperTable":false,"emergencyBell":false,"cctv":false,"managerTel":"0515034894","source":"public","category":"public"},{"id":"202433700000100348","name":"부산교육대학교","lat":35.176208,"lng":129.079741,"roadAddr":"부산광역시 연제구","jibunAddr":"부산광역시 연제구 거제1동 87-2","openHours":"정시","maleToilets":17,"femaleToilets":12,"disabled":false,"diaperTable":false,"emergencyBell":false,"cctv":false,"managerTel":"0515007114","source":"public","category":"public"},{"id":"202433700000100275","name":"부산은행 연미지점","lat":35.173879,"lng":129.093891,"roadAddr":"부산광역시 연제구 연수로 211(연산동)","jibunAddr":"부산광역시 연제구 연산동 2122-3","openHours":"정시","maleToilets":2,"femaleToilets":1,"disabled":false,"diaperTable":false,"emergencyBell":false,"cctv":false,"source":"public","category":"public"},{"id":"202433800000100365","name":"광안3동 간이화장실","lat":35.167182,"lng":129.107399,"roadAddr":"부산광역시 수영구 망미번영로16번가길 40-1","openHours":"상시","maleToilets":2,"femaleToilets":2,"disabled":false,"diaperTable":false,"emergencyBell":true,"cctv":false,"managerTel":"0516104445","source":"public","category":"public"},{"id":"202433800000100302","name":"망미119안전센타","lat":35.171791,"lng":129.106488,"roadAddr":"부산광역시 수영구 연수로 330(망미동)","openHours":"상시","maleToilets":2,"femaleToilets":1,"disabled":false,"diaperTable":false,"emergencyBell":false,"cctv":false,"managerTel":"0517606842","source":"public","category":"public"},{"id":"202433800000100283","name":"땡큐망미주유소","lat":35.172956,"lng":129.09861,"roadAddr":"부산광역시 수영구 연수로 254(망미동)","openHours":"정시","maleToilets":2,"femaleToilets":1,"disabled":false,"diaperTable":false,"emergencyBell":false,"cctv":false,"source":"public","category":"public"},{"id":"202433800000100323","name":"망미동 우체국","lat":35.177063,"lng":129.107448,"roadAddr":"부산광역시 수영구 과정로 64(망미동)","openHours":"정시","maleToilets":2,"femaleToilets":1,"disabled":false,"diaperTable":false,"emergencyBell":false,"cctv":false,"managerTel":"0517552005","source":"public","category":"public"},{"id":"202433800000100273","name":"인성주유소","lat":35.173018,"lng":129.097951,"roadAddr":"부산광역시 수영구 연수로 250(망미동)","openHours":"정시","maleToilets":2,"femaleToilets":1,"disabled":false,"diaperTable":false,"emergencyBell":false,"cctv":false,"source":"public","category":"public"},{"id":"202433800000100281","name":"지에스칼텍스(주)언덕주유소","lat":35.173528,"lng":129.096917,"roadAddr":"부산광역시 수영구 연수로 239(망미동)","openHours":"정시","maleToilets":2,"femaleToilets":1,"disabled":false,"diaperTable":false,"emergencyBell":false,"cctv":false,"source":"public","category":"public"},{"id":"202433800000100364","name":"광안4동 간이화장실","lat":35.15919,"lng":129.104659,"roadAddr":"부산광역시 수영구 호암로 81","openHours":"상시","maleToilets":2,"femaleToilets":2,"disabled":false,"diaperTable":false,"emergencyBell":true,"cctv":false,"managerTel":"0516104445","source":"public","category":"public"},{"id":"202433800000100315","name":"망미역 공중화장실","lat":35.171483,"lng":129.108467,"roadAddr":"부산광역시 수영구 부산광역시 수영구 연수로 지하 337","openHours":"정시","maleToilets":8,"femaleToilets":8,"disabled":true,"diaperTable":true,"emergencyBell":true,"cctv":true,"managerTel":"0516407266","source":"public","category":"public"},{"id":"202433800000100362","name":"금련산전망대 간이화장실","lat":35.159253,"lng":129.097295,"roadAddr":"부산광역시 수영구 광안동 산39","openHours":"상시","maleToilets":2,"femaleToilets":2,"disabled":false,"diaperTable":false,"emergencyBell":true,"cctv":false,"managerTel":"0516104445","source":"public","category":"public"},{"id":"202433800000100277","name":"신영주유소","lat":35.173525,"lng":129.108103,"roadAddr":"부산광역시 수영구 과정로 23(망미동)","openHours":"정시","maleToilets":2,"femaleToilets":2,"disabled":false,"diaperTable":false,"emergencyBell":false,"cctv":false,"source":"public","category":"public"},{"id":"202433800000100297","name":"광안어린이도서관","lat":35.159568,"lng":129.104868,"roadAddr":"부산광역시 수영구 장대골로 75-8(광안동)","openHours":"정시","maleToilets":7,"femaleToilets":6,"disabled":true,"diaperTable":false,"emergencyBell":true,"cctv":true,"managerTel":"0516103895","source":"public","category":"public"},{"id":"202433800000100363","name":"망미1동 간이화장실","lat":35.167127,"lng":129.099993,"roadAddr":"부산광역시 수영구 망미동 산107-1","openHours":"상시","maleToilets":2,"femaleToilets":2,"disabled":false,"diaperTable":false,"emergencyBell":false,"cctv":false,"managerTel":"0516104445","source":"public","category":"public"},{"id":"202433800000100290","name":"광안졸음쉼터","lat":35.159933,"lng":129.104232,"roadAddr":"부산광역시 수영구 광안동 산33","openHours":"상시","maleToilets":3,"femaleToilets":2,"disabled":false,"diaperTable":false,"emergencyBell":false,"cctv":false,"managerTel":"0517907936","source":"public","category":"public"},{"id":"202433800000100257","name":"부산종합사회복지관","lat":35.171036,"lng":129.098668,"roadAddr":"부산광역시 수영구 금련로43번길54(망미동)","openHours":"정시","maleToilets":4,"femaleToilets":3,"disabled":false,"diaperTable":false,"emergencyBell":false,"cctv":false,"source":"public","category":"public"},{"id":"202433800000100333","name":"망미1동 행정복지센터","lat":35.173424,"lng":129.104837,"roadAddr":"부산광역시 수영구 연수로315번길 23(망미동)","openHours":"정시","maleToilets":21,"femaleToilets":11,"disabled":true,"diaperTable":false,"emergencyBell":false,"cctv":true,"managerTel":"0516105935","source":"public","category":"public"},{"id":"202433800000100312","name":"망미치안센터","lat":35.175765,"lng":129.104934,"roadAddr":"부산광역시 수영구 망미배산로30번길 34(망미동)","openHours":"상시","maleToilets":0,"femaleToilets":0,"disabled":false,"diaperTable":false,"emergencyBell":false,"cctv":false,"managerTel":"0517610113","source":"public","category":"public"},{"id":"202433800000100311","name":"망미1파출소","lat":35.17275,"lng":129.101185,"roadAddr":"부산광역시 수영구 망미로8번길 74(망미동)","openHours":"상시","maleToilets":0,"femaleToilets":0,"disabled":false,"diaperTable":false,"emergencyBell":false,"cctv":false,"managerTel":"0517610112","source":"public","category":"public"},{"id":"202433800000100258","name":"수미초등학교 야외화장실","lat":35.168796,"lng":129.103713,"roadAddr":"부산광역시 수영구 연수로310번길 91(망미동)","openHours":"상시","maleToilets":2,"femaleToilets":2,"disabled":false,"diaperTable":false,"emergencyBell":false,"cctv":false,"source":"public","category":"public"},{"id":"202433800000100278","name":"금호주유소","lat":35.172047,"lng":129.109427,"roadAddr":"부산광역시 수영구 과정로 4(망미동)","openHours":"정시","maleToilets":2,"femaleToilets":2,"disabled":false,"diaperTable":false,"emergencyBell":false,"cctv":false,"source":"public","category":"public"},{"id":"202433800000100303","name":"남부소방서","lat":35.163162,"lng":129.107042,"roadAddr":"부산광역시 수영구 광일로 64(광안동)","openHours":"상시","maleToilets":23,"femaleToilets":8,"disabled":false,"diaperTable":false,"emergencyBell":false,"cctv":false,"managerTel":"0517604800","source":"public","category":"public"},{"id":"202433800000100300","name":"수영구연제구선거관리위원회","lat":35.172245,"lng":129.108561,"roadAddr":"부산광역시 수영구 과정로5번길 6(망미동)","openHours":"정시","maleToilets":10,"femaleToilets":4,"disabled":true,"diaperTable":false,"emergencyBell":false,"cctv":false,"managerTel":"0516461390","source":"public","category":"public"}]