[{"id":"202053800000100128","name":"풀무원식품(주) 양산(서울방향)주유소","lat":35.323999,"lng":129.054722,"roadAddr":"경상남도 양산시 동면 목장길 15-50","openHours":"정시","maleToilets":2,"femaleToilets":1,"disabled":true,"diaperTable":false,"emergencyBell":false,"cctv":false,"managerTel":"0553891750","source":"public","category":"public"},{"id":"202653800000100057","name":"동면민원사무소","lat":35.320605,"lng":129.025302,"roadAddr":"경상남도 양산시 동면 금오13길 46-30, 동면민원사무소","jibunAddr":"경상남도 양산시 동면 석산리 1448-6 동면민원사무소","openHours":"정시","maleToilets":2,"femaleToilets":2,"disabled":true,"diaperTable":false,"emergencyBell":false,"cctv":false,"managerTel":"0553927104","source":"public","category":"public"},{"id":"202053800000100183","name":"법천사등산로","lat":35.303025,"lng":129.043812,"roadAddr":"동면 금산2길 210","openHours":"상시","maleToilets":3,"femaleToilets":4,"disabled":false,"diaperTable":false,"emergencyBell":true,"cctv":false,"managerTel":"0553925473","source":"public","category":"public"},{"id":"202053800000100006","name":"다복주유소","lat":35.330546,"lng":129.042684,"roadAddr":"경남 양산시 노포사송로 828 (다방동, 부자석유)","openHours":"정시","maleToilets":2,"femaleToilets":1,"disabled":false,"diaperTable":false,"emergencyBell":false,"cctv":false,"managerTel":"0553637444","source":"public","category":"public"},{"id":"202053800000100188","name":"석산근린공원","lat":35.320734,"lng":129.025527,"roadAddr":"경상남도 양산시 동면 금오13길 46-26","jibunAddr":"경상남도 양산시 동면 석산리 1448-7","openHours":"상시","maleToilets":3,"femaleToilets":2,"disabled":true,"diaperTable":false,"emergencyBell":true,"cctv":false,"managerTel":"0553925473","source":"public","category":"public"},{"id":"202053800000100129","name":"금정산등산로변 화장실","lat":35.310408,"lng":129.056087,"roadAddr":"경상남도 양산시 동면 사송리 산192-3","openHours":"상시","maleToilets":2,"femaleToilets":2,"disabled":true,"diaperTable":false,"emergencyBell":true,"cctv":false,"managerTel":"0553925473","source":"public","category":"public"},{"id":"202053800000100131","name":"남양산충전소","lat":35.322095,"lng":129.030921,"roadAddr":"경상남도 양산시 동면 양산대로 542-20","openHours":"정시","maleToilets":2,"femaleToilets":1,"disabled":false,"diaperTable":false,"emergencyBell":false,"cctv":false,"managerTel":"0553843125","source":"public","category":"public"},{"id":"202353800000100029","name":"양산(서울)휴게소","lat":35.323999,"lng":129.054722,"roadAddr":"경상남도 양산시 동면 목장길 15-50, 양산휴게소","jibunAddr":"경상남도 양산시 동면 내송리 산 86-6 양산휴게소","openHours":"상시","maleToilets":21,"femaleToilets":21,"disabled":true,"diaperTable":true,"emergencyBell":true,"cctv":true,"managerTel":"0553840144","source":"public","category":"public"},{"id":"202053800000100022","name":"비케이에너지(주)석산주유소","lat":35.325615,"lng":129.032488,"roadAddr":"경남 양산시 동면 양산대로 602 (석산리, 식당)","openHours":"정시","maleToilets":2,"femaleToilets":2,"disabled":false,"diaperTable":false,"emergencyBell":false,"cctv":false,"managerTel":"0553829830","source":"public","category":"public"},{"id":"202653800000100052","name":"풀무원식품(주) 양산(서울방향)충전소","lat":35.323999,"lng":129.054722,"roadAddr":"경상남도 양산시 동면 목장길 15-50","jibunAddr":"경상남도 양산시 동면 내송리 산 86-6","openHours":"정시","maleToilets":2,"femaleToilets":1,"disabled":false,"diaperTable":false,"emergencyBell":false,"cctv":false,"managerTel":"0553891750","source":"public","category":"public"},{"id":"202053800000100229","name":"동면행정복지센터 화장실","lat":35.323484,"lng":129.061675,"roadAddr":"양산시 동면 내송리 224-2(양산시 동면 내송로 37)","openHours":"정시","maleToilets":8,"femaleToilets":3,"disabled":true,"diaperTable":false,"emergencyBell":false,"cctv":false,"managerTel":"0553927101","source":"public","category":"public"},{"id":"202653800000100050","name":"양산국유림관리소(1층)","lat":35.315417,"lng":129.025786,"roadAddr":"경상남도 양산시 동면 금오로 250, 산림청양산국유림관리소","jibunAddr":"경상남도 양산시 동면 석산리 1477-2 산림청양산국유림관리소","openHours":"정시","maleToilets":3,"femaleToilets":2,"disabled":true,"diaperTable":true,"emergencyBell":true,"cctv":false,"managerTel":"0553702712","source":"public","category":"public"},{"id":"202053800000100020","name":"태종석유석산알뜰주유소","lat":35.317402,"lng":129.029233,"roadAddr":"경남 양산시 동면 양산대로 505 (석산리)","openHours":"정시","maleToilets":3,"femaleToilets":1,"disabled":false,"diaperTable":false,"emergencyBell":false,"cctv":false,"managerTel":"0553675151","source":"public","category":"public"},{"id":"202153800000100378","name":"금산은행나무 어린이공원","lat":35.309282,"lng":129.029195,"roadAddr":"경상남도 양산시 동면 금산5길 48-8","jibunAddr":"경상남도 양산시 동면 금산리 576-1","openHours":"상시","maleToilets":2,"femaleToilets":1,"disabled":false,"diaperTable":false,"emergencyBell":true,"cctv":false,"managerTel":"0553925473","source":"public","category":"public"},{"id":"202053800000100011","name":"양산타워","lat":35.325897,"lng":129.023806,"roadAddr":"경남 양산시 동면 강변로 264","openHours":"09~18","maleToilets":6,"femaleToilets":6,"disabled":true,"diaperTable":false,"emergencyBell":false,"cctv":false,"managerTel":"0553679026","source":"public","category":"public"},{"id":"202053800000100008","name":"구도일주유소 다방","lat":35.33203,"lng":129.041349,"roadAddr":"경남 양산시 다방길 15 (다방동, 다방주유소)","openHours":"정시","maleToilets":3,"femaleToilets":1,"disabled":true,"diaperTable":false,"emergencyBell":false,"cctv":true,"managerTel":"0553823418","source":"public","category":"public"},{"id":"202353800000100037","name":"부산국제우체국","lat":35.32631,"lng":129.03111,"roadAddr":"경상남도 양산시 동면 남양산1길 30, 부산국제우체국","jibunAddr":"경상남도 양산시 동면 석산리 1422-1 부산국제우체국","openHours":"정시","maleToilets":5,"femaleToilets":3,"disabled":true,"diaperTable":false,"emergencyBell":true,"cctv":false,"managerTel":"0553710104","source":"public","category":"public"},{"id":"202053800000100179","name":"제21호완충녹지","lat":35.329175,"lng":129.028526,"roadAddr":"경상남도 양산시 청운로 470 (남부동)","jibunAddr":"경상남도 양산시 남부동 593-6","openHours":"상시","maleToilets":2,"femaleToilets":1,"disabled":true,"diaperTable":false,"emergencyBell":true,"cctv":false,"managerTel":"0553925473","source":"public","category":"public"},{"id":"202053800000100012","name":"양산주민편익시설","lat":35.327795,"lng":129.027557,"roadAddr":"경남 양산시 동면 강변로 264-1","openHours":"09~18","maleToilets":31,"femaleToilets":29,"disabled":true,"diaperTable":false,"emergencyBell":true,"cctv":true,"managerTel":"0553798530","source":"public","category":"public"},{"id":"202053800000100184","name":"금산근린공원","lat":35.308577,"lng":129.026129,"roadAddr":"경상남도 양산시 동면 금오1길 8","jibunAddr":"경상남도 양산시 동면 금산리 1460-2","openHours":"상시","maleToilets":3,"femaleToilets":1,"disabled":true,"diaperTable":false,"emergencyBell":true,"cctv":true,"managerTel":"0553925473","source":"public","category":"public"},{"id":"202053800000100021","name":"남양산IC주유소","lat":35.320523,"lng":129.030435,"roadAddr":"경남 양산시 동면 양산대로 538 (석산리, 남양산IC주유소)","openHours":"정시","maleToilets":3,"femaleToilets":1,"disabled":false,"diaperTable":false,"emergencyBell":false,"cctv":false,"managerTel":"0553870222","source":"public","category":"public"},{"id":"202653800000100005","name":"삽량체육공원(야구장)","lat":35.325225,"lng":129.0598,"roadAddr":"경상남도 양산시 동면 내송로 21, 삽량체육공원(야구장)","jibunAddr":"경상남도 양산시 동면 내송리 산 70-8 삽량체육공원","openHours":"상시","maleToilets":4,"femaleToilets":3,"disabled":false,"diaperTable":false,"emergencyBell":false,"cctv":false,"managerTel":"0553925473","source":"public","category":"public"},{"id":"202653800000100006","name":"삽량체육공원(테니스장)","lat":35.325225,"lng":129.0598,"roadAddr":"경상남도 양산시 동면 내송로 21, 삽량체육공원(테니스장)","jibunAddr":"경상남도 양산시 동면 내송리 산 70-8 삽량체육공원","openHours":"상시","maleToilets":4,"femaleToilets":3,"disabled":false,"diaperTable":false,"emergencyBell":false,"cctv":true,"managerTel":"0553925473","source":"public","category":"public"},{"id":"202053800000100013","name":"수질정화공원 공연장","lat":35.308967,"lng":129.025682,"roadAddr":"경남 양산시 동면 금산리 1460-2","openHours":"24시간","maleToilets":2,"femaleToilets":1,"disabled":true,"diaperTable":false,"emergencyBell":false,"cctv":false,"managerTel":"0553925482","source":"public","category":"public"},{"id":"202053800000100019","name":"대양석유(주) 양산스마일주유소","lat":35.309588,"lng":129.027796,"roadAddr":"경남 양산시 동면 양산대로 414 (금산리, 대양석유(주)(SK))","openHours":"정시","maleToilets":2,"femaleToilets":1,"disabled":false,"diaperTable":false,"emergencyBell":false,"cctv":true,"managerTel":"0553632280","source":"public","category":"public"},{"id":"202653800000100002","name":"내송솔숲공원","lat":35.322206,"lng":129.063603,"roadAddr":"경상남도 양산시 동면 내송큰들로 156, 내송솔숲공원 화장실","jibunAddr":"경상남도 양산시 동면 내송리 937 내송솔숲공원 화장실","openHours":"상시","maleToilets":3,"femaleToilets":2,"disabled":true,"diaperTable":true,"emergencyBell":true,"cctv":false,"source":"public","category":"public"},{"id":"202053800000100017","name":"양산신도시주유소","lat":35.309379,"lng":129.026745,"roadAddr":"경남 양산시 동면 양산대로 407 (금산리, 양산신도시주유소(GS))","openHours":"정시","maleToilets":3,"femaleToilets":1,"disabled":false,"diaperTable":false,"emergencyBell":false,"cctv":true,"managerTel":"0553675101","source":"public","category":"public"},{"id":"202053800000100132","name":"양산시농업기술센터","lat":35.323916,"lng":129.033386,"roadAddr":"경상남도 양산시 동면 양산대로 618","openHours":"정시","maleToilets":17,"femaleToilets":12,"disabled":true,"diaperTable":false,"emergencyBell":false,"cctv":false,"managerTel":"0553925365","source":"public","category":"public"}]