[{"id":"202037300000100311","name":"시립노인병원","lat":35.42199,"lng":129.297606,"roadAddr":"울산 울주군 온양읍 덕남로 243 (동상리)","openHours":"8시간","maleToilets":0,"femaleToilets":0,"disabled":false,"diaperTable":false,"emergencyBell":false,"cctv":false,"source":"public","category":"public"},{"id":"202037300000100338","name":"남부통합보건지소","lat":35.455248,"lng":129.290898,"roadAddr":"울산 울주군 온양읍 터실1길 13 (망양리, 남부통합보건지소)","openHours":"8시간","maleToilets":4,"femaleToilets":5,"disabled":false,"diaperTable":false,"emergencyBell":false,"cctv":false,"source":"public","category":"public"},{"id":"202037300000100264","name":"온산파출소","lat":35.433884,"lng":129.306716,"roadAddr":"울산 울주군 온산읍 덕신로 229 (덕신리, 온산파출소)","openHours":"8시간","maleToilets":4,"femaleToilets":2,"disabled":false,"diaperTable":false,"emergencyBell":false,"cctv":false,"source":"public","category":"public"},{"id":"202037300000100272","name":"덕신소공원","lat":35.433432,"lng":129.311057,"roadAddr":"울산 울주군 온산읍 덕신리 269","openHours":"8시간","maleToilets":4,"femaleToilets":4,"disabled":false,"diaperTable":false,"emergencyBell":false,"cctv":false,"source":"public","category":"public"},{"id":"202037300000100276","name":"덕신2차시장주차타워","lat":35.430034,"lng":129.310898,"roadAddr":"울산 울주군 온산읍 덕신리 430","openHours":"8시간","maleToilets":2,"femaleToilets":2,"disabled":false,"diaperTable":false,"emergencyBell":true,"cctv":false,"source":"public","category":"public"},{"id":"202037300000100259","name":"온산운동장 화장실","lat":35.433831,"lng":129.300266,"roadAddr":"울산 울주군 온산읍 덕신로 180 (덕신리, 온산운동장)","openHours":"8시간","maleToilets":8,"femaleToilets":4,"disabled":false,"diaperTable":false,"emergencyBell":true,"cctv":false,"source":"public","category":"public"},{"id":"202037300000100281","name":"온산문화체육센터 화장실","lat":35.438601,"lng":129.315377,"roadAddr":"울산 울주군 온산읍 명봉거남로 46 (덕신리, 온산문화체육센터)","openHours":"8시간","maleToilets":26,"femaleToilets":20,"disabled":false,"diaperTable":false,"emergencyBell":false,"cctv":false,"source":"public","category":"public"},{"id":"202037300000100277","name":"신경마을도시숲","lat":35.431981,"lng":129.30822,"roadAddr":"울산 울주군 온산읍 덕신리 511","openHours":"8시간","maleToilets":0,"femaleToilets":0,"disabled":false,"diaperTable":false,"emergencyBell":false,"cctv":false,"source":"public","category":"public"},{"id":"202437300000100060","name":"울산온산우체국 화장실","lat":35.433278,"lng":129.307758,"roadAddr":"울산광역시 울주군 온산읍 덕신로 244","openHours":"정시","maleToilets":2,"femaleToilets":0,"disabled":true,"diaperTable":false,"emergencyBell":true,"cctv":true,"source":"public","category":"public"},{"id":"202037300000100275","name":"회야강산책로","lat":35.426037,"lng":129.308912,"roadAddr":"울산 울주군 온산읍 덕신리 342-1","openHours":"8시간","maleToilets":2,"femaleToilets":3,"disabled":false,"diaperTable":false,"emergencyBell":true,"cctv":false,"source":"public","category":"public"},{"id":"202037300000100314","name":"망양~덕신간강변로","lat":35.443624,"lng":129.295646,"roadAddr":"울산 울주군 온양읍 망양리 725-128","openHours":"8시간","maleToilets":2,"femaleToilets":1,"disabled":false,"diaperTable":false,"emergencyBell":true,"cctv":false,"source":"public","category":"public"},{"id":"202037300000100271","name":"회야강친수공간","lat":35.439347,"lng":129.301787,"roadAddr":"울산 울주군 온산읍 덕신리 1219-14","openHours":"8시간","maleToilets":2,"femaleToilets":1,"disabled":false,"diaperTable":false,"emergencyBell":true,"cctv":false,"source":"public","category":"public"},{"id":"202337300000100011","name":"온덕공영주차장","lat":35.436016,"lng":129.309894,"jibunAddr":"울산광역시 울주군 온산읍 덕신리 1289","openHours":"24시간","maleToilets":3,"femaleToilets":2,"disabled":false,"diaperTable":false,"emergencyBell":false,"cctv":false,"source":"public","category":"public"},{"id":"202437300000100033","name":"온산 게이트볼장","lat":35.427835,"lng":129.304458,"roadAddr":"울산광역시 울주군 온산읍 덕신리 399-7","openHours":"정시","maleToilets":2,"femaleToilets":1,"disabled":false,"diaperTable":false,"emergencyBell":false,"cctv":false,"source":"public","category":"public"},{"id":"202037300000100278","name":"덕신근린공원","lat":35.437632,"lng":129.312385,"roadAddr":"울산 울주군 온산읍 덕신리 산120-3","openHours":"8시간","maleToilets":2,"femaleToilets":1,"disabled":false,"diaperTable":false,"emergencyBell":false,"cctv":false,"source":"public","category":"public"},{"id":"202037300000100265","name":"온산소방서","lat":35.433385,"lng":129.306633,"roadAddr":"울산 울주군 온산읍 덕신로 232 (덕신리, 온산소방서)","openHours":"8시간","maleToilets":18,"femaleToilets":6,"disabled":false,"diaperTable":false,"emergencyBell":true,"cctv":false,"source":"public","category":"public"}]