[{"id":"202053800000100122","name":"산문주차장","lat":35.444618,"lng":129.094517,"roadAddr":"경남 양산시 하북면 평산로 138-2013","jibunAddr":"경상남도 양산시 하북면 용연리 산 63-19","openHours":"상시","maleToilets":7,"femaleToilets":7,"disabled":false,"diaperTable":true,"emergencyBell":true,"cctv":false,"managerTel":"0553925473","source":"public","category":"public"},{"id":"202053800000100288","name":"내원사(하)","lat":35.442752,"lng":129.093933,"roadAddr":"하북면 용연리 281-3","openHours":"상시","maleToilets":3,"femaleToilets":2,"disabled":false,"diaperTable":false,"emergencyBell":true,"cctv":false,"managerTel":"0553925473","source":"public","category":"public"},{"id":"202053800000100112","name":"오일컴","lat":35.439129,"lng":129.071895,"roadAddr":"경남 양산시 하북면 양산대로 1964 (용연리, K1오일뱅크)","openHours":"정시","maleToilets":13,"femaleToilets":5,"disabled":false,"diaperTable":false,"emergencyBell":false,"cctv":false,"managerTel":"0553865189","source":"public","category":"public"},{"id":"202353800000100016","name":"용연주유소","lat":35.447112,"lng":129.072525,"roadAddr":"경상남도 양산시 하북면 양산대로 2053","jibunAddr":"경상남도 양산시 하북면 용연리 412-7","openHours":"정시","maleToilets":2,"femaleToilets":3,"disabled":true,"diaperTable":false,"emergencyBell":false,"cctv":false,"source":"public","category":"public"},{"id":"202653800000100061","name":"천성산다목적체육관","lat":35.420548,"lng":129.068988,"roadAddr":"경상남도 양산시 상북면 봉수대길 29-10","jibunAddr":"경상남도 양산시 상북면 석계리 1166","openHours":"정시","maleToilets":12,"femaleToilets":9,"disabled":true,"diaperTable":false,"emergencyBell":false,"cctv":false,"managerTel":"0553798422","source":"public","category":"public"},{"id":"202053800000100113","name":"(주)신성에너지 통도가스충전소","lat":35.45641,"lng":129.076786,"roadAddr":"경남 양산시 하북면 양산대로 2169","openHours":"정시","maleToilets":3,"femaleToilets":0,"disabled":false,"diaperTable":false,"emergencyBell":false,"cctv":false,"managerTel":"0553752600","source":"public","category":"public"},{"id":"202053800000100289","name":"내원사3(길목쉼터)","lat":35.446338,"lng":129.079528,"roadAddr":"하북면 용연리576","openHours":"상시","maleToilets":2,"femaleToilets":2,"disabled":false,"diaperTable":false,"emergencyBell":true,"cctv":false,"managerTel":"0553925473","source":"public","category":"public"},{"id":"202053800000100287","name":"상가주차장(내원사 내)","lat":35.442752,"lng":129.093933,"roadAddr":"하북면 용연리 281-3","openHours":"상시","maleToilets":6,"femaleToilets":5,"disabled":true,"diaperTable":false,"emergencyBell":true,"cctv":false,"managerTel":"0553925473","source":"public","category":"public"},{"id":"202053800000100280","name":"한듬계곡","lat":35.445787,"lng":129.110452,"roadAddr":"하북면 내원로 207","openHours":"상시","maleToilets":3,"femaleToilets":3,"disabled":false,"diaperTable":false,"emergencyBell":true,"cctv":false,"managerTel":"0553925473","source":"public","category":"public"},{"id":"202053800000100002","name":"영신주유소","lat":35.436132,"lng":129.069341,"roadAddr":"경남 양산시 하북면 양산대로 1937","openHours":"정시","maleToilets":10,"femaleToilets":8,"disabled":false,"diaperTable":false,"emergencyBell":false,"cctv":false,"managerTel":"0553759644","source":"public","category":"public"},{"id":"202053800000100286","name":"공원화장실(내원사 내)","lat":35.442752,"lng":129.093933,"roadAddr":"하북면 용연리 281-3","openHours":"상시","maleToilets":6,"femaleToilets":6,"disabled":true,"diaperTable":true,"emergencyBell":true,"cctv":false,"managerTel":"0553925473","source":"public","category":"public"},{"id":"202053800000100281","name":"쌍바위","lat":35.445787,"lng":129.110452,"roadAddr":"하북면 내원로 207","openHours":"상시","maleToilets":4,"femaleToilets":3,"disabled":false,"diaperTable":false,"emergencyBell":false,"cctv":false,"managerTel":"0553925473","source":"public","category":"public"},{"id":"202053800000100219","name":"지푸네골2","lat":35.423181,"lng":129.070565,"roadAddr":"상북면 석계리 산22-1","openHours":"상시","maleToilets":2,"femaleToilets":1,"disabled":false,"diaperTable":false,"emergencyBell":false,"cctv":false,"managerTel":"0553925473","source":"public","category":"public"},{"id":"202053800000100282","name":"금강","lat":35.445787,"lng":129.110452,"roadAddr":"하북면 내원로 207","openHours":"상시","maleToilets":3,"femaleToilets":3,"disabled":false,"diaperTable":false,"emergencyBell":true,"cctv":false,"managerTel":"0553925473","source":"public","category":"public"},{"id":"202053800000100278","name":"내원사2","lat":35.445787,"lng":129.110452,"roadAddr":"하북면 내원로 207","openHours":"상시","maleToilets":4,"femaleToilets":3,"disabled":false,"diaperTable":true,"emergencyBell":true,"cctv":false,"managerTel":"0553925473","source":"public","category":"public"},{"id":"202053800000100120","name":"용연솔밭쉼터","lat":35.445585,"lng":129.074129,"roadAddr":"경남 양산시 하북면 용연로 69-8 (용연리)","openHours":"상시","maleToilets":3,"femaleToilets":3,"disabled":false,"diaperTable":false,"emergencyBell":true,"cctv":false,"managerTel":"0553925473","source":"public","category":"public"},{"id":"202053800000100169","name":"내원휴게소","lat":35.439129,"lng":129.071895,"roadAddr":"경상남도 양산시 하북면 양산대로 1964","openHours":"정시","maleToilets":13,"femaleToilets":5,"disabled":false,"diaperTable":false,"emergencyBell":false,"cctv":false,"managerTel":"0553756839","source":"public","category":"public"},{"id":"202053800000100168","name":"양산휴게소","lat":35.436132,"lng":129.069341,"roadAddr":"경상남도 양산시 하북면 양산대로 1937","openHours":"정시","maleToilets":15,"femaleToilets":12,"disabled":false,"diaperTable":false,"emergencyBell":false,"cctv":false,"managerTel":"0553840144","source":"public","category":"public"},{"id":"202053800000100279","name":"내원사1","lat":35.445787,"lng":129.110452,"roadAddr":"하북면 내원로 207","openHours":"상시","maleToilets":2,"femaleToilets":2,"disabled":false,"diaperTable":false,"emergencyBell":false,"cctv":false,"managerTel":"0553925473","source":"public","category":"public"},{"id":"202053800000100283","name":"소금강","lat":35.445787,"lng":129.110452,"roadAddr":"하북면 내원로 207","openHours":"상시","maleToilets":3,"femaleToilets":3,"disabled":false,"diaperTable":false,"emergencyBell":true,"cctv":false,"managerTel":"0553925473","source":"public","category":"public"}]