[{"id":"202053800000100088","name":"위너스주유소","lat":35.376655,"lng":129.155024,"roadAddr":"경남 양산시 웅상대로 863 (덕계동, 스피드주유소)","openHours":"정시","maleToilets":3,"femaleToilets":2,"disabled":false,"diaperTable":false,"emergencyBell":false,"cctv":true,"managerTel":"0553879790","source":"public","category":"public"},{"id":"202653800000100041","name":"웅상농협","lat":35.381819,"lng":129.151579,"roadAddr":"경상남도 양산시 평산로 30, 웅상농협 (평산동)","jibunAddr":"경상남도 양산시 평산동 94-5 웅상농협","openHours":"정시","maleToilets":2,"femaleToilets":2,"disabled":false,"diaperTable":false,"emergencyBell":false,"cctv":false,"source":"public","category":"public"},{"id":"202053800000100343","name":"웅상중학교","lat":35.37645,"lng":129.143993,"roadAddr":"경상남도 양산시 배움터길 48 (평산동)","openHours":"정시","maleToilets":112,"femaleToilets":32,"disabled":true,"diaperTable":false,"emergencyBell":false,"cctv":false,"managerTel":"0553643201","source":"public","category":"public"},{"id":"202053800000100154","name":"웅상도서관","lat":35.389363,"lng":129.155272,"roadAddr":"경상남도 양산시 웅상대로 1009-2","openHours":"정시","maleToilets":23,"femaleToilets":23,"disabled":true,"diaperTable":true,"emergencyBell":true,"cctv":false,"managerTel":"0553925957","source":"public","category":"public"},{"id":"202053800000100274","name":"평산음악공원","lat":35.380711,"lng":129.150719,"roadAddr":"경상남도 양산시 평산7길 11 (평산동)","jibunAddr":"경상남도 양산시 평산동 105-5","openHours":"상시","maleToilets":2,"femaleToilets":2,"disabled":false,"diaperTable":false,"emergencyBell":true,"cctv":false,"managerTel":"0553925473","source":"public","category":"public"},{"id":"202053800000100126","name":"덕계파출소","lat":35.376014,"lng":129.152621,"roadAddr":"경상남도 양산시 덕계로 95","openHours":"정시","maleToilets":3,"femaleToilets":1,"disabled":false,"diaperTable":false,"emergencyBell":false,"cctv":false,"managerTel":"0553650112","source":"public","category":"public"},{"id":"202053800000100244","name":"평산동행정복지센터","lat":35.381652,"lng":129.146983,"roadAddr":"양산시 평산로 71","openHours":"정시","maleToilets":8,"femaleToilets":2,"disabled":true,"diaperTable":false,"emergencyBell":false,"cctv":false,"managerTel":"0553926808","source":"public","category":"public"},{"id":"202053800000100150","name":"MS종합가스(주)","lat":35.419094,"lng":129.155141,"roadAddr":"경상남도 양산시 소주공단2길 48","openHours":"정시","maleToilets":2,"femaleToilets":1,"disabled":false,"diaperTable":false,"emergencyBell":false,"cctv":false,"managerTel":"0553660521","source":"public","category":"public"},{"id":"202053800000100165","name":"아리골공원","lat":35.38326,"lng":129.149444,"roadAddr":"경상남도 양산시 신명로 20 (평산동)","jibunAddr":"경상남도 양산시 평산동 87","openHours":"상시","maleToilets":2,"femaleToilets":1,"disabled":false,"diaperTable":false,"emergencyBell":true,"cctv":false,"managerTel":"0553925473","source":"public","category":"public"},{"id":"202253800000100005","name":"평산교화장실","lat":35.377616,"lng":129.153575,"roadAddr":"경상남도 양산시 덕계회야길 120, 평산교 화장실 (덕계동)","jibunAddr":"경상남도 양산시 덕계동 878 평산교 화장실","openHours":"상시","maleToilets":4,"femaleToilets":3,"disabled":false,"diaperTable":false,"emergencyBell":true,"cctv":false,"managerTel":"0553925473","source":"public","category":"public"},{"id":"202053800000100275","name":"무지개폭포(1)","lat":35.378023,"lng":129.126683,"roadAddr":"경상남도 양산시 무지개길 148-2 (평산동)","jibunAddr":"경상남도 양산시 평산동 1084","openHours":"상시","maleToilets":4,"femaleToilets":2,"disabled":false,"diaperTable":false,"emergencyBell":true,"cctv":false,"managerTel":"0553925473","source":"public","category":"public"},{"id":"202653800000100031","name":"평산어린이공원","lat":35.383175,"lng":129.153092,"roadAddr":"경상남도 양산시 평산북3길 45 (평산동)","jibunAddr":"경상남도 양산시 평산동 74-2","openHours":"상시","maleToilets":2,"femaleToilets":2,"disabled":false,"diaperTable":false,"emergencyBell":true,"cctv":false,"managerTel":"0553925473","source":"public","category":"public"},{"id":"202053800000100222","name":"보현사","lat":35.409438,"lng":129.141754,"roadAddr":"경상남도 양산시 초동길 82-126 (소주동)","jibunAddr":"경상남도 양산시 소주동 산 88-4","openHours":"상시","maleToilets":2,"femaleToilets":2,"disabled":false,"diaperTable":false,"emergencyBell":false,"cctv":false,"managerTel":"0553925473","source":"public","category":"public"},{"id":"202053800000100276","name":"평산근린공원","lat":35.385971,"lng":129.141497,"roadAddr":"평산동 584","jibunAddr":"경상남도 양산시 평산동 산 25-5","openHours":"상시","maleToilets":3,"femaleToilets":4,"disabled":true,"diaperTable":false,"emergencyBell":true,"cctv":false,"managerTel":"0553925473","source":"public","category":"public"},{"id":"202653800000100030","name":"미타암","lat":35.402493,"lng":129.134825,"roadAddr":"경상남도 양산시 주진로 356 (소주동)","jibunAddr":"경상남도 양산시 주진동 산 99-1","openHours":"상시","maleToilets":4,"femaleToilets":3,"disabled":false,"diaperTable":false,"emergencyBell":false,"cctv":false,"managerTel":"0553925473","source":"public","category":"public"}]