[{"id":"202334000000100194","name":"장안(부산)휴게소","lat":35.377525,"lng":129.246402,"roadAddr":"부산광역시 기장군 장안읍 동해고속도로 25, 장안휴게소하행","jibunAddr":"부산광역시 기장군 장안읍 장안리 산 31-1 장안휴게소하행","openHours":"상시","maleToilets":23,"femaleToilets":25,"disabled":true,"diaperTable":true,"emergencyBell":true,"cctv":true,"managerTel":"0517273647","source":"public","category":"public"},{"id":"202334000000100195","name":"장안(울산)휴게소","lat":35.38287,"lng":129.248394,"roadAddr":"부산광역시 기장군 장안읍 동해고속도로 26, 장안휴게소상행","jibunAddr":"부산광역시 기장군 장안읍 명례리 산 78-1 장안휴게소상행","openHours":"상시","maleToilets":23,"femaleToilets":25,"disabled":true,"diaperTable":true,"emergencyBell":true,"cctv":true,"managerTel":"0517273714","source":"public","category":"public"},{"id":"202037300000100320","name":"옹기종기도서관 1층","lat":35.412832,"lng":129.276514,"roadAddr":"울산 울주군 온양읍 온양로 38-1 (운화리)","openHours":"8시간","maleToilets":4,"femaleToilets":3,"disabled":false,"diaperTable":false,"emergencyBell":false,"cctv":true,"source":"public","category":"public"},{"id":"202037300000100330","name":"대운천변","lat":35.395342,"lng":129.244235,"roadAddr":"울산 울주군 온양읍 운화리 1328-1","openHours":"8시간","maleToilets":2,"femaleToilets":0,"disabled":false,"diaperTable":false,"emergencyBell":false,"cctv":false,"source":"public","category":"public"},{"id":"202037300000100332","name":"운화리주차장2","lat":35.402289,"lng":129.258156,"roadAddr":"울산 울주군 온양읍 운화리 891","openHours":"8시간","maleToilets":2,"femaleToilets":1,"disabled":false,"diaperTable":false,"emergencyBell":false,"cctv":false,"source":"public","category":"public"},{"id":"202037300000100293","name":"온양파출소","lat":35.417177,"lng":129.282321,"roadAddr":"울산 울주군 온양읍 남창2길 30 (남창리, 온양파출소)","openHours":"8시간","maleToilets":0,"femaleToilets":0,"disabled":false,"diaperTable":false,"emergencyBell":false,"cctv":false,"source":"public","category":"public"},{"id":"202037300000100319","name":"울주옹기종기도서관내 화장실","lat":35.412832,"lng":129.276514,"roadAddr":"울산 울주군 온양읍 온양로 38-1 (운화리)","openHours":"8시간","maleToilets":14,"femaleToilets":7,"disabled":false,"diaperTable":false,"emergencyBell":false,"cctv":true,"source":"public","category":"public"},{"id":"202037300000100292","name":"온양시외버스정류장","lat":35.417158,"lng":129.280588,"roadAddr":"울산 울주군 온양읍 남창1길 48","openHours":"8시간","maleToilets":2,"femaleToilets":2,"disabled":false,"diaperTable":true,"emergencyBell":false,"cctv":false,"source":"public","category":"public"},{"id":"202037300000100291","name":"온양문화복지센터 화장실","lat":35.419528,"lng":129.281374,"roadAddr":"울산 울주군 온양읍 남창1길 13 (남창리)","openHours":"8시간","maleToilets":18,"femaleToilets":18,"disabled":false,"diaperTable":true,"emergencyBell":true,"cctv":false,"source":"public","category":"public"},{"id":"202037300000100329","name":"대운산주차장","lat":35.395213,"lng":129.244699,"roadAddr":"울산 울주군 온양읍 운화리 1276-2","openHours":"8시간","maleToilets":8,"femaleToilets":7,"disabled":false,"diaperTable":false,"emergencyBell":false,"cctv":false,"source":"public","category":"public"},{"id":"202037300000100323","name":"온양119안전센터","lat":35.410865,"lng":129.279686,"roadAddr":"울산 울주군 온양읍 온양로 74 (대안리, 온양119안전센터)","openHours":"8시간","maleToilets":0,"femaleToilets":0,"disabled":false,"diaperTable":false,"emergencyBell":false,"cctv":false,"source":"public","category":"public"},{"id":"202037300000100309","name":"대안체육공원","lat":35.40241,"lng":129.272695,"roadAddr":"울산 울주군 온양읍 대안리 701","openHours":"8시간","maleToilets":0,"femaleToilets":0,"disabled":false,"diaperTable":false,"emergencyBell":false,"cctv":false,"source":"public","category":"public"},{"id":"202437300000100038","name":"운화테니스장 옆","lat":35.409301,"lng":129.271742,"roadAddr":"울산광역시 울주군 온양읍 운화리 산11-1일원","openHours":"상시","maleToilets":1,"femaleToilets":0,"disabled":false,"diaperTable":false,"emergencyBell":false,"cctv":false,"source":"public","category":"public"},{"id":"202437300000100035","name":"온양 운화 게이트볼장","lat":35.412535,"lng":129.27548,"roadAddr":"울산광역시 울주군 온양읍 운화리 231","openHours":"정시","maleToilets":3,"femaleToilets":2,"disabled":false,"diaperTable":false,"emergencyBell":false,"cctv":false,"source":"public","category":"public"},{"id":"202437300000100037","name":"온양읍행정복지센터","lat":35.419007,"lng":129.280615,"roadAddr":"울산광역시 울주군 온양읍 남창리 270","openHours":"정시","maleToilets":10,"femaleToilets":7,"disabled":true,"diaperTable":true,"emergencyBell":false,"cctv":false,"source":"public","category":"public"},{"id":"202437300000100036","name":"온양 운화 테니스장","lat":35.409301,"lng":129.271742,"roadAddr":"울산광역시 울주군온양읍 운화리 산 11-1","openHours":"정시","maleToilets":2,"femaleToilets":1,"disabled":false,"diaperTable":false,"emergencyBell":false,"cctv":false,"source":"public","category":"public"},{"id":"202037300000100307","name":"토리공원","lat":35.407721,"lng":129.284215,"roadAddr":"울산 울주군 온양읍 대안리 408-3","openHours":"8시간","maleToilets":2,"femaleToilets":2,"disabled":false,"diaperTable":false,"emergencyBell":true,"cctv":true,"source":"public","category":"public"},{"id":"202037300000100304","name":"남창시장","lat":35.416397,"lng":129.28285,"roadAddr":"울산 울주군 온양읍 남창리 146","openHours":"8시간","maleToilets":8,"femaleToilets":6,"disabled":false,"diaperTable":false,"emergencyBell":true,"cctv":false,"source":"public","category":"public"},{"id":"202437300000100057","name":"남창역","lat":35.417116,"lng":129.28344,"roadAddr":"울산광역시 울주군 온양읍 남창역길 40","openHours":"상시","maleToilets":6,"femaleToilets":9,"disabled":true,"diaperTable":true,"emergencyBell":true,"cctv":false,"source":"public","category":"public"},{"id":"202037300000100305","name":"남창시장제방옆","lat":35.415732,"lng":129.282758,"roadAddr":"울산 울주군 온양읍 남창리 186-5","openHours":"8시간","maleToilets":6,"femaleToilets":5,"disabled":false,"diaperTable":false,"emergencyBell":true,"cctv":false,"source":"public","category":"public"},{"id":"202037300000100331","name":"운화리주차장1","lat":35.402701,"lng":129.2573,"roadAddr":"울산 울주군 온양읍 운화리 873","openHours":"8시간","maleToilets":2,"femaleToilets":1,"disabled":false,"diaperTable":false,"emergencyBell":false,"cctv":false,"source":"public","category":"public"},{"id":"202037300000100308","name":"진이공원","lat":35.413689,"lng":129.283828,"roadAddr":"울산 울주군 온양읍 대안리 561-1","openHours":"8시간","maleToilets":2,"femaleToilets":2,"disabled":false,"diaperTable":false,"emergencyBell":false,"cctv":true,"source":"public","category":"public"},{"id":"202037300000100215","name":"물레골","lat":35.378596,"lng":129.279821,"roadAddr":"울산 울주군 서생면 화산리 298-1","openHours":"8시간","maleToilets":0,"femaleToilets":0,"disabled":false,"diaperTable":false,"emergencyBell":false,"cctv":false,"source":"public","category":"public"},{"id":"202137300000100001","name":"운화테니스장옆","lat":35.409301,"lng":129.271742,"jibunAddr":"울산광역시 울주군 온양읍 운화리 산 11-1","openHours":"24시","maleToilets":1,"femaleToilets":0,"disabled":false,"diaperTable":false,"emergencyBell":false,"cctv":false,"source":"public","category":"public"}]