[{"id":"202053800000100216","name":"홍룡사3","lat":35.389926,"lng":129.083992,"roadAddr":"상북면 대석리 산 157-1","openHours":"상시","maleToilets":3,"femaleToilets":1,"disabled":false,"diaperTable":false,"emergencyBell":false,"cctv":false,"managerTel":"0553925473","source":"public","category":"public"},{"id":"202053800000100217","name":"홍룡사범종","lat":35.390327,"lng":129.082668,"roadAddr":"경상남도 양산시 상북면 홍룡로 280","jibunAddr":"경상남도 양산시 상북면 대석리 산 157","openHours":"상시","maleToilets":4,"femaleToilets":4,"disabled":false,"diaperTable":true,"emergencyBell":true,"cctv":false,"managerTel":"0553925473","source":"public","category":"public"},{"id":"202053800000100341","name":"양주중학교","lat":35.415177,"lng":129.067757,"roadAddr":"경상남도 양산시 상북면 양주마을2길18","openHours":"09~18","maleToilets":27,"femaleToilets":24,"disabled":true,"diaperTable":false,"emergencyBell":false,"cctv":false,"managerTel":"0553747211","source":"public","category":"public"},{"id":"202353800000100022","name":"대석저수지","lat":35.38742,"lng":129.073746,"roadAddr":"경상남도 양산시 상북면 홍룡로 168-54","jibunAddr":"경상남도 양산시 상북면 대석리 109","openHours":"상시","maleToilets":2,"femaleToilets":1,"disabled":false,"diaperTable":false,"emergencyBell":false,"cctv":false,"managerTel":"0553925473","source":"public","category":"public"},{"id":"202153800000100377","name":"봉수대근린공원","lat":35.41438,"lng":129.070534,"roadAddr":"경상남도 양산시 상북면 석계산단1길 86","jibunAddr":"경상남도 양산시 상북면 석계리 1119-1","openHours":"상시","maleToilets":3,"femaleToilets":5,"disabled":true,"diaperTable":false,"emergencyBell":true,"cctv":false,"managerTel":"0553925473","source":"public","category":"public"},{"id":"202053800000100215","name":"홍룡사2","lat":35.392642,"lng":129.084313,"roadAddr":"상북면 대석리 산 149-4","openHours":"상시","maleToilets":3,"femaleToilets":1,"disabled":false,"diaperTable":false,"emergencyBell":false,"cctv":false,"managerTel":"0553925473","source":"public","category":"public"},{"id":"202653800000100014","name":"원효암주차장","lat":35.388891,"lng":129.107728,"jibunAddr":"경상남도 양산시 평산동 산 171-5","openHours":"상시","maleToilets":1,"femaleToilets":1,"disabled":false,"diaperTable":false,"emergencyBell":false,"cctv":false,"managerTel":"0553925473","source":"public","category":"public"}]