[{"id":"202037300000100324","name":"울주민속박물관","lat":35.436416,"lng":129.280951,"roadAddr":"울산 울주군 온양읍 외고산1길 4-19","openHours":"8시간","maleToilets":4,"femaleToilets":4,"disabled":false,"diaperTable":false,"emergencyBell":false,"cctv":false,"source":"public","category":"public"},{"id":"202037300000100287","name":"옹기아카데미 2공방","lat":35.432977,"lng":129.279058,"roadAddr":"울산 울주군 온양읍 고산리 512-12","openHours":"8시간","maleToilets":2,"femaleToilets":2,"disabled":false,"diaperTable":false,"emergencyBell":false,"cctv":false,"source":"public","category":"public"},{"id":"202037300000100327","name":"옹기마을 마을안내센터","lat":35.432897,"lng":129.279856,"roadAddr":"울산 울주군 온양읍 외고산길 23 (고산리, 온양옹기회관)","openHours":"8시간","maleToilets":4,"femaleToilets":2,"disabled":false,"diaperTable":false,"emergencyBell":false,"cctv":false,"source":"public","category":"public"},{"id":"202037300000100328","name":"온양체육공원 화장실","lat":35.427772,"lng":129.280918,"roadAddr":"울산 울주군 온양읍 외고산옹기길 154 (고산리, 온양체육공원)","openHours":"8시간","maleToilets":14,"femaleToilets":12,"disabled":false,"diaperTable":false,"emergencyBell":true,"cctv":false,"source":"public","category":"public"},{"id":"202037300000100288","name":"옹기아카데미 1공방","lat":35.432475,"lng":129.278765,"roadAddr":"울산 울주군 온양읍 고산리 512-14","openHours":"8시간","maleToilets":2,"femaleToilets":2,"disabled":false,"diaperTable":false,"emergencyBell":false,"cctv":false,"source":"public","category":"public"},{"id":"202037300000100260","name":"온산휴게소","lat":35.438243,"lng":129.284677,"roadAddr":"울산 울주군 온산읍 덕신로 2","openHours":"8시간","maleToilets":0,"femaleToilets":0,"disabled":false,"diaperTable":false,"emergencyBell":false,"cctv":false,"source":"public","category":"public"},{"id":"202037300000100326","name":"옹기박물관","lat":35.435036,"lng":129.279531,"roadAddr":"울산 울주군 온양읍 외고산3길 36 (고산리, 옹기문화관)","openHours":"8시간","maleToilets":6,"femaleToilets":7,"disabled":false,"diaperTable":true,"emergencyBell":false,"cctv":false,"source":"public","category":"public"},{"id":"202037300000100325","name":"옹기마을 아카데미관","lat":35.432991,"lng":129.278447,"roadAddr":"울산 울주군 온양읍 외고산2길 2-13 (고산리, 옹기아카데미)","openHours":"8시간","maleToilets":6,"femaleToilets":6,"disabled":false,"diaperTable":false,"emergencyBell":false,"cctv":false,"source":"public","category":"public"},{"id":"202037300000100286","name":"옹기문화공원","lat":35.437998,"lng":129.280763,"roadAddr":"울산 울주군 온양읍 고산리 444-5","openHours":"8시간","maleToilets":6,"femaleToilets":9,"disabled":false,"diaperTable":false,"emergencyBell":false,"cctv":false,"source":"public","category":"public"}]