[{"id":"202037300000100179","name":"배내골철구소","lat":35.547454,"lng":129.009555,"roadAddr":"울산 울주군 상북면 이천리 산86-1","openHours":"8시간","maleToilets":4,"femaleToilets":3,"disabled":false,"diaperTable":false,"emergencyBell":false,"cctv":false,"source":"public","category":"public"},{"id":"202037300000100177","name":"간월진입로","lat":35.536115,"lng":129.007549,"roadAddr":"울산 울주군 상북면 이천리 산27-1","openHours":"8시간","maleToilets":2,"femaleToilets":1,"disabled":false,"diaperTable":false,"emergencyBell":false,"cctv":false,"source":"public","category":"public"},{"id":"202037300000100175","name":"배내골2","lat":35.523342,"lng":129.012025,"roadAddr":"울산 울주군 상북면 이천리 761","openHours":"8시간","maleToilets":2,"femaleToilets":1,"disabled":false,"diaperTable":false,"emergencyBell":false,"cctv":false,"source":"public","category":"public"},{"id":"202037300000100173","name":"배내골1","lat":35.542878,"lng":129.014197,"roadAddr":"울산 울주군 상북면 이천리 368","openHours":"8시간","maleToilets":2,"femaleToilets":2,"disabled":false,"diaperTable":false,"emergencyBell":false,"cctv":false,"source":"public","category":"public"},{"id":"202053800000100256","name":"태봉마을","lat":35.523274,"lng":129.00845,"roadAddr":"경상남도 양산시 원동면 배내로 922","jibunAddr":"경상남도 양산시 원동면 선리 96-5","openHours":"상시","maleToilets":2,"femaleToilets":1,"disabled":false,"diaperTable":false,"emergencyBell":false,"cctv":false,"managerTel":"0553925473","source":"public","category":"public"}]