[{"id":"202451900000100721","name":"와인터널","lat":35.714125,"lng":128.720297,"jibunAddr":"경상북도 청도군 화양읍 송금리907-1","openHours":"상시","maleToilets":2,"femaleToilets":0,"disabled":true,"diaperTable":false,"emergencyBell":false,"cctv":false,"managerTel":"0543711904","source":"public","category":"public"},{"id":"202451900000100763","name":"남성현주유소","lat":35.700531,"lng":128.716226,"jibunAddr":"경상북도 청도군 화양읍 다로리533","openHours":"상시","maleToilets":2,"femaleToilets":0,"disabled":true,"diaperTable":false,"emergencyBell":false,"cctv":false,"managerTel":"0543715000","source":"public","category":"public"},{"id":"202451900000100586","name":"용암온천앞주차장","lat":35.689068,"lng":128.720019,"jibunAddr":"경상북도 청도군 화양읍 삼신리685-2","openHours":"정시","maleToilets":4,"femaleToilets":2,"disabled":true,"diaperTable":false,"emergencyBell":false,"cctv":false,"managerTel":"0543727003","source":"public","category":"public"},{"id":"202451900000100583","name":"남성현출장소","lat":35.695913,"lng":128.717662,"jibunAddr":"경상북도 청도군 화양읍 삼신리508-7","openHours":"정시","maleToilets":1,"femaleToilets":0,"disabled":false,"diaperTable":false,"emergencyBell":false,"cctv":false,"managerTel":"0543728105","source":"public","category":"public"},{"id":"202451900000100722","name":"송금리주차장","lat":35.711476,"lng":128.722494,"jibunAddr":"경상북도 청도군 화양읍 송금리308-5","openHours":"상시","maleToilets":4,"femaleToilets":0,"disabled":true,"diaperTable":false,"emergencyBell":false,"cctv":false,"managerTel":"0543711904","source":"public","category":"public"},{"id":"202451900000100789","name":"청도용암온천","lat":35.688898,"lng":128.719112,"jibunAddr":"경상북도 청도군 화양읍 삼신리929","openHours":"상시","maleToilets":8,"femaleToilets":0,"disabled":true,"diaperTable":true,"emergencyBell":false,"cctv":false,"managerTel":"0543703380","source":"public","category":"public"},{"id":"202451900000100553","name":"소싸움경기장","lat":35.687864,"lng":128.724005,"jibunAddr":"경상북도 청도군 화양읍 삼신리693-2","openHours":"상시","maleToilets":2,"femaleToilets":1,"disabled":false,"diaperTable":false,"emergencyBell":false,"cctv":false,"managerTel":"0543702449","source":"public","category":"public"},{"id":"202451900000100718","name":"남성현역","lat":35.704783,"lng":128.716538,"jibunAddr":"경상북도 청도군 화양읍 다로리426-1","openHours":"정시","maleToilets":2,"femaleToilets":0,"disabled":true,"diaperTable":false,"emergencyBell":false,"cctv":false,"managerTel":"0543731816","source":"public","category":"public"}]