[{"id":"202451900000100639","name":"팔조령구길휴게소","lat":35.720173,"lng":128.676212,"jibunAddr":"경상북도 청도군 이서면 팔조리산 65-2","openHours":"상시","maleToilets":2,"femaleToilets":1,"disabled":false,"diaperTable":false,"emergencyBell":false,"cctv":false,"managerTel":"0543702613","source":"public","category":"public"},{"id":"202451900000100774","name":"서청도농협 양원주유소","lat":35.689706,"lng":128.686714,"jibunAddr":"경상북도 청도군 이서면 양원리227-1","openHours":"정시","maleToilets":2,"femaleToilets":0,"disabled":true,"diaperTable":false,"emergencyBell":false,"cctv":false,"managerTel":"0543724661","source":"public","category":"public"},{"id":"202451900000100641","name":"양원보건진료소","lat":35.688551,"lng":128.686215,"jibunAddr":"경상북도 청도군 이서면 양원리233-3","openHours":"상시","maleToilets":2,"femaleToilets":1,"disabled":false,"diaperTable":false,"emergencyBell":false,"cctv":false,"managerTel":"0543702613","source":"public","category":"public"},{"id":"202451900000100716","name":"팔조령휴게소","lat":35.710872,"lng":128.684862,"jibunAddr":"경상북도 청도군 이서면 팔조리170-2","openHours":"정시","maleToilets":1,"femaleToilets":0,"disabled":true,"diaperTable":false,"emergencyBell":false,"cctv":false,"managerTel":"0543702191","source":"public","category":"public"},{"id":"202451900000100773","name":"양원주유소","lat":35.686706,"lng":128.685392,"jibunAddr":"경상북도 청도군 이서면 양원리285-1","openHours":"정시","maleToilets":1,"femaleToilets":0,"disabled":true,"diaperTable":false,"emergencyBell":false,"cctv":false,"managerTel":"0543711777","source":"public","category":"public"},{"id":"202451900000100636","name":"청도박물관","lat":35.694034,"lng":128.686573,"jibunAddr":"경상북도 청도군 이서면 양원리129-5","openHours":"상시","maleToilets":2,"femaleToilets":1,"disabled":false,"diaperTable":false,"emergencyBell":false,"cctv":false,"managerTel":"0543702613","source":"public","category":"public"}]