[{"id":"202551300000100061","name":"경산옥곡동우체국","lat":35.813976,"lng":128.731784,"roadAddr":"경상북도 경산시 경산로 55","jibunAddr":"경상북도 경산시 옥곡동 823-7","openHours":"09:00~18:00","maleToilets":2,"femaleToilets":1,"disabled":true,"diaperTable":false,"emergencyBell":false,"cctv":false,"managerTel":"0538013100","source":"public","category":"public"},{"id":"202551300000100004","name":"경산시장애인종합복지관","lat":35.801802,"lng":128.7478,"roadAddr":"경상북도 경산시 경청로222길 79, 경산시 장애인복지회관,노인복지회관 (백천동)","jibunAddr":"경상북도 경산시 백천동 146-7 경산시 장애인복지회관,노인복지회관","openHours":"09:00~18:00","maleToilets":12,"femaleToilets":6,"disabled":true,"diaperTable":false,"emergencyBell":true,"cctv":false,"managerTel":"0537192340","source":"public","category":"public"},{"id":"202551300000100233","name":"성암산입구공원A","lat":35.814917,"lng":128.721817,"roadAddr":"경상북도 경산시 삼성현로 188-21, 공중화장실 (사정동)","jibunAddr":"경상북도 경산시 사정동 236-1 공중화장실","openHours":"상시","maleToilets":3,"femaleToilets":2,"disabled":true,"diaperTable":false,"emergencyBell":false,"cctv":false,"managerTel":"0538106158","source":"public","category":"public"},{"id":"202551300000100207","name":"백천어린이공원","lat":35.806288,"lng":128.742259,"roadAddr":"경상북도 경산시 백천동 115번지 9호","openHours":"상시","maleToilets":4,"femaleToilets":4,"disabled":true,"diaperTable":false,"emergencyBell":true,"cctv":false,"managerTel":"0538106158","source":"public","category":"public"},{"id":"202551300000100195","name":"성암산레포츠공원","lat":35.814917,"lng":128.721817,"roadAddr":"경상북도 경산시 삼성현로 188-21","jibunAddr":"경상북도 경산시 사정동 236-1","openHours":"상시","maleToilets":4,"femaleToilets":4,"disabled":false,"diaperTable":false,"emergencyBell":false,"cctv":false,"managerTel":"0538047738","source":"public","category":"public"},{"id":"202551300000100237","name":"말매못근린공원","lat":35.812816,"lng":128.754831,"roadAddr":"경상북도 경산시 백양로 120","jibunAddr":"경상북도 경산시 사동 20","openHours":"상시","maleToilets":1,"femaleToilets":1,"disabled":true,"diaperTable":false,"emergencyBell":true,"cctv":false,"managerTel":"0538106158","source":"public","category":"public"},{"id":"202551300000100009","name":"경산시립장산도서관","lat":35.814517,"lng":128.730364,"roadAddr":"경상북도 경산시 경산로13길 7, 경산시립장산도서관 (옥곡동)","jibunAddr":"경상북도 경산시 옥곡동 821-1 경산시립장산도서관","openHours":"09:00~20:00","maleToilets":6,"femaleToilets":6,"disabled":true,"diaperTable":false,"emergencyBell":true,"cctv":false,"managerTel":"0538047960","source":"public","category":"public"},{"id":"202551300000100050","name":"동부동행정복지센터","lat":35.810251,"lng":128.75369,"roadAddr":"경상북도 경산시 백자로 46, 동부동 행정복지센터 (사동)","jibunAddr":"경상북도 경산시 사동 189-1 동부동 행정복지센터","openHours":"09:00~18:00","maleToilets":18,"femaleToilets":15,"disabled":true,"diaperTable":false,"emergencyBell":false,"cctv":false,"source":"public","category":"public"},{"id":"202551300000100234","name":"성암산입구공원B","lat":35.814971,"lng":128.720795,"roadAddr":"경상북도 경산시 삼성현로 188-28","jibunAddr":"경상북도 경산시 사정동 산 4-2","openHours":"상시","maleToilets":4,"femaleToilets":3,"disabled":true,"diaperTable":false,"emergencyBell":true,"cctv":true,"managerTel":"0538106158","source":"public","category":"public"},{"id":"202551300000100197","name":"남천변 공중화장실(옥곡동)","lat":35.814821,"lng":128.733493,"roadAddr":"경상북도 경산시 강변서로 72, 공중화장실 (옥곡동)","jibunAddr":"경상북도 경산시 옥곡동 187 공중화장실","openHours":"상시","maleToilets":5,"femaleToilets":5,"disabled":false,"diaperTable":true,"emergencyBell":true,"cctv":false,"managerTel":"0538105461","source":"public","category":"public"},{"id":"202551300000100018","name":"남부동행정복지센터","lat":35.81374,"lng":128.739478,"roadAddr":"경상북도 경산시 경안로 68, 남부동 행정복지센터 (신교동)","jibunAddr":"경상북도 경산시 신교동 73-1 남부동 행정복지센터","openHours":"09:00~18:00","maleToilets":5,"femaleToilets":3,"disabled":false,"diaperTable":false,"emergencyBell":false,"cctv":true,"managerTel":"0538047779","source":"public","category":"public"},{"id":"202551300000100249","name":"백천제2어린이공원","lat":35.801733,"lng":128.739969,"roadAddr":"경상북도 경산시 경청로218길 17-3","jibunAddr":"경상북도 경산시 백천동 591-1","openHours":"상시","maleToilets":2,"femaleToilets":3,"disabled":true,"diaperTable":true,"emergencyBell":false,"cctv":false,"managerTel":"0538106158","source":"public","category":"public"},{"id":"202551300000100005","name":"경산시노인종합복지관","lat":35.801802,"lng":128.7478,"roadAddr":"경상북도 경산시 경청로222길 79, 경산시 장애인복지회관,노인복지회관 (백천동)","jibunAddr":"경상북도 경산시 백천동 146-7 경산시 장애인복지회관,노인복지회관","openHours":"09:00~18:00","maleToilets":23,"femaleToilets":12,"disabled":true,"diaperTable":false,"emergencyBell":true,"cctv":false,"managerTel":"0538131102","source":"public","category":"public"},{"id":"202053800000100175","name":"옥곡어린이공원","lat":35.800072,"lng":128.737639,"roadAddr":"남부동 470-1","openHours":"상시","maleToilets":2,"femaleToilets":1,"disabled":false,"diaperTable":true,"emergencyBell":true,"cctv":false,"managerTel":"0553925473","source":"public","category":"public"}]