[{"id":"202537200000100604","name":"국민체육센터 화장실","lat":35.642767,"lng":129.347014,"roadAddr":"울산광역시 북구 호계로 416-31 (신천동, 국민체육센터)","openHours":"정시","maleToilets":18,"femaleToilets":10,"disabled":true,"diaperTable":false,"emergencyBell":true,"cctv":false,"managerTel":"0522555561","source":"public","category":"public"},{"id":"202537200000100592","name":"온누리공원 화장실","lat":35.64561,"lng":129.360179,"jibunAddr":"울산광역시 북구 매곡동 337","openHours":"상시","maleToilets":4,"femaleToilets":4,"disabled":true,"diaperTable":false,"emergencyBell":true,"cctv":false,"managerTel":"0522417945","source":"public","category":"public"},{"id":"202537200000100528","name":"울산북구기적의도서관","lat":35.662163,"lng":129.336515,"roadAddr":"울산광역시 북구 이화5길 29-13","jibunAddr":"울산광역시 북구 중산동 570-2","openHours":"정시","maleToilets":5,"femaleToilets":4,"disabled":false,"diaperTable":false,"emergencyBell":true,"cctv":true,"managerTel":"0522417420","source":"public","category":"public"},{"id":"202537200000100510","name":"중산문화센터","lat":35.659372,"lng":129.338877,"roadAddr":"울산광역시 북구 산업로 1643","jibunAddr":"울산광역시 북구 중산동 798-2","openHours":"정시","maleToilets":8,"femaleToilets":8,"disabled":true,"diaperTable":false,"emergencyBell":true,"cctv":false,"managerTel":"0522418722","source":"public","category":"public"},{"id":"202537200000100537","name":"약수천 공중화장실","lat":35.646129,"lng":129.339025,"jibunAddr":"울산광역시 북구 중산동 1178-8","openHours":"상시","maleToilets":2,"femaleToilets":2,"disabled":false,"diaperTable":false,"emergencyBell":true,"cctv":false,"managerTel":"0522417773","source":"public","category":"public"},{"id":"202537200000100692","name":"내트럭(주)울산약수사업소 휴게동 화장실","lat":35.644287,"lng":129.34074,"roadAddr":"울산광역시 북구 산업로 1515 (신천동)","openHours":"정시","maleToilets":19,"femaleToilets":8,"disabled":true,"diaperTable":true,"emergencyBell":false,"cctv":false,"managerTel":"0529462200","source":"public","category":"public"},{"id":"202537200000100572","name":"세대공감창의놀이터 외부 화장실","lat":35.657909,"lng":129.336051,"roadAddr":"울산광역시 북구 중보1길 25","jibunAddr":"울산광역시 북구 중산동 829","openHours":"상시","maleToilets":4,"femaleToilets":3,"disabled":false,"diaperTable":false,"emergencyBell":true,"cctv":false,"managerTel":"0522868540","source":"public","category":"public"},{"id":"202537200000100571","name":"세대공감창의놀이터 화장실","lat":35.657909,"lng":129.336051,"roadAddr":"울산광역시 북구 중보1길 25","jibunAddr":"울산광역시 북구 중산동 829","openHours":"정시","maleToilets":7,"femaleToilets":6,"disabled":true,"diaperTable":false,"emergencyBell":true,"cctv":false,"managerTel":"0522868540","source":"public","category":"public"},{"id":"202537200000100697","name":"자동차 조선기술관 화장실","lat":35.650575,"lng":129.362686,"roadAddr":"울산광역시 북구 매곡산업로 21","jibunAddr":"울산광역시 북구 매곡동 342-2","openHours":"정시","maleToilets":42,"femaleToilets":20,"disabled":true,"diaperTable":false,"emergencyBell":false,"cctv":false,"managerTel":"0522198875","source":"public","category":"public"},{"id":"202537200000100696","name":"자동차부품기술연구소 공작신뢰동 화장실","lat":35.650181,"lng":129.364179,"roadAddr":"울산광역시 북구 매곡산업로 35","jibunAddr":"울산광역시 북구 매곡동 342-1","openHours":"정시","maleToilets":73,"femaleToilets":29,"disabled":true,"diaperTable":false,"emergencyBell":false,"cctv":false,"managerTel":"0522198875","source":"public","category":"public"},{"id":"202537200000100693","name":"내트럭(주)울산약수사업소 주유동 화장실","lat":35.644287,"lng":129.34074,"roadAddr":"울산광역시 북구 산업로 1515 (신천동)","openHours":"정시","maleToilets":3,"femaleToilets":2,"disabled":false,"diaperTable":false,"emergencyBell":false,"cctv":false,"managerTel":"0529462200","source":"public","category":"public"},{"id":"202537200000100527","name":"매곡도서관 화장실","lat":35.646506,"lng":129.358898,"roadAddr":"울산광역시 북구 매곡로 138-19","jibunAddr":"울산광역시 북구 매곡동 795-35","openHours":"정시","maleToilets":9,"femaleToilets":9,"disabled":true,"diaperTable":false,"emergencyBell":true,"cctv":false,"managerTel":"0522417470","source":"public","category":"public"}]