[{"id":"202450500000100042","name":"알천파크 골프장 화장실","lat":35.84012,"lng":129.244048,"roadAddr":"경상북도 경주시 구황동 7-1","jibunAddr":"경상북도 경주시 구황동 7-1","openHours":"정시","maleToilets":2,"femaleToilets":1,"disabled":true,"diaperTable":false,"emergencyBell":false,"cctv":false,"managerTel":"0547508590","source":"public","category":"public"},{"id":"202450500000100041","name":"신라왕경숲 B동 화장실","lat":35.840854,"lng":129.247947,"roadAddr":"경상북도 경주시 구황동 2-1","jibunAddr":"경상북도 경주시 구황동 2-1","openHours":"상시","maleToilets":6,"femaleToilets":6,"disabled":true,"diaperTable":false,"emergencyBell":true,"cctv":false,"managerTel":"0547798772","source":"public","category":"public"},{"id":"202450500000100301","name":"콩코드 앞 화장실","lat":35.846469,"lng":129.284193,"roadAddr":"경상북도 경주시 신평동 444-1","jibunAddr":"경상북도 경주시 신평동 444-1","openHours":"상시","maleToilets":3,"femaleToilets":2,"disabled":false,"diaperTable":false,"emergencyBell":false,"cctv":false,"managerTel":"0547407383","source":"public","category":"public"},{"id":"202450500000100049","name":"알천 5구장 화장실","lat":35.840734,"lng":129.243361,"roadAddr":"경상북도 경주시 구황동 883-1","jibunAddr":"경상북도 경주시 구황동 883-1","openHours":"정시","maleToilets":4,"femaleToilets":1,"disabled":false,"diaperTable":false,"emergencyBell":false,"cctv":false,"managerTel":"0547508580","source":"public","category":"public"},{"id":"202450500000100110","name":"진평왕릉 화장실","lat":35.833121,"lng":129.251607,"roadAddr":"경상북도 경주시 보문동 275-1","jibunAddr":"경상북도 경주시 보문동 275-1","openHours":"상시","maleToilets":2,"femaleToilets":1,"disabled":false,"diaperTable":false,"emergencyBell":false,"cctv":false,"managerTel":"0547798751","source":"public","category":"public"},{"id":"202450500000100040","name":"신라왕경숲 A동 화장실","lat":35.840854,"lng":129.247947,"roadAddr":"경상북도 경주시 구황동 2-1","jibunAddr":"경상북도 경주시 구황동 2-1","openHours":"상시","maleToilets":6,"femaleToilets":6,"disabled":true,"diaperTable":true,"emergencyBell":true,"cctv":false,"managerTel":"0547798772","source":"public","category":"public"},{"id":"202450500000100305","name":"시범 화장실","lat":35.839001,"lng":129.285149,"roadAddr":"경상북도 경주시 보문로 510-14","jibunAddr":"경상북도 경주시 천군동 1584-26","openHours":"상시","maleToilets":6,"femaleToilets":4,"disabled":true,"diaperTable":true,"emergencyBell":false,"cctv":false,"managerTel":"0547407383","source":"public","category":"public"},{"id":"202450500000100093","name":"북천 간이화장실","lat":35.842163,"lng":129.244177,"roadAddr":"경상북도 경주시 알천북로 435","jibunAddr":"경상북도 경주시 동천동 988","openHours":"상시","maleToilets":2,"femaleToilets":1,"disabled":false,"diaperTable":false,"emergencyBell":false,"cctv":false,"managerTel":"0547798484","source":"public","category":"public"},{"id":"202450500000100236","name":"경주동궁원 주령구화장실","lat":35.849491,"lng":129.261505,"roadAddr":"경상북도 경주시 보문로 74-14","jibunAddr":"경상북도 경주시 북군동 185-1","openHours":"정시","maleToilets":4,"femaleToilets":4,"disabled":true,"diaperTable":false,"emergencyBell":true,"cctv":true,"managerTel":"0547798727","source":"public","category":"public"},{"id":"202450500000100296","name":"매실공원 화장실","lat":35.84518,"lng":129.282466,"roadAddr":"경상북도 경주시 보문로 402-24","jibunAddr":"경상북도 경주시 신평동 654-3","openHours":"상시","maleToilets":7,"femaleToilets":5,"disabled":true,"diaperTable":true,"emergencyBell":true,"cctv":false,"managerTel":"0547407383","source":"public","category":"public"},{"id":"202450500000100297","name":"서라벌광장 화장실","lat":35.852251,"lng":129.277847,"roadAddr":"경상북도 경주시 보문로 280-31","jibunAddr":"경상북도 경주시 신평동 480-3","openHours":"상시","maleToilets":8,"femaleToilets":5,"disabled":true,"diaperTable":true,"emergencyBell":false,"cctv":false,"managerTel":"0547407383","source":"public","category":"public"},{"id":"202450500000100306","name":"제실 화장실","lat":35.840915,"lng":129.273519,"roadAddr":"경상북도 경주시 경감로 423-13","jibunAddr":"경상북도 경주시 천군동 297-1","openHours":"상시","maleToilets":6,"femaleToilets":5,"disabled":true,"diaperTable":true,"emergencyBell":true,"cctv":false,"managerTel":"0547407383","source":"public","category":"public"},{"id":"202450500000100307","name":"물레방아 화장실","lat":35.845493,"lng":129.286483,"roadAddr":"경상북도 경주시 보문로 421","jibunAddr":"경상북도 경주시 신평동 417-6","openHours":"상시","maleToilets":8,"femaleToilets":8,"disabled":true,"diaperTable":true,"emergencyBell":true,"cctv":false,"managerTel":"0547407383","source":"public","category":"public"},{"id":"202450500000100109","name":"선덕여왕릉 화장실","lat":35.819554,"lng":129.24352,"roadAddr":"경상북도 경주시 배반동 943","jibunAddr":"경상북도 경주시 배반동 943","openHours":"상시","maleToilets":2,"femaleToilets":1,"disabled":false,"diaperTable":false,"emergencyBell":false,"cctv":false,"managerTel":"0547798751","source":"public","category":"public"},{"id":"202450500000100298","name":"그린 화장실","lat":35.852649,"lng":129.267722,"roadAddr":"경상북도 경주시 보문로 120","jibunAddr":"경상북도 경주시 북군동 57-29","openHours":"상시","maleToilets":7,"femaleToilets":4,"disabled":true,"diaperTable":false,"emergencyBell":false,"cctv":false,"managerTel":"0547407383","source":"public","category":"public"},{"id":"202450500000100235","name":"경주동궁원 알화장실","lat":35.849491,"lng":129.261505,"roadAddr":"경상북도 경주시 보문로 74-14","jibunAddr":"경상북도 경주시 북군동 185-1","openHours":"정시","maleToilets":8,"femaleToilets":8,"disabled":true,"diaperTable":true,"emergencyBell":true,"cctv":true,"managerTel":"0547798727","source":"public","category":"public"},{"id":"202450500000100047","name":"알천 3구장 화장실","lat":35.840734,"lng":129.243361,"roadAddr":"경상북도 경주시 구황동 883-1","jibunAddr":"경상북도 경주시 구황동 883-1","openHours":"정시","maleToilets":5,"femaleToilets":3,"disabled":false,"diaperTable":false,"emergencyBell":false,"cctv":false,"managerTel":"0547508580","source":"public","category":"public"},{"id":"202450500000100216","name":"스마트에어돔 화장실","lat":35.817431,"lng":129.270781,"roadAddr":"경상북도 경주시 경감로 466-283","jibunAddr":"경상북도 경주시 천군동 1550","openHours":"정시","maleToilets":5,"femaleToilets":5,"disabled":true,"diaperTable":true,"emergencyBell":false,"cctv":false,"managerTel":"0547796158","source":"public","category":"public"},{"id":"202450500000100300","name":"홍도(목월공원) 화장실","lat":35.848283,"lng":129.279406,"roadAddr":"경상북도 경주시 신평동 611-1","jibunAddr":"경상북도 경주시 신평동 611-1","openHours":"상시","maleToilets":6,"femaleToilets":4,"disabled":true,"diaperTable":true,"emergencyBell":true,"cctv":false,"managerTel":"0547407383","source":"public","category":"public"},{"id":"202450500000100048","name":"알천 4구장 화장실","lat":35.840734,"lng":129.243361,"roadAddr":"경상북도 경주시 구황동 883-1","jibunAddr":"경상북도 경주시 구황동 883-1","openHours":"정시","maleToilets":4,"femaleToilets":2,"disabled":false,"diaperTable":false,"emergencyBell":false,"cctv":false,"managerTel":"0547508580","source":"public","category":"public"},{"id":"202450500000100302","name":"호반장 화장실","lat":35.842054,"lng":129.284199,"roadAddr":"경상북도 경주시 신평동 719-203","jibunAddr":"경상북도 경주시 신평동 719-203","openHours":"상시","maleToilets":7,"femaleToilets":4,"disabled":true,"diaperTable":true,"emergencyBell":true,"cctv":false,"managerTel":"0547407383","source":"public","category":"public"},{"id":"202450500000100072","name":"헌덕왕릉 화장실","lat":35.843053,"lng":129.246031,"roadAddr":"경상북도 경주시 알천북로 449-6","jibunAddr":"경상북도 경주시 동천동 733-1022","openHours":"상시","maleToilets":2,"femaleToilets":1,"disabled":false,"diaperTable":false,"emergencyBell":false,"cctv":false,"managerTel":"0547798751","source":"public","category":"public"},{"id":"202450500000100299","name":"용골 화장실","lat":35.850723,"lng":129.274354,"roadAddr":"경상북도 경주시 신평동 485-1","jibunAddr":"경상북도 경주시 신평동 485-1","openHours":"상시","maleToilets":6,"femaleToilets":4,"disabled":true,"diaperTable":true,"emergencyBell":false,"cctv":false,"managerTel":"0547407383","source":"public","category":"public"},{"id":"202450500000100046","name":"알천 2구장 화장실","lat":35.840734,"lng":129.243361,"roadAddr":"경상북도 경주시 구황동 883-1","jibunAddr":"경상북도 경주시 구황동 883-1","openHours":"정시","maleToilets":4,"femaleToilets":3,"disabled":false,"diaperTable":false,"emergencyBell":false,"cctv":false,"managerTel":"0547508580","source":"public","category":"public"},{"id":"202450500000100303","name":"경주월드 화장실","lat":35.836509,"lng":129.285379,"roadAddr":"경상북도 경주시 천군동 205-49","jibunAddr":"경상북도 경주시 천군동 205-49","openHours":"상시","maleToilets":11,"femaleToilets":6,"disabled":true,"diaperTable":true,"emergencyBell":false,"cctv":false,"managerTel":"0547407383","source":"public","category":"public"}]