[{"id":"202550600000100112","name":"지례면보건지소 1층","lat":35.984591,"lng":128.026741,"roadAddr":"경상북도 김천시 지례면 상부길101-6","jibunAddr":"경상북도 김천시 지례면 상부길101-6","openHours":"상시","maleToilets":3,"femaleToilets":2,"disabled":true,"diaperTable":false,"emergencyBell":false,"cctv":false,"managerTel":"0544342008","source":"public","category":"public"},{"id":"202550600000100113","name":"김천시 지례한마음공원화장실","lat":35.978862,"lng":128.02216,"roadAddr":"경상북도 김천시 지례면 도곡리 330-10","jibunAddr":"경상북도 김천시 지례면 도곡리 330-10","openHours":"상시","maleToilets":1,"femaleToilets":1,"disabled":true,"diaperTable":true,"emergencyBell":true,"cctv":false,"managerTel":"0544206757","source":"public","category":"public"},{"id":"202550600000100094","name":"지례면보건지소 2층","lat":35.984591,"lng":128.026741,"roadAddr":"경상북도 김천시 지례면 상부길101-6","jibunAddr":"경상북도 김천시 지례면 상부길101-6","openHours":"상시","maleToilets":3,"femaleToilets":1,"disabled":false,"diaperTable":false,"emergencyBell":false,"cctv":false,"managerTel":"0544342008","source":"public","category":"public"},{"id":"202550600000100280","name":"김천소방서(지례119안전센터)","lat":35.990064,"lng":128.030582,"roadAddr":"경상북도 김천시 지례면 장터길 115 (교리, 지례소방서)","jibunAddr":"경상북도 김천시 지례면 장터길 115 (교리, 지례소방서)","openHours":"상시","maleToilets":5,"femaleToilets":1,"disabled":false,"diaperTable":false,"emergencyBell":false,"cctv":false,"managerTel":"0544205931","source":"public","category":"public"},{"id":"202550600000100060","name":"농기계임대사업소(남부지점)","lat":35.988718,"lng":128.034489,"roadAddr":"경상북도 김천시 지례면 지례로 40, 농기계임대은행남부지점","jibunAddr":"경상북도 김천시 지례면 지례로 40, 농기계임대은행남부지점","openHours":"상시","maleToilets":2,"femaleToilets":0,"disabled":false,"diaperTable":false,"emergencyBell":false,"cctv":false,"managerTel":"0544346076","source":"public","category":"public"},{"id":"202550600000100281","name":"김천시 지례면사무소 화장실","lat":35.98481,"lng":128.026658,"roadAddr":"경상북도 김천시 지례면 상부길 101 (교리, 지례면사무소)","jibunAddr":"경상북도 김천시 지례면 상부길 101 (교리, 지례면사무소)","openHours":"상시","maleToilets":4,"femaleToilets":2,"disabled":false,"diaperTable":true,"emergencyBell":false,"cctv":false,"managerTel":"0544212232","source":"public","category":"public"}]