[{"id":"202452100000100356","name":"봉학보건진료소","lat":35.975909,"lng":128.192525,"roadAddr":"경상북도 성주군 벽진면 봉학1길 9-5","jibunAddr":"경상북도 성주군 벽진면 봉학리 519","openHours":"09:00-18:00","maleToilets":1,"femaleToilets":1,"disabled":false,"diaperTable":false,"emergencyBell":false,"cctv":false,"managerTel":"0549327962","source":"public","category":"public"},{"id":"202452100000100313","name":"벽진면 복지회관","lat":35.948732,"lng":128.216804,"roadAddr":"경상북도 성주군 벽진면 수촌길 8","jibunAddr":"경상북도 성주군 벽진면 수촌리 810-9","openHours":"09:00-18:00","maleToilets":8,"femaleToilets":2,"disabled":true,"diaperTable":false,"emergencyBell":false,"cctv":false,"managerTel":"0549307876","source":"public","category":"public"},{"id":"202452100000100391","name":"벽진파출소 공중화장실","lat":35.949,"lng":128.217285,"roadAddr":"경상북도 성주군 벽진면 벽봉로 17","jibunAddr":"경상북도 성주군 벽진면 수촌리 808-4","openHours":"상시","maleToilets":4,"femaleToilets":1,"disabled":true,"diaperTable":false,"emergencyBell":false,"cctv":true,"managerTel":"0549300323","source":"public","category":"public"},{"id":"202452100000100315","name":"벽진버스정류장공중화장실","lat":35.948161,"lng":128.21806,"roadAddr":"경상북도 성주군 벽진면 벽봉로 5","jibunAddr":"경상북도 성주군 벽진면 수촌리 871-5","openHours":"09:00-18:00","maleToilets":2,"femaleToilets":1,"disabled":false,"diaperTable":false,"emergencyBell":false,"cctv":false,"managerTel":"0549307876","source":"public","category":"public"},{"id":"202452100000100312","name":"벽진면행정복지센터","lat":35.948506,"lng":128.216161,"roadAddr":"경상북도 성주군 벽진면 수촌길 12","jibunAddr":"경상북도 성주군 벽진면 수촌리 810","openHours":"09:00-18:00","maleToilets":7,"femaleToilets":2,"disabled":true,"diaperTable":false,"emergencyBell":false,"cctv":false,"managerTel":"0549307876","source":"public","category":"public"},{"id":"202452100000100367","name":"벽진보건지소","lat":35.948662,"lng":128.216206,"roadAddr":"경상북도 성주군 벽진면 수촌1길 7","jibunAddr":"경상북도 성주군 벽진면 수촌리 810","openHours":"09:00-18:00","maleToilets":3,"femaleToilets":2,"disabled":true,"diaperTable":false,"emergencyBell":false,"cctv":false,"managerTel":"0549327185","source":"public","category":"public"},{"id":"202452100000100314","name":"벽진전통시장공중화장실","lat":35.948732,"lng":128.216804,"roadAddr":"경상북도 성주군 벽진면 수촌길 8","jibunAddr":"경상북도 성주군 벽진면 수촌리 810-7","openHours":"09:00-18:00","maleToilets":2,"femaleToilets":1,"disabled":true,"diaperTable":false,"emergencyBell":false,"cctv":false,"managerTel":"0549307876","source":"public","category":"public"}]