[{"id":"202550600000100266","name":"국립종자원 화장실","lat":36.126345,"lng":128.193103,"roadAddr":"경상북도 김천시 혁신8로 119 (율곡동)","jibunAddr":"경상북도 김천시 혁신8로 119 (율곡동)","openHours":"상시","maleToilets":30,"femaleToilets":26,"disabled":true,"diaperTable":true,"emergencyBell":false,"cctv":false,"managerTel":"0549120135","source":"public","category":"public"},{"id":"202550600000100126","name":"서낭댕이공원화장실","lat":36.123127,"lng":128.195544,"roadAddr":"경상북도 김천시 율곡동 968","jibunAddr":"경상북도 김천시 율곡동 968","openHours":"상시","maleToilets":3,"femaleToilets":2,"disabled":false,"diaperTable":false,"emergencyBell":true,"cctv":false,"managerTel":"0544206757","source":"public","category":"public"},{"id":"202550600000100128","name":"서낭댕이공원 화장실","lat":36.12715,"lng":128.197085,"roadAddr":"경상북도 김천시 율곡동 959","jibunAddr":"경상북도 김천시 율곡동 959","openHours":"상시","maleToilets":1,"femaleToilets":1,"disabled":true,"diaperTable":true,"emergencyBell":true,"cctv":false,"managerTel":"0544206757","source":"public","category":"public"},{"id":"202550600000100032","name":"국제종자생명교육센터 화장실","lat":36.126007,"lng":128.195904,"roadAddr":"경상북도 김천시 혁신8로 145, 국제종자생명교육센터 (율곡동)","jibunAddr":"경상북도 김천시 혁신8로 145, 국제종자생명교육센터 (율곡동)","openHours":"상시","maleToilets":27,"femaleToilets":26,"disabled":true,"diaperTable":true,"emergencyBell":true,"cctv":false,"managerTel":"0548101503","source":"public","category":"public"},{"id":"202550600000100129","name":"안산공원 화장실","lat":36.128637,"lng":128.19179,"roadAddr":"경상북도 김천시 율곡동 939","jibunAddr":"경상북도 김천시 율곡동 939","openHours":"상시","maleToilets":1,"femaleToilets":1,"disabled":true,"diaperTable":false,"emergencyBell":true,"cctv":false,"managerTel":"0544206757","source":"public","category":"public"}]