[{"id":"202550600000100327","name":"김천시청 화장실(1층)","lat":36.139715,"lng":128.113308,"roadAddr":"경상북도 김천시 시청1길 1 (신음동,경상북도 김천시청)","jibunAddr":"경상북도 김천시 시청1길 1 (신음동,경상북도 김천시청)","openHours":"상시","maleToilets":9,"femaleToilets":8,"disabled":true,"diaperTable":true,"emergencyBell":false,"cctv":false,"managerTel":"0544206833","source":"public","category":"public"},{"id":"202550600000100108","name":"시립도서관2층 화장실","lat":36.123338,"lng":128.109915,"roadAddr":"경상북도 김천시 평화순환길111","jibunAddr":"경상북도 김천시 평화순환길111","openHours":"상시","maleToilets":7,"femaleToilets":6,"disabled":false,"diaperTable":false,"emergencyBell":false,"cctv":false,"managerTel":"0544206067","source":"public","category":"public"},{"id":"202550600000100157","name":"김천1일반산업단지(2단계) 근린공원 화장실","lat":36.162524,"lng":128.136969,"roadAddr":"경상북도 김천시 어모면 남산리 2022","jibunAddr":"경상북도 김천시 어모면 남산리 2022","openHours":"상시","maleToilets":3,"femaleToilets":3,"disabled":true,"diaperTable":false,"emergencyBell":false,"cctv":false,"managerTel":"0544206273","source":"public","category":"public"},{"id":"202550600000100107","name":"시립도서관3층 화장실","lat":36.123338,"lng":128.109915,"roadAddr":"경상북도 김천시 평화순환길111","jibunAddr":"경상북도 김천시 평화순환길111","openHours":"상시","maleToilets":7,"femaleToilets":6,"disabled":false,"diaperTable":false,"emergencyBell":false,"cctv":false,"managerTel":"0544206836","source":"public","category":"public"},{"id":"202550600000100324","name":"대신동주민센터 3층 화장실","lat":36.1353,"lng":128.115855,"roadAddr":"경상북도 김천시 신양1길 22 (신음동, 대신동주민센터)","jibunAddr":"경상북도 김천시 신양1길 22 (신음동, 대신동주민센터)","openHours":"상시","maleToilets":3,"femaleToilets":2,"disabled":false,"diaperTable":false,"emergencyBell":false,"cctv":false,"managerTel":"0544322517","source":"public","category":"public"},{"id":"202550600000100322","name":"대신동주민센터 1층 화장실","lat":36.1353,"lng":128.115855,"roadAddr":"경상북도 김천시 신양1길 22 (신음동, 대신동주민센터)","jibunAddr":"경상북도 김천시 신양1길 22 (신음동, 대신동주민센터)","openHours":"상시","maleToilets":5,"femaleToilets":2,"disabled":true,"diaperTable":false,"emergencyBell":false,"cctv":false,"managerTel":"0544322517","source":"public","category":"public"},{"id":"202550600000100326","name":"김천시청 화장실(2층)","lat":36.139715,"lng":128.113308,"roadAddr":"경상북도 김천시 시청1길 1 (신음동,경상북도 김천시청)","jibunAddr":"경상북도 김천시 시청1길 1 (신음동,경상북도 김천시청)","openHours":"상시","maleToilets":10,"femaleToilets":8,"disabled":true,"diaperTable":false,"emergencyBell":false,"cctv":false,"managerTel":"0544206833","source":"public","category":"public"},{"id":"202550600000100109","name":"시립도서관1층 화장실","lat":36.123338,"lng":128.109915,"roadAddr":"경상북도 김천시 평화순환길111","jibunAddr":"경상북도 김천시 평화순환길111","openHours":"상시","maleToilets":8,"femaleToilets":7,"disabled":true,"diaperTable":true,"emergencyBell":false,"cctv":false,"managerTel":"0544206067","source":"public","category":"public"},{"id":"202550600000100110","name":"시립도서관 지하1층 화장실","lat":36.123338,"lng":128.109915,"roadAddr":"경상북도 김천시 평화순환길111","jibunAddr":"경상북도 김천시 평화순환길111","openHours":"상시","maleToilets":9,"femaleToilets":8,"disabled":false,"diaperTable":false,"emergencyBell":false,"cctv":false,"managerTel":"0544206067","source":"public","category":"public"},{"id":"202550600000100158","name":"김천1일반산업단지(2단계) 수변공원 화장실(둥둥못)","lat":36.165337,"lng":128.129466,"roadAddr":"경상북도 김천시 어모면 남산리 2001","jibunAddr":"경상북도 김천시 어모면 남산리 2001","openHours":"상시","maleToilets":3,"femaleToilets":3,"disabled":true,"diaperTable":false,"emergencyBell":false,"cctv":false,"managerTel":"0544206241","source":"public","category":"public"},{"id":"202550600000100189","name":"김천시 보건소3층 화장실","lat":36.139535,"lng":128.11286,"roadAddr":"경상북도 김천시 시청1길 221, 김천시보건소 3층 (신음동)","jibunAddr":"경상북도 김천시 시청1길 221, 김천시보건소 3층 (신음동)","openHours":"상시","maleToilets":4,"femaleToilets":2,"disabled":true,"diaperTable":false,"emergencyBell":false,"cctv":false,"managerTel":"0544334000","source":"public","category":"public"},{"id":"202550600000100190","name":"김천시보건소1층 화장실","lat":36.139535,"lng":128.11286,"roadAddr":"경상북도 김천시 시청1길 221, 김천시보건소 1층 (신음동)","jibunAddr":"경상북도 김천시 시청1길 221, 김천시보건소 1층 (신음동)","openHours":"상시","maleToilets":5,"femaleToilets":3,"disabled":true,"diaperTable":true,"emergencyBell":false,"cctv":false,"managerTel":"0544334000","source":"public","category":"public"},{"id":"202550600000100192","name":"김천화장장","lat":36.134925,"lng":128.124254,"roadAddr":"경상북도 김천시 속구미3길 78","jibunAddr":"경상북도 김천시 속구미3길 78","openHours":"상시","maleToilets":2,"femaleToilets":2,"disabled":false,"diaperTable":false,"emergencyBell":false,"cctv":true,"managerTel":"0544301300","source":"public","category":"public"},{"id":"202550600000100297","name":"조각공원화장실","lat":36.129934,"lng":128.115803,"roadAddr":"경상북도 김천시 조각공원길 184 (신음동, 조각공원관리소)","jibunAddr":"경상북도 김천시 조각공원길 184 (신음동, 조각공원관리소)","openHours":"상시","maleToilets":6,"femaleToilets":3,"disabled":true,"diaperTable":true,"emergencyBell":true,"cctv":false,"managerTel":"0544206757","source":"public","category":"public"},{"id":"202550600000100325","name":"김천시청 화장실(3층)","lat":36.139715,"lng":128.113308,"roadAddr":"경상북도 김천시 시청1길 1 (신음동,경상북도 김천시청)","jibunAddr":"경상북도 김천시 시청1길 1 (신음동,경상북도 김천시청)","openHours":"상시","maleToilets":12,"femaleToilets":10,"disabled":true,"diaperTable":false,"emergencyBell":false,"cctv":false,"managerTel":"0544206833","source":"public","category":"public"},{"id":"202550600000100323","name":"대신동주민센터 2층 화장실","lat":36.1353,"lng":128.115855,"roadAddr":"경상북도 김천시 신양1길 22 (신음동, 대신동주민센터)","jibunAddr":"경상북도 김천시 신양1길 22 (신음동, 대신동주민센터)","openHours":"상시","maleToilets":5,"femaleToilets":2,"disabled":true,"diaperTable":false,"emergencyBell":false,"cctv":false,"managerTel":"0544322517","source":"public","category":"public"},{"id":"202550600000100375","name":"김천시 평생교육원(3층)","lat":36.143865,"lng":128.137236,"roadAddr":"경상북도 김천시 공단2길 30-22 (대광동,경상북도 김천시평생교육원)","jibunAddr":"경상북도 김천시 공단2길 30-22 (대광동,경상북도 김천시평생교육원)","openHours":"상시","maleToilets":2,"femaleToilets":5,"disabled":true,"diaperTable":false,"emergencyBell":false,"cctv":false,"managerTel":"0544212627","source":"public","category":"public"},{"id":"202550600000100260","name":"솔밭공원화장실","lat":36.128486,"lng":128.104388,"roadAddr":"경상북도 김천시 후생11길 17 (평화동)","jibunAddr":"경상북도 김천시 후생11길 17 (평화동)","openHours":"상시","maleToilets":1,"femaleToilets":1,"disabled":false,"diaperTable":false,"emergencyBell":false,"cctv":false,"managerTel":"0544206757","source":"public","category":"public"},{"id":"202550600000100369","name":"김천시 근로자종합복지관 (3층)","lat":36.152865,"lng":128.124948,"roadAddr":"경상북도 김천시 공단3길 120-1 (응명동)","jibunAddr":"경상북도 김천시 공단3길 120-1 (응명동)","openHours":"상시","maleToilets":8,"femaleToilets":4,"disabled":true,"diaperTable":false,"emergencyBell":false,"cctv":false,"managerTel":"0544362900","source":"public","category":"public"},{"id":"202550600000100376","name":"김천시 평생교육원(2층)","lat":36.143865,"lng":128.137236,"roadAddr":"경상북도 김천시 공단2길 30-22 (대광동,경상북도 김천시평생교육원)","jibunAddr":"경상북도 김천시 공단2길 30-22 (대광동,경상북도 김천시평생교육원)","openHours":"상시","maleToilets":2,"femaleToilets":5,"disabled":true,"diaperTable":false,"emergencyBell":false,"cctv":false,"managerTel":"0544212627","source":"public","category":"public"},{"id":"202550600000100374","name":"대광농공단지 공동이용시설","lat":36.144633,"lng":128.137448,"roadAddr":"경상북도 김천시 공단2길 30-30 (대광동, 조흥은행)","jibunAddr":"경상북도 김천시 공단2길 30-30 (대광동, 조흥은행)","openHours":"상시","maleToilets":6,"femaleToilets":3,"disabled":false,"diaperTable":false,"emergencyBell":false,"cctv":false,"managerTel":"0544206241","source":"public","category":"public"},{"id":"202550600000100372","name":"김천시 근로자종합복지관 (실외)","lat":36.152865,"lng":128.124948,"roadAddr":"경상북도 김천시 공단3길 120-1 (응명동)","jibunAddr":"경상북도 김천시 공단3길 120-1 (응명동)","openHours":"상시","maleToilets":2,"femaleToilets":1,"disabled":false,"diaperTable":false,"emergencyBell":false,"cctv":false,"managerTel":"0544362900","source":"public","category":"public"},{"id":"202550600000100370","name":"김천시 근로자종합복지관 (2층)","lat":36.152865,"lng":128.124948,"roadAddr":"경상북도 김천시 공단3길 120-1 (응명동)","jibunAddr":"경상북도 김천시 공단3길 120-1 (응명동)","openHours":"상시","maleToilets":8,"femaleToilets":4,"disabled":true,"diaperTable":false,"emergencyBell":false,"cctv":false,"managerTel":"0544362900","source":"public","category":"public"},{"id":"202550600000100092","name":"매목공원화장실","lat":36.141358,"lng":128.133649,"roadAddr":"경상북도 김천시 응명동 61-2","jibunAddr":"경상북도 김천시 응명동 61-2","openHours":"상시","maleToilets":3,"femaleToilets":2,"disabled":false,"diaperTable":false,"emergencyBell":false,"cctv":false,"managerTel":"0544206757","source":"public","category":"public"},{"id":"202550600000100368","name":"김천소방서(대광119안전센터)","lat":36.148355,"lng":128.138009,"roadAddr":"경상북도 김천시 공단로 152-36 (대광동, 김천소방서)","jibunAddr":"경상북도 김천시 공단로 152-36 (대광동, 김천소방서)","openHours":"상시","maleToilets":5,"femaleToilets":1,"disabled":false,"diaperTable":false,"emergencyBell":false,"cctv":false,"managerTel":"0544205921","source":"public","category":"public"},{"id":"202550600000100041","name":"김천시의회 1층 화장실","lat":36.138919,"lng":128.112533,"roadAddr":"경상북도 김천시 시청1길 223, 김천시의회 1층 (신음동)","jibunAddr":"경상북도 김천시 시청1길 223, 김천시의회 1층 (신음동)","openHours":"상시","maleToilets":5,"femaleToilets":1,"disabled":true,"diaperTable":false,"emergencyBell":false,"cctv":false,"managerTel":"0544212933","source":"public","category":"public"},{"id":"202550600000100016","name":"속구미 산책로 화장실","lat":36.130055,"lng":128.125685,"roadAddr":"경상북도 김천시 신음동 376-1","jibunAddr":"경상북도 김천시 신음동 376-1","openHours":"상시","maleToilets":3,"femaleToilets":2,"disabled":false,"diaperTable":false,"emergencyBell":false,"cctv":false,"managerTel":"0544322517","source":"public","category":"public"},{"id":"202550600000100040","name":"김천시의회 2층 화장실","lat":36.138919,"lng":128.112533,"roadAddr":"경상북도 김천시 시청1길 223, 김천시의회 (신음동)","jibunAddr":"경상북도 김천시 시청1길 223, 김천시의회 (신음동)","openHours":"상시","maleToilets":7,"femaleToilets":2,"disabled":false,"diaperTable":false,"emergencyBell":false,"cctv":false,"managerTel":"0544212933","source":"public","category":"public"},{"id":"202550600000100048","name":"직지사천 산책로 화장실","lat":36.130848,"lng":128.101742,"roadAddr":"경상북도 김천시 신음동 1209-4","jibunAddr":"경상북도 김천시 신음동 1209-4","openHours":"상시","maleToilets":3,"femaleToilets":2,"disabled":false,"diaperTable":false,"emergencyBell":false,"cctv":false,"managerTel":"0544322517","source":"public","category":"public"},{"id":"202550600000100197","name":"부곡시장화장실","lat":36.125833,"lng":128.104223,"roadAddr":"경상북도 김천시 부곡시장2길16","jibunAddr":"경상북도 김천시 부곡시장2길16","openHours":"상시","maleToilets":4,"femaleToilets":3,"disabled":false,"diaperTable":false,"emergencyBell":false,"cctv":false,"managerTel":"0544202403","source":"public","category":"public"},{"id":"202550600000100371","name":"김천시 근로자종합복지관 (1층)","lat":36.152865,"lng":128.124948,"roadAddr":"경상북도 김천시 공단3길 120-1 (응명동)","jibunAddr":"경상북도 김천시 공단3길 120-1 (응명동)","openHours":"상시","maleToilets":8,"femaleToilets":4,"disabled":true,"diaperTable":false,"emergencyBell":false,"cctv":false,"managerTel":"0544362900","source":"public","category":"public"},{"id":"202550600000100377","name":"김천시 평생교육원(1층)","lat":36.143865,"lng":128.137236,"roadAddr":"경상북도 김천시 공단2길 30-22 (대광동,경상북도 김천시평생교육원)","jibunAddr":"경상북도 김천시 공단2길 30-22 (대광동,경상북도 김천시평생교육원)","openHours":"상시","maleToilets":2,"femaleToilets":5,"disabled":true,"diaperTable":false,"emergencyBell":false,"cctv":false,"managerTel":"0544212627","source":"public","category":"public"},{"id":"202550600000100039","name":"김천시의회 3층","lat":36.138919,"lng":128.112533,"roadAddr":"경상북도 김천시 시청1길 223, 김천시의회 (신음동)","jibunAddr":"경상북도 김천시 시청1길 223, 김천시의회 (신음동)","openHours":"상시","maleToilets":7,"femaleToilets":2,"disabled":false,"diaperTable":false,"emergencyBell":false,"cctv":false,"managerTel":"0544212933","source":"public","category":"public"},{"id":"202550600000100188","name":"김천시 보건소2층 화장실","lat":36.139535,"lng":128.11286,"roadAddr":"경상북도 김천시 시청1길 221, 김천시보건소 2층 (신음동)","jibunAddr":"경상북도 김천시 시청1길 221, 김천시보건소 2층 (신음동)","openHours":"상시","maleToilets":4,"femaleToilets":2,"disabled":false,"diaperTable":false,"emergencyBell":false,"cctv":false,"managerTel":"0544334000","source":"public","category":"public"},{"id":"202550600000100258","name":"평화시장화장실","lat":36.123722,"lng":128.111335,"roadAddr":"경상북도 김천시 평화동 평화길88","jibunAddr":"경상북도 김천시 평화동 평화길88","openHours":"상시","maleToilets":6,"femaleToilets":6,"disabled":false,"diaperTable":false,"emergencyBell":false,"cctv":false,"managerTel":"0544312155","source":"public","category":"public"},{"id":"202550600000100071","name":"공중화장실(1단계)","lat":36.15639,"lng":128.122285,"roadAddr":"경상북도 김천시 어모면 남산리 1947","jibunAddr":"경상북도 김천시 어모면 남산리 1947","openHours":"상시","maleToilets":3,"femaleToilets":3,"disabled":true,"diaperTable":false,"emergencyBell":false,"cctv":false,"managerTel":"0544206662","source":"public","category":"public"}]