[{"id":"202534100000100123","name":"한국은행대구경북본부","lat":35.867939,"lng":128.603368,"roadAddr":"대구광역시 중구 동덕로 145","jibunAddr":"대구광역시 중구 동인동2가 80","openHours":"불규칙","maleToilets":5,"femaleToilets":3,"disabled":false,"diaperTable":false,"emergencyBell":true,"cctv":false,"managerTel":"0534290222","source":"public","category":"public"},{"id":"202534100000100153","name":"교동시장 공중화장실","lat":35.872865,"lng":128.596994,"roadAddr":"대구광역시 중구 동성로 70-18","jibunAddr":"대구광역시 중구 교동 82-1","openHours":"상시","maleToilets":9,"femaleToilets":10,"disabled":true,"diaperTable":false,"emergencyBell":true,"cctv":false,"managerTel":"0536612676","source":"public","category":"public"},{"id":"202534100000100011","name":"향촌문화관","lat":35.873408,"lng":128.594186,"roadAddr":"대구광역시 중구 중앙대로 449","jibunAddr":"대구광역시 중구 향촌동 9-1","openHours":"불규칙","maleToilets":15,"femaleToilets":15,"disabled":true,"diaperTable":false,"emergencyBell":false,"cctv":true,"managerTel":"0532194214","source":"public","category":"public"},{"id":"202534100000100134","name":"롯네시네마 프리미엄 만경관","lat":35.870954,"lng":128.590416,"roadAddr":"대구광역시 중구 국채보상로 547","jibunAddr":"대구광역시 중구 종로1가 29-4","openHours":"불규칙","maleToilets":35,"femaleToilets":33,"disabled":false,"diaperTable":false,"emergencyBell":true,"cctv":false,"managerTel":"15448855","source":"public","category":"public"},{"id":"202534100000100121","name":"곽병원","lat":35.870832,"lng":128.588677,"roadAddr":"대구광역시 중구 국채보상로 531","jibunAddr":"대구광역시 중구 수동 13-1","openHours":"상시","maleToilets":3,"femaleToilets":1,"disabled":false,"diaperTable":false,"emergencyBell":false,"cctv":false,"managerTel":"0532522401","source":"public","category":"public"},{"id":"202534100000100271","name":"하누리 어울림센터","lat":35.863932,"lng":128.588762,"roadAddr":"대구광역시 중구 명륜로 26-6","jibunAddr":"대구광역시 중구 남산동 571-12 외 3필지","openHours":"불규칙","maleToilets":2,"femaleToilets":1,"disabled":false,"diaperTable":false,"emergencyBell":true,"cctv":false,"managerTel":"0536612818","source":"public","category":"public"},{"id":"202534100000100163","name":"중부경찰서","lat":35.871752,"lng":128.590483,"roadAddr":"대구광역시 중구 경상감영길 55","jibunAddr":"대구광역시 중구 서문로1가 1-4","openHours":"불규칙","maleToilets":6,"femaleToilets":1,"disabled":true,"diaperTable":false,"emergencyBell":false,"cctv":false,"managerTel":"0534201321","source":"public","category":"public"},{"id":"202534100000100262","name":"한방의료체험타운","lat":35.868217,"lng":128.590975,"roadAddr":"대구광역시 중구 중앙대로77길 45","jibunAddr":"대구광역시 중구 종로2가 39-1 외 1","openHours":"상시","maleToilets":13,"femaleToilets":19,"disabled":true,"diaperTable":true,"emergencyBell":false,"cctv":false,"managerTel":"0534221075","source":"public","category":"public"},{"id":"202534100000100144","name":"약령시한의약박물관 관광안내소","lat":35.868127,"lng":128.58992,"roadAddr":"대구광역시 중구 남성로 27-1","jibunAddr":"대구광역시 중구 남성로 52-2","openHours":"불규칙","maleToilets":7,"femaleToilets":4,"disabled":true,"diaperTable":true,"emergencyBell":false,"cctv":false,"managerTel":"0536612624","source":"public","category":"public"},{"id":"202534100000100151","name":"반월당역(2호선)","lat":35.864421,"lng":128.593341,"roadAddr":"대구광역시 중구 달구벌대로 지하2100","jibunAddr":"대구광역시 중구 덕산동 88","openHours":"불규칙","maleToilets":13,"femaleToilets":14,"disabled":true,"diaperTable":false,"emergencyBell":true,"cctv":true,"managerTel":"0532520689","source":"public","category":"public"},{"id":"202634100000100004","name":"우현 하늘마당","lat":35.872087,"lng":128.588104,"roadAddr":"대구광역시 중구 서성로 62-1 (서성로1가)","jibunAddr":"대구광역시 중구 서성로1가 44","openHours":"정시","maleToilets":2,"femaleToilets":2,"disabled":true,"diaperTable":false,"emergencyBell":false,"cctv":false,"source":"public","category":"public"},{"id":"202534100000100074","name":"대구광역시 청사","lat":35.871567,"lng":128.601259,"roadAddr":"대구광역시 중구 공평로 88","jibunAddr":"대구광역시 중구 동인동1가 2-1","openHours":"불규칙","maleToilets":94,"femaleToilets":46,"disabled":true,"diaperTable":true,"emergencyBell":false,"cctv":false,"source":"public","category":"public"},{"id":"202534100000100125","name":"씨네시티한일빌딩","lat":35.87049,"lng":128.595377,"roadAddr":"대구광역시 중구 동성로 39","jibunAddr":"대구광역시 중구 동성로2가 88-22","openHours":"불규칙","maleToilets":2,"femaleToilets":1,"disabled":false,"diaperTable":false,"emergencyBell":false,"cctv":false,"managerTel":"0536002040","source":"public","category":"public"},{"id":"202534100000100085","name":"남산2동 행정복지센터","lat":35.864057,"lng":128.589568,"roadAddr":"대구광역시 중구 명륜로 27-1","jibunAddr":"대구광역시 중구 남산동 573-1","openHours":"불규칙","maleToilets":4,"femaleToilets":1,"disabled":true,"diaperTable":false,"emergencyBell":false,"cctv":false,"managerTel":"0536613718","source":"public","category":"public"},{"id":"202534100000100291","name":"건축자산통합관리센터 및 청년창업클러스터","lat":35.873914,"lng":128.591688,"roadAddr":"대구광역시 중구 북성로 86-5","jibunAddr":"대구광역시 중구 대안동 34 외 1필지","openHours":"불규칙","maleToilets":4,"femaleToilets":4,"disabled":true,"diaperTable":false,"emergencyBell":true,"cctv":false,"managerTel":"0536612564","source":"public","category":"public"},{"id":"202534100000100236","name":"삼덕119안전센터","lat":35.867189,"lng":128.599669,"roadAddr":"대구광역시 중구 공평로 35","jibunAddr":"대구광역시 중구 삼덕동1가 63-114","openHours":"상시","maleToilets":2,"femaleToilets":2,"disabled":false,"diaperTable":false,"emergencyBell":false,"cctv":false,"managerTel":"0536014575","source":"public","category":"public"},{"id":"202534100000100223","name":"성내2동 행정복지센터","lat":35.868381,"lng":128.590387,"roadAddr":"대구광역시 중구 달구벌대로415길 48","jibunAddr":"대구광역시 중구 장관동 34-2","openHours":"불규칙","maleToilets":4,"femaleToilets":3,"disabled":false,"diaperTable":true,"emergencyBell":true,"cctv":false,"managerTel":"0536613305","source":"public","category":"public"},{"id":"202534100000100145","name":"약령시한의약박물관","lat":35.868516,"lng":128.589908,"roadAddr":"대구광역시 중구 달구벌대로415길 49","jibunAddr":"대구광역시 중구 남성로 51-1","openHours":"불규칙","maleToilets":5,"femaleToilets":6,"disabled":true,"diaperTable":false,"emergencyBell":true,"cctv":false,"managerTel":"0532534729","source":"public","category":"public"},{"id":"202534100000100186","name":"패션주얼리전문타운","lat":35.871777,"lng":128.596686,"roadAddr":"대구광역시 중구 경상감영길 176","jibunAddr":"대구광역시 중구 동문동 38-6","openHours":"불규칙","maleToilets":52,"femaleToilets":30,"disabled":true,"diaperTable":false,"emergencyBell":false,"cctv":true,"managerTel":"0536612647","source":"public","category":"public"},{"id":"202534100000100240","name":"수창공원","lat":35.876317,"lng":128.584871,"roadAddr":"대구광역시 중구 수창동 1-2 일원","jibunAddr":"대구광역시 중구 수창동 174","openHours":"상시","maleToilets":5,"femaleToilets":8,"disabled":true,"diaperTable":false,"emergencyBell":true,"cctv":false,"managerTel":"0536612854","source":"public","category":"public"},{"id":"202534100000100173","name":"남산지구대","lat":35.866054,"lng":128.58766,"roadAddr":"대구광역시 중구 달구벌대로 2048","jibunAddr":"대구광역시 중구 남산동 323-1","openHours":"불규칙","maleToilets":3,"femaleToilets":1,"disabled":false,"diaperTable":false,"emergencyBell":false,"cctv":false,"managerTel":"0534201304","source":"public","category":"public"},{"id":"202534100000100086","name":"삼덕동 행정복지센터","lat":35.865525,"lng":128.60894,"roadAddr":"대구광역시 중구 달구벌대로447길 72-11","jibunAddr":"대구광역시 중구 삼덕동3가 174-2","openHours":"불규칙","maleToilets":1,"femaleToilets":2,"disabled":true,"diaperTable":true,"emergencyBell":false,"cctv":true,"managerTel":"0536613594","source":"public","category":"public"},{"id":"202534100000100193","name":"국채보상우체국","lat":35.869699,"lng":128.603517,"roadAddr":"대구광역시 중구 동덕로 167","jibunAddr":"대구광역시 중구 동인동2가 74-15","openHours":"불규칙","maleToilets":6,"femaleToilets":2,"disabled":true,"diaperTable":true,"emergencyBell":false,"cctv":false,"managerTel":"0534220040","source":"public","category":"public"},{"id":"202534100000100067","name":"드림저축은행","lat":35.870234,"lng":128.601388,"roadAddr":"대구광역시 중구 국채보상로 645","jibunAddr":"대구광역시 중구 동인동2가 11","openHours":"불규칙","maleToilets":4,"femaleToilets":2,"disabled":false,"diaperTable":false,"emergencyBell":false,"cctv":false,"managerTel":"0536635000","source":"public","category":"public"},{"id":"202534100000100199","name":"대봉1동 행정복지센터","lat":35.861545,"lng":128.604392,"roadAddr":"대구광역시 중구 달구벌대로440길 27","jibunAddr":"대구광역시 중구 대봉동 19-17","openHours":"불규칙","maleToilets":8,"femaleToilets":7,"disabled":true,"diaperTable":true,"emergencyBell":false,"cctv":false,"managerTel":"0536613773","source":"public","category":"public"},{"id":"202534100000100289","name":"한옥마을공방","lat":35.869665,"lng":128.584605,"roadAddr":"대구광역시 중구 국채보상로 492-22","jibunAddr":"대구광역시 중구 동산동 134 외 1번지","openHours":"불규칙","maleToilets":1,"femaleToilets":1,"disabled":false,"diaperTable":false,"emergencyBell":true,"cctv":false,"managerTel":"0536612818","source":"public","category":"public"},{"id":"202534100000100176","name":"경북대학교 치과병원","lat":35.863899,"lng":128.601395,"roadAddr":"대구광역시 중구 달구벌대로 2175","jibunAddr":"대구광역시 중구 삼덕동2가 188-1","openHours":"불규칙","maleToilets":4,"femaleToilets":4,"disabled":true,"diaperTable":false,"emergencyBell":true,"cctv":false,"managerTel":"0536007041","source":"public","category":"public"},{"id":"202534100000100113","name":"경북대학병원","lat":35.866251,"lng":128.604703,"roadAddr":"대구광역시 중구 동덕로 130","jibunAddr":"대구광역시 중구 삼덕동2가 50","openHours":"불규칙","maleToilets":148,"femaleToilets":100,"disabled":true,"diaperTable":false,"emergencyBell":true,"cctv":true,"managerTel":"0532005081","source":"public","category":"public"},{"id":"202534100000100290","name":"읍성어울마당","lat":35.86907,"lng":128.587532,"roadAddr":"대구광역시 중구 남성로 4","jibunAddr":"대구광역시 중구 남성로 146 외 1필지","openHours":"불규칙","maleToilets":2,"femaleToilets":1,"disabled":true,"diaperTable":false,"emergencyBell":true,"cctv":false,"managerTel":"0536612818","source":"public","category":"public"},{"id":"202534100000100108","name":"경상감영공원","lat":35.872675,"lng":128.591685,"roadAddr":"대구광역시 중구 경상감영길 99","jibunAddr":"대구광역시 중구 포정동 21","openHours":"상시","maleToilets":4,"femaleToilets":4,"disabled":true,"diaperTable":true,"emergencyBell":true,"cctv":false,"managerTel":"0532549401","source":"public","category":"public"},{"id":"202534100000100147","name":"경대병원역(2호선)","lat":35.8632,"lng":128.602801,"roadAddr":"대구광역시 중구 달구벌대로 지하2190","jibunAddr":"대구광역시 중구 삼덕동2가 271","openHours":"불규칙","maleToilets":15,"femaleToilets":15,"disabled":true,"diaperTable":true,"emergencyBell":true,"cctv":true,"managerTel":"0534270523","source":"public","category":"public"},{"id":"202534100000100171","name":"분홍빛으로 병원","lat":35.867181,"lng":128.603398,"roadAddr":"대구광역시 중구 동덕로 141","jibunAddr":"대구광역시 중구 삼덕동2가 45","openHours":"불규칙","maleToilets":4,"femaleToilets":2,"disabled":true,"diaperTable":false,"emergencyBell":false,"cctv":false,"managerTel":"0536060791","source":"public","category":"public"},{"id":"202534100000100146","name":"메트로프라자","lat":35.864326,"lng":128.59864,"roadAddr":"대구광역시 중구 달구벌대로 2160","jibunAddr":"대구광역시 중구 봉산동 127-1","openHours":"상시","maleToilets":9,"femaleToilets":16,"disabled":true,"diaperTable":true,"emergencyBell":true,"cctv":false,"managerTel":"0534278300","source":"public","category":"public"},{"id":"202534100000100020","name":"대현프리몰","lat":35.870853,"lng":128.595198,"roadAddr":"대구광역시 중구 국채보상로 580","jibunAddr":"대구광역시 중구동성로2가 41-8","openHours":"불규칙","maleToilets":11,"femaleToilets":8,"disabled":false,"diaperTable":false,"emergencyBell":true,"cctv":true,"managerTel":"0532552427","source":"public","category":"public"},{"id":"202534100000100002","name":"약령시서문공영주차장","lat":35.867731,"lng":128.590482,"roadAddr":"대구광역시 중구 남성로 33","jibunAddr":"대구광역시 중구 남성로 61-2","openHours":"불규칙","maleToilets":1,"femaleToilets":1,"disabled":false,"diaperTable":false,"emergencyBell":false,"cctv":false,"managerTel":"15776446","source":"public","category":"public"},{"id":"202534100000100277","name":"재활용 센터","lat":35.873868,"lng":128.60921,"roadAddr":"대구광역시 중구 태평로51길 77","jibunAddr":"대구광역시 중구 동인동3가 394-13","openHours":"불규칙","maleToilets":0,"femaleToilets":0,"disabled":true,"diaperTable":true,"emergencyBell":true,"cctv":false,"managerTel":"0536612723","source":"public","category":"public"},{"id":"202534100000100014","name":"종각빌딩","lat":35.869364,"lng":128.604438,"roadAddr":"대구광역시 중구 국채보상로 673","jibunAddr":"대구광역시 중구 동인동2가 108-17","openHours":"불규칙","maleToilets":4,"femaleToilets":2,"disabled":false,"diaperTable":false,"emergencyBell":false,"cctv":false,"managerTel":"0534202312","source":"public","category":"public"},{"id":"202534100000100009","name":"대구우체국","lat":35.871432,"lng":128.591821,"roadAddr":"대구광역시 중구 경상감영길 80","jibunAddr":"대구광역시 중구 포정동 35","openHours":"불규칙","maleToilets":5,"femaleToilets":2,"disabled":true,"diaperTable":false,"emergencyBell":false,"cctv":false,"managerTel":"0532502000","source":"public","category":"public"},{"id":"202534100000100162","name":"중구선거관리위원회","lat":35.866064,"lng":128.587214,"roadAddr":"대구광역시 중구 달구벌대로 2042","jibunAddr":"대구광역시 중구 남산동 279","openHours":"불규칙","maleToilets":10,"femaleToilets":5,"disabled":true,"diaperTable":false,"emergencyBell":false,"cctv":false,"managerTel":"0534242037","source":"public","category":"public"},{"id":"202534100000100093","name":"삼성생명빌딩(덕산지점)","lat":35.866318,"lng":128.592799,"roadAddr":"대구광역시 중구 달구벌대로 2095","jibunAddr":"대구광역시 중구 덕산동 110","openHours":"불규칙","maleToilets":16,"femaleToilets":8,"disabled":false,"diaperTable":false,"emergencyBell":false,"cctv":false,"source":"public","category":"public"},{"id":"202534100000100190","name":"교동공영주차장","lat":35.873701,"lng":128.598366,"roadAddr":"대구광역시 중구 교동2길 11","jibunAddr":"대구광역시 중구 교동 51-1","openHours":"불규칙","maleToilets":2,"femaleToilets":1,"disabled":true,"diaperTable":false,"emergencyBell":true,"cctv":false,"managerTel":"0536613173","source":"public","category":"public"},{"id":"202534100000100098","name":"행운주유소","lat":35.876356,"lng":128.589518,"roadAddr":"대구광역시 중구 태평로 105","jibunAddr":"대구광역시 중구 태평로3가 214-20","openHours":"불규칙","maleToilets":2,"femaleToilets":1,"disabled":false,"diaperTable":false,"emergencyBell":false,"cctv":true,"managerTel":"0534215145","source":"public","category":"public"},{"id":"202534100000100227","name":"동덕지구대","lat":35.868073,"lng":128.606026,"roadAddr":"대구광역시 중구 국채보상로140길 16","jibunAddr":"대구광역시 중구 동인동2가 227-8","openHours":"상시","maleToilets":3,"femaleToilets":1,"disabled":false,"diaperTable":false,"emergencyBell":false,"cctv":true,"managerTel":"0534201306","source":"public","category":"public"},{"id":"202534100000100224","name":"북성로 공중화장실","lat":35.873704,"lng":128.589693,"roadAddr":"대구광역시 중구 북성로 66-5","jibunAddr":"대구광역시 중구 북성로2가 47-7","openHours":"불규칙","maleToilets":2,"femaleToilets":3,"disabled":false,"diaperTable":false,"emergencyBell":true,"cctv":true,"managerTel":"0536612834","source":"public","category":"public"},{"id":"202534100000100054","name":"케이케이(주) 중앙주유소","lat":35.869559,"lng":128.600679,"roadAddr":"대구광역시 중구 국채보상로 642","jibunAddr":"대구광역시 중구 동인동2가 25-1 외 3","openHours":"불규칙","maleToilets":2,"femaleToilets":0,"disabled":true,"diaperTable":true,"emergencyBell":false,"cctv":false,"managerTel":"0534228010","source":"public","category":"public"},{"id":"202534100000100100","name":"중앙로역(1호선)","lat":35.870965,"lng":128.594013,"roadAddr":"대구광역시 중구 중앙대로 지하424","jibunAddr":"대구광역시 중구 남일동 143-1","openHours":"불규칙","maleToilets":18,"femaleToilets":8,"disabled":true,"diaperTable":true,"emergencyBell":true,"cctv":true,"managerTel":"0532567746","source":"public","category":"public"},{"id":"202534100000100172","name":"남산3동 행정복지센터","lat":35.8599,"lng":128.585574,"roadAddr":"대구광역시 중구 남산로4길 70","jibunAddr":"대구광역시 중구 남산동 2208-15","openHours":"불규칙","maleToilets":6,"femaleToilets":6,"disabled":true,"diaperTable":false,"emergencyBell":false,"cctv":false,"managerTel":"0536613310","source":"public","category":"public"},{"id":"202534100000100249","name":"북성로 역사전통문화마을 기술예술융합소","lat":35.873306,"lng":128.592645,"roadAddr":"대구광역시 중구 서성로16길 92-1","jibunAddr":"대구광역시 중구 대안동 3-1 외 3","openHours":"불규칙","maleToilets":2,"femaleToilets":1,"disabled":false,"diaperTable":false,"emergencyBell":false,"cctv":false,"managerTel":"0532528640","source":"public","category":"public"},{"id":"202534100000100107","name":"향촌수제화센터","lat":35.872847,"lng":128.591844,"roadAddr":"대구광역시 중구 서성로14길 78","jibunAddr":"대구광역시 중구 대안동 19-3","openHours":"불규칙","maleToilets":2,"femaleToilets":1,"disabled":true,"diaperTable":false,"emergencyBell":false,"cctv":false,"managerTel":"0536612645","source":"public","category":"public"},{"id":"202534100000100118","name":"국채보상운동기념공원공영주차장","lat":35.869301,"lng":128.601739,"roadAddr":"대구광역시 중구 국채보상로 670","jibunAddr":"대구광역시 중구 동인동2가 42","openHours":"상시","maleToilets":5,"femaleToilets":2,"disabled":true,"diaperTable":false,"emergencyBell":true,"cctv":false,"managerTel":"0534219405","source":"public","category":"public"},{"id":"202534100000100104","name":"반월당역","lat":35.864421,"lng":128.593341,"roadAddr":"대구광역시 중구 달구벌대로 지하2100","jibunAddr":"대구광역시 중구 덕산동 88","openHours":"불규칙","maleToilets":15,"femaleToilets":7,"disabled":true,"diaperTable":false,"emergencyBell":true,"cctv":true,"managerTel":"0532557735","source":"public","category":"public"},{"id":"202534100000100056","name":"대구동부교육지원청","lat":35.86426,"lng":128.591557,"roadAddr":"대구광역시 중구 관덕정길 35","jibunAddr":"대구광역시 중구 남산동 630","openHours":"불규칙","maleToilets":29,"femaleToilets":19,"disabled":true,"diaperTable":false,"emergencyBell":true,"cctv":false,"managerTel":"0532320123","source":"public","category":"public"},{"id":"202534100000100141","name":"봉산문화회관","lat":35.863397,"lng":128.596565,"roadAddr":"대구광역시 중구 봉산문화길 77","jibunAddr":"대구광역시 중구 봉산동 125","openHours":"불규칙","maleToilets":24,"femaleToilets":15,"disabled":true,"diaperTable":true,"emergencyBell":false,"cctv":true,"managerTel":"0534226214","source":"public","category":"public"},{"id":"202534100000100039","name":"국채보상운동기념도서관","lat":35.868453,"lng":128.601713,"roadAddr":"대구광역시 중구 공평로10길 25","jibunAddr":"대구광역시 중구 동인동2가 42","openHours":"불규칙","maleToilets":35,"femaleToilets":31,"disabled":true,"diaperTable":false,"emergencyBell":true,"cctv":false,"managerTel":"0532312006","source":"public","category":"public"},{"id":"202534100000100119","name":"국채보상운동기념공원","lat":35.869301,"lng":128.601739,"roadAddr":"대구광역시 중구 국채보상로 670","jibunAddr":"대구광역시 중구 동인동2가 42","openHours":"상시","maleToilets":4,"femaleToilets":3,"disabled":true,"diaperTable":false,"emergencyBell":true,"cctv":true,"managerTel":"0532549401","source":"public","category":"public"},{"id":"202534100000100212","name":"에코한방웰빙체험관","lat":35.86793,"lng":128.589286,"roadAddr":"대구광역시 중구 남성로 24","jibunAddr":"대구광역시 중구 남성로 117","openHours":"미개방","maleToilets":5,"femaleToilets":4,"disabled":true,"diaperTable":false,"emergencyBell":false,"cctv":false,"managerTel":"0536612683","source":"public","category":"public"},{"id":"202534100000100241","name":"김광석길 공중화장실","lat":35.861143,"lng":128.60721,"roadAddr":"대구광역시 중구 달구벌대로450길 16-3","jibunAddr":"대구광역시 중구 대봉동 4-9","openHours":"불규칙","maleToilets":4,"femaleToilets":5,"disabled":true,"diaperTable":false,"emergencyBell":true,"cctv":false,"managerTel":"0536612457","source":"public","category":"public"},{"id":"202534100000100158","name":"선교사 문화관광지(사택지)","lat":35.866607,"lng":128.584955,"roadAddr":"대구광역시 중구 달구벌대로 2029","jibunAddr":"대구광역시 중구 동산동 424","openHours":"불규칙","maleToilets":5,"femaleToilets":4,"disabled":true,"diaperTable":false,"emergencyBell":true,"cctv":false,"managerTel":"0536612455","source":"public","category":"public"},{"id":"202534100000100197","name":"계산예가 공중화장실","lat":35.867207,"lng":128.587865,"roadAddr":"대구광역시 중구 서성로 6-1","jibunAddr":"대구광역시 중구 계산동2가 83-1","openHours":"불규칙","maleToilets":2,"femaleToilets":1,"disabled":true,"diaperTable":true,"emergencyBell":true,"cctv":false,"managerTel":"0536612624","source":"public","category":"public"},{"id":"202534100000100210","name":"대구콘서트하우스","lat":35.876059,"lng":128.593697,"roadAddr":"대구광역시 중구 태평로 141","jibunAddr":"대구광역시 중구 태평로2가 1-1","openHours":"불규칙","maleToilets":36,"femaleToilets":39,"disabled":true,"diaperTable":false,"emergencyBell":true,"cctv":true,"managerTel":"0532540772","source":"public","category":"public"},{"id":"202534100000100200","name":"대구예술발전소(수창홀)","lat":35.875437,"lng":128.584499,"roadAddr":"대구광역시 중구 달성로22길 31-12 (수창동)","jibunAddr":"대구광역시 중구 수창동 58-2","openHours":"불규칙","maleToilets":18,"femaleToilets":19,"disabled":true,"diaperTable":false,"emergencyBell":false,"cctv":false,"managerTel":"0534305673","source":"public","category":"public"},{"id":"202534100000100231","name":"중앙로관광버스전용주차장","lat":35.873892,"lng":128.594932,"roadAddr":"대구광역시 중구 중앙대로 456-3","jibunAddr":"대구광역시 중구 화전동 2-5","openHours":"불규칙","maleToilets":2,"femaleToilets":2,"disabled":false,"diaperTable":false,"emergencyBell":true,"cctv":false,"managerTel":"0536613176","source":"public","category":"public"},{"id":"202534100000100160","name":"SHL동성빌딩","lat":35.869338,"lng":128.601182,"roadAddr":"대구광역시 중구 국채보상로 648","jibunAddr":"대구광역시 중구 동인동2가 50-5","openHours":"불규칙","maleToilets":5,"femaleToilets":3,"disabled":true,"diaperTable":true,"emergencyBell":false,"cctv":false,"managerTel":"0532126010","source":"public","category":"public"},{"id":"202534100000100065","name":"대구광역시 중구청","lat":35.869326,"lng":128.606158,"roadAddr":"대구광역시 중구 국채보상로139길 1","jibunAddr":"대구광역시 중구 동인동2가 177-4","openHours":"불규칙","maleToilets":82,"femaleToilets":39,"disabled":true,"diaperTable":true,"emergencyBell":false,"cctv":false,"managerTel":"0536613247","source":"public","category":"public"},{"id":"202534100000100235","name":"남산동커뮤니티센터","lat":35.85983,"lng":128.589674,"roadAddr":"대구광역시 중구 중앙대로 289-36","jibunAddr":"대구광역시 중구 남산동 600-35","openHours":"불규칙","maleToilets":2,"femaleToilets":1,"disabled":false,"diaperTable":false,"emergencyBell":true,"cctv":true,"managerTel":"0536612818","source":"public","category":"public"},{"id":"202534100000100135","name":"2.28기념 중앙공원","lat":35.869214,"lng":128.597184,"roadAddr":"대구광역시 중구 동성로2길 80","jibunAddr":"대구광역시 중구 공평동 15","openHours":"상시","maleToilets":10,"femaleToilets":6,"disabled":true,"diaperTable":false,"emergencyBell":true,"cctv":false,"managerTel":"0532549401","source":"public","category":"public"},{"id":"202534100000100008","name":"대구근대역사관","lat":35.871798,"lng":128.59116,"roadAddr":"대구광역시 중구 경상감영길 67","jibunAddr":"대구광역시 중구 포정동 33","openHours":"불규칙","maleToilets":6,"femaleToilets":4,"disabled":false,"diaperTable":false,"emergencyBell":false,"cctv":false,"managerTel":"0536066430","source":"public","category":"public"},{"id":"202534100000100178","name":"㈜태산이앤엘 감영셀프주유소","lat":35.875489,"lng":128.591713,"roadAddr":"대구광역시 중구 태평로 130","jibunAddr":"대구광역시 중구 태평로2가 27-1","openHours":"불규칙","maleToilets":4,"femaleToilets":2,"disabled":false,"diaperTable":false,"emergencyBell":false,"cctv":false,"managerTel":"0532190051","source":"public","category":"public"},{"id":"202534100000100181","name":"패션주얼리특구고객지원센터","lat":35.874167,"lng":128.596753,"roadAddr":"대구광역시 중구 동성로 80-15","jibunAddr":"대구광역시 중구 용덕동 5-22","openHours":"상시","maleToilets":3,"femaleToilets":2,"disabled":false,"diaperTable":false,"emergencyBell":false,"cctv":false,"managerTel":"0536612647","source":"public","category":"public"},{"id":"202534100000100120","name":"교보생명 동성로사옥","lat":35.870594,"lng":128.594818,"roadAddr":"대구광역시 중구 국채보상로 586","jibunAddr":"대구광역시 중구 동성로2가 88-25","openHours":"불규칙","maleToilets":4,"femaleToilets":2,"disabled":true,"diaperTable":true,"emergencyBell":false,"cctv":true,"source":"public","category":"public"},{"id":"202534100000100269","name":"역전치안센터","lat":35.875009,"lng":128.590807,"roadAddr":"대구광역시 중구 종로 101","jibunAddr":"대구광역시 중구 태평로3가 216-3 외2필지","openHours":"불규칙","maleToilets":2,"femaleToilets":1,"disabled":false,"diaperTable":false,"emergencyBell":false,"cctv":true,"managerTel":"0534201031","source":"public","category":"public"},{"id":"202534100000100169","name":"BL타워","lat":35.87019,"lng":128.596901,"roadAddr":"대구광역시 중구 동성로2길 95","jibunAddr":"대구광역시 중구 동성로2가 66-1","openHours":"불규칙","maleToilets":5,"femaleToilets":3,"disabled":false,"diaperTable":false,"emergencyBell":false,"cctv":false,"source":"public","category":"public"},{"id":"202534100000100246","name":"삼덕마루","lat":35.864633,"lng":128.609042,"roadAddr":"대구광역시 중구 동덕로26길 103","jibunAddr":"대구광역시 중구 삼덕동3가 221","openHours":"불규칙","maleToilets":2,"femaleToilets":1,"disabled":false,"diaperTable":false,"emergencyBell":false,"cctv":false,"managerTel":"0536613594","source":"public","category":"public"},{"id":"202534100000100081","name":"동인현대셀프주유소","lat":35.87273,"lng":128.605651,"roadAddr":"대구광역시 중구 태평로 257","jibunAddr":"대구광역시 중구 동인동1가 377","openHours":"상시","maleToilets":2,"femaleToilets":1,"disabled":false,"diaperTable":false,"emergencyBell":false,"cctv":false,"managerTel":"0534317011","source":"public","category":"public"},{"id":"202534100000100143","name":"흥국석유㈜ 동인주유소","lat":35.871507,"lng":128.60476,"roadAddr":"대구광역시 중구 동덕로38길 5","jibunAddr":"대구광역시 중구 동인동1가 357","openHours":"상시","maleToilets":5,"femaleToilets":2,"disabled":false,"diaperTable":false,"emergencyBell":false,"cctv":true,"managerTel":"0534243398","source":"public","category":"public"},{"id":"202534100000100103","name":"동인동 행정복지센터","lat":35.867904,"lng":128.609127,"roadAddr":"대구광역시 중구 국채보상로142길 19-5","jibunAddr":"대구광역시 중구 동인동4가 318-5","openHours":"불규칙","maleToilets":3,"femaleToilets":1,"disabled":false,"diaperTable":false,"emergencyBell":false,"cctv":false,"managerTel":"0536613559","source":"public","category":"public"},{"id":"202534100000100194","name":"국채보상운동기념관","lat":35.869301,"lng":128.601739,"roadAddr":"대구광역시 중구 국채보상로 670","jibunAddr":"대구광역시 중구 동인동2가 42","openHours":"불규칙","maleToilets":4,"femaleToilets":4,"disabled":false,"diaperTable":false,"emergencyBell":true,"cctv":false,"managerTel":"0537456753","source":"public","category":"public"},{"id":"202534100000100258","name":"중앙파출소","lat":35.869638,"lng":128.588819,"roadAddr":"대구광역시 중구 중앙대로81길 88","jibunAddr":"대구광역시 중구 남성로 13-2 외 1","openHours":"상시","maleToilets":1,"femaleToilets":1,"disabled":false,"diaperTable":false,"emergencyBell":false,"cctv":false,"managerTel":"0534201311","source":"public","category":"public"},{"id":"202534100000100195","name":"서문로119안전센터","lat":35.871573,"lng":128.589982,"roadAddr":"대구광역시 중구 경상감영길 45","jibunAddr":"대구광역시 중구 서문로1가 1-6","openHours":"상시","maleToilets":1,"femaleToilets":1,"disabled":false,"diaperTable":false,"emergencyBell":false,"cctv":false,"managerTel":"0536014572","source":"public","category":"public"},{"id":"202534100000100221","name":"조양주유소","lat":35.862663,"lng":128.603191,"roadAddr":"대구광역시 중구 달구벌대로 2194","jibunAddr":"대구광역시 중구 대봉동 21-7","openHours":"상시","maleToilets":4,"femaleToilets":1,"disabled":false,"diaperTable":false,"emergencyBell":false,"cctv":false,"managerTel":"0534217900","source":"public","category":"public"},{"id":"202534100000100272","name":"성내1동 행정복지센터","lat":35.866644,"lng":128.595789,"roadAddr":"대구광역시 중구 동성로2길 7","jibunAddr":"대구광역시 중구 봉산동 2-2","openHours":"불규칙","maleToilets":0,"femaleToilets":6,"disabled":true,"diaperTable":true,"emergencyBell":true,"cctv":true,"managerTel":"0536613615","source":"public","category":"public"},{"id":"202534100000100097","name":"동인느티나무도서관","lat":35.871318,"lng":128.607205,"roadAddr":"대구광역시 중구 동덕로38길 47","jibunAddr":"대구광역시 중구 동인동3가 257-1","openHours":"불규칙","maleToilets":2,"femaleToilets":1,"disabled":false,"diaperTable":false,"emergencyBell":true,"cctv":false,"managerTel":"0536613345","source":"public","category":"public"},{"id":"202534100000100234","name":"순종황제 어가길 쉼터","lat":35.873833,"lng":128.585337,"roadAddr":"대구광역시 중구 북성로 27-2","jibunAddr":"대구광역시 중구 서야동 79","openHours":"불규칙","maleToilets":2,"femaleToilets":1,"disabled":false,"diaperTable":false,"emergencyBell":true,"cctv":true,"managerTel":"0536612834","source":"public","category":"public"},{"id":"202534100000100150","name":"메트로센터상가(B2)","lat":35.864421,"lng":128.593341,"roadAddr":"대구광역시 중구 달구벌대로 지하2100","jibunAddr":"대구광역시 중구 덕산동 88","openHours":"상시","maleToilets":20,"femaleToilets":16,"disabled":false,"diaperTable":false,"emergencyBell":true,"cctv":false,"managerTel":"0534319117","source":"public","category":"public"},{"id":"202434200000100816","name":"신암근린공원","lat":35.887962,"lng":128.622952,"roadAddr":"대구광역시 동구 신암북로11길 8 (신암동)","jibunAddr":"대구광역시 동구 신암동 647","openHours":"상시","maleToilets":4,"femaleToilets":3,"disabled":true,"diaperTable":false,"emergencyBell":false,"cctv":false,"managerTel":"0536622867","source":"public","category":"public"},{"id":"202434200000100799","name":"신천3치안센터","lat":35.869581,"lng":128.620314,"roadAddr":"대구광역시 동구 송라로2길 5 (신천동)","jibunAddr":"대구광역시 동구 신천동 174-1","openHours":"정시","maleToilets":0,"femaleToilets":0,"disabled":false,"diaperTable":false,"emergencyBell":false,"cctv":false,"managerTel":"0539603316","source":"public","category":"public"},{"id":"202434200000100809","name":"대구창조경제혁신센터 대구스케일업허브","lat":35.871764,"lng":128.624841,"roadAddr":"대구광역시 동구 동대구로 465 (신천동)","jibunAddr":"대구광역시 동구 신천동 106","openHours":"정시","maleToilets":46,"femaleToilets":45,"disabled":true,"diaperTable":false,"emergencyBell":true,"cctv":true,"managerTel":"0537590921","source":"public","category":"public"},{"id":"202434200000100935","name":"신암근린공원2","lat":35.890641,"lng":128.622697,"jibunAddr":"대구광역시 동구 신암동 산125-3","openHours":"상시","maleToilets":3,"femaleToilets":3,"disabled":false,"diaperTable":false,"emergencyBell":false,"cctv":false,"managerTel":"0536622867","source":"public","category":"public"},{"id":"202434200000100814","name":"기상대기념공원","lat":35.885545,"lng":128.618964,"jibunAddr":"대구광역시 동구 신암동 716-87","openHours":"상시","maleToilets":2,"femaleToilets":1,"disabled":false,"diaperTable":false,"emergencyBell":false,"cctv":true,"managerTel":"0536622867","source":"public","category":"public"},{"id":"202434200000100790","name":"동대구역치안센터","lat":35.877333,"lng":128.626305,"roadAddr":"대구광역시 동구 동대구로 527 (신천동)","jibunAddr":"대구광역시 동구 신천동 66-3","openHours":"정시","maleToilets":0,"femaleToilets":0,"disabled":true,"diaperTable":false,"emergencyBell":false,"cctv":false,"managerTel":"0539603316","source":"public","category":"public"},{"id":"202434200000100791","name":"신천치안센터","lat":35.869948,"lng":128.614777,"roadAddr":"대구광역시 동구 국채보상로159길 41(신천동)","jibunAddr":"대구광역시 동구 신천동 645-1","openHours":"정시","maleToilets":0,"femaleToilets":0,"disabled":false,"diaperTable":false,"emergencyBell":true,"cctv":false,"managerTel":"0539603312","source":"public","category":"public"},{"id":"202434500000102257","name":"연암근린공원","lat":35.899513,"lng":128.603077,"roadAddr":"대구광역시 북구 연암공원로 112","jibunAddr":"대구광역시 북구 산격동 산 17-7","openHours":"상시","maleToilets":4,"femaleToilets":5,"disabled":true,"diaperTable":false,"emergencyBell":true,"cctv":false,"managerTel":"0536652865","source":"public","category":"public"},{"id":"202434500000102171","name":"시민운동장 유소년축구장","lat":35.883019,"lng":128.586154,"roadAddr":"대구광역시 북구 고성로 191","jibunAddr":"대구광역시 북구 고성동3가 2","openHours":"정시","maleToilets":7,"femaleToilets":3,"disabled":false,"diaperTable":false,"emergencyBell":false,"cctv":false,"managerTel":"0538038450","source":"public","category":"public"},{"id":"202434500000102337","name":"신흥주유소","lat":35.902592,"lng":128.600954,"roadAddr":"대구광역시 북구 동북로 67 (산격동)","jibunAddr":"대구광역시 북구 산격동 560-6","openHours":"정시","maleToilets":3,"femaleToilets":1,"disabled":false,"diaperTable":false,"emergencyBell":false,"cctv":false,"managerTel":"0532630811","source":"public","category":"public"},{"id":"202434500000102329","name":"동로주유소","lat":35.883472,"lng":128.60261,"roadAddr":"대구광역시 북구 신천동로 714","jibunAddr":"대구광역시 북구 대현동 437-4","openHours":"정시","maleToilets":3,"femaleToilets":2,"disabled":false,"diaperTable":false,"emergencyBell":false,"cctv":false,"managerTel":"0539544801","source":"public","category":"public"},{"id":"202434500000102204","name":"복현2동 행정복지센터","lat":35.895363,"lng":128.62549,"roadAddr":"대구광역시 북구 복현로8길 16-5","jibunAddr":"대구광역시 북구 복현동 산 107-3","openHours":"정시","maleToilets":1,"femaleToilets":1,"disabled":true,"diaperTable":true,"emergencyBell":true,"cctv":true,"managerTel":"0536653647","source":"public","category":"public"},{"id":"202434500000102217","name":"대구광역시시립북부도서관","lat":35.885147,"lng":128.584007,"roadAddr":"대구광역시 북구 옥산로 75","jibunAddr":"대구광역시 북구 침산동 447-10","openHours":"정시","maleToilets":17,"femaleToilets":7,"disabled":true,"diaperTable":true,"emergencyBell":true,"cctv":true,"managerTel":"0532312600","source":"public","category":"public"},{"id":"202434500000102297","name":"미니주유소","lat":35.886178,"lng":128.599945,"roadAddr":"대구광역시 북구 침산남로 224","jibunAddr":"대구광역시 북구 침산동 25-10","openHours":"정시","maleToilets":2,"femaleToilets":0,"disabled":false,"diaperTable":false,"emergencyBell":false,"cctv":true,"managerTel":"0532535150","source":"public","category":"public"},{"id":"202434500000102207","name":"산격1동 행정복지센터","lat":35.900392,"lng":128.59689,"roadAddr":"대구광역시 북구 연암로36길 6","jibunAddr":"대구광역시 북구 산격동 748-2","openHours":"정시","maleToilets":8,"femaleToilets":6,"disabled":true,"diaperTable":true,"emergencyBell":false,"cctv":false,"managerTel":"0536653308","source":"public","category":"public"},{"id":"202434500000102289","name":"복현LPG충전소","lat":35.897252,"lng":128.614984,"roadAddr":"대구광역시 북구 동북로 212","jibunAddr":"대구광역시 북구 복현동 400-1","openHours":"정시","maleToilets":4,"femaleToilets":2,"disabled":false,"diaperTable":false,"emergencyBell":false,"cctv":false,"managerTel":"0539529000","source":"public","category":"public"},{"id":"202434500000102311","name":"대성주유소","lat":35.882038,"lng":128.59008,"roadAddr":"대구광역시 북구 침산로 62","jibunAddr":"대구광역시 북구 칠성동2가 64","openHours":"정시","maleToilets":4,"femaleToilets":1,"disabled":false,"diaperTable":false,"emergencyBell":false,"cctv":true,"managerTel":"0533587922","source":"public","category":"public"},{"id":"202434500000102419","name":"대구산격동우체국","lat":35.890884,"lng":128.598764,"roadAddr":"대구광역시 북구 연암로 42","jibunAddr":"대구광역시 북구 산격동 1009-13","openHours":"정시","maleToilets":6,"femaleToilets":2,"disabled":false,"diaperTable":false,"emergencyBell":false,"cctv":true,"managerTel":"0530835676","source":"public","category":"public"},{"id":"202434500000102401","name":"건강보험공단대구북부지사","lat":35.887269,"lng":128.597506,"roadAddr":"대구광역시 북구 침산남로 199","jibunAddr":"대구광역시 북구 침산동 13-105","openHours":"정시","maleToilets":16,"femaleToilets":9,"disabled":true,"diaperTable":false,"emergencyBell":true,"cctv":false,"managerTel":"0536660110","source":"public","category":"public"},{"id":"202434500000102202","name":"산격2동 행정복지센터","lat":35.901733,"lng":128.609254,"roadAddr":"대구광역시 북구 동북로31길 30","jibunAddr":"대구광역시 북구 산격동 500-1","openHours":"정시","maleToilets":2,"femaleToilets":3,"disabled":true,"diaperTable":false,"emergencyBell":false,"cctv":false,"managerTel":"0536653309","source":"public","category":"public"},{"id":"202434500000102325","name":"대망주유소","lat":35.886578,"lng":128.597635,"roadAddr":"대구광역시 북구 중앙대로 601","jibunAddr":"대구광역시 북구 침산동 13-50","openHours":"정시","maleToilets":3,"femaleToilets":1,"disabled":false,"diaperTable":false,"emergencyBell":false,"cctv":true,"managerTel":"0533535182","source":"public","category":"public"},{"id":"202434500000102331","name":"GS칼텍스 체육관주유소","lat":35.894673,"lng":128.605102,"roadAddr":"대구광역시 북구 산격로 45","jibunAddr":"대구광역시 북구 산격동 1425-39","openHours":"정시","maleToilets":1,"femaleToilets":0,"disabled":false,"diaperTable":false,"emergencyBell":false,"cctv":false,"managerTel":"0539575151","source":"public","category":"public"},{"id":"202434500000102205","name":"침산3동 행정복지센터","lat":35.892018,"lng":128.589325,"roadAddr":"대구광역시 북구 성북로 55","jibunAddr":"대구광역시 북구 침산동 521-5","openHours":"정시","maleToilets":6,"femaleToilets":5,"disabled":true,"diaperTable":true,"emergencyBell":true,"cctv":false,"managerTel":"0536653305","source":"public","category":"public"},{"id":"202434500000102339","name":"중앙주유소","lat":35.89184,"lng":128.624503,"roadAddr":"대구광역시 북구 동북로 315","jibunAddr":"대구광역시 북구 복현동 375-9","openHours":"정시","maleToilets":3,"femaleToilets":2,"disabled":false,"diaperTable":true,"emergencyBell":false,"cctv":false,"managerTel":"0532835060","source":"public","category":"public"},{"id":"202434500000102356","name":"한영주유소","lat":35.899521,"lng":128.62312,"roadAddr":"대구광역시 북구 공항로 73","jibunAddr":"대구광역시 북구 복현동 178","openHours":"정시","maleToilets":3,"femaleToilets":0,"disabled":false,"diaperTable":false,"emergencyBell":false,"cctv":false,"managerTel":"0533825182","source":"public","category":"public"},{"id":"202434500000102169","name":"시민운동장 시민체육관","lat":35.883019,"lng":128.586154,"roadAddr":"대구광역시 북구 고성로 191","jibunAddr":"대구광역시 북구 고성동3가 2","openHours":"정시","maleToilets":18,"femaleToilets":11,"disabled":true,"diaperTable":true,"emergencyBell":false,"cctv":false,"managerTel":"0538038450","source":"public","category":"public"},{"id":"202434500000102254","name":"들샘어린이공원","lat":35.896529,"lng":128.616904,"roadAddr":"대구광역시 북구 동북로 229","jibunAddr":"대구광역시 북구 복현동 201-1","openHours":"상시","maleToilets":3,"femaleToilets":1,"disabled":false,"diaperTable":false,"emergencyBell":true,"cctv":false,"managerTel":"0536652865","source":"public","category":"public"},{"id":"202434500000102431","name":"대구역(지하철 1호선)","lat":35.876283,"lng":128.597892,"roadAddr":"대구광역시 북구 칠성남로30길 28","jibunAddr":"대구광역시 북구 칠성동2가 302-112","openHours":"정시","maleToilets":16,"femaleToilets":7,"disabled":true,"diaperTable":true,"emergencyBell":true,"cctv":true,"managerTel":"0534277752","source":"public","category":"public"},{"id":"202434500000102343","name":"(주)효성에너지","lat":35.89088,"lng":128.605706,"roadAddr":"대구광역시 북구 대학로 45","jibunAddr":"대구광역시 북구 산격동 1420","openHours":"정시","maleToilets":2,"femaleToilets":0,"disabled":false,"diaperTable":false,"emergencyBell":false,"cctv":false,"managerTel":"0539555189","source":"public","category":"public"},{"id":"202434500000102176","name":"산격종합사회복지관","lat":35.901097,"lng":128.59589,"roadAddr":"대구광역시 북구 연암로 183","jibunAddr":"대구광역시 북구 산격동 724-12","openHours":"정시","maleToilets":11,"femaleToilets":6,"disabled":true,"diaperTable":false,"emergencyBell":false,"cctv":false,"managerTel":"0533819193","source":"public","category":"public"},{"id":"202434500000102418","name":"대구복현동우체국","lat":35.895691,"lng":128.614088,"roadAddr":"대구광역시 북구 경진로 7","jibunAddr":"대구광역시 북구 복현동 410-3","openHours":"정시","maleToilets":0,"femaleToilets":1,"disabled":true,"diaperTable":false,"emergencyBell":true,"cctv":true,"managerTel":"0539520990","source":"public","category":"public"},{"id":"202434500000102174","name":"대불노인복지관","lat":35.898682,"lng":128.616905,"roadAddr":"대구광역시 북구 검단로 8-14","jibunAddr":"대구광역시 북구 복현동 536","openHours":"정시","maleToilets":18,"femaleToilets":9,"disabled":true,"diaperTable":false,"emergencyBell":true,"cctv":true,"managerTel":"0533818310","source":"public","category":"public"},{"id":"202434500000102294","name":"북대구LPG충전소","lat":35.901722,"lng":128.593936,"roadAddr":"대구광역시 북구 동북로 3","jibunAddr":"대구광역시 북구 산격동 758-13","openHours":"정시","maleToilets":3,"femaleToilets":1,"disabled":false,"diaperTable":false,"emergencyBell":false,"cctv":false,"managerTel":"0533845177","source":"public","category":"public"},{"id":"202434500000102170","name":"시민운동장 정구장","lat":35.883019,"lng":128.586154,"roadAddr":"대구광역시 북구 고성로 191","jibunAddr":"대구광역시 북구 고성동3가 2","openHours":"정시","maleToilets":8,"femaleToilets":4,"disabled":true,"diaperTable":false,"emergencyBell":false,"cctv":false,"managerTel":"0538038450","source":"public","category":"public"},{"id":"202534500000100010","name":"침산3동 자율방범대 인근 공중화장실","lat":35.893647,"lng":128.586662,"roadAddr":"대구광역시 북구 침산동 496-7","openHours":"정시","maleToilets":2,"femaleToilets":2,"disabled":true,"diaperTable":true,"emergencyBell":true,"cctv":true,"source":"public","category":"public"},{"id":"202434500000102200","name":"산격3동 행정복지센터","lat":35.893656,"lng":128.610166,"roadAddr":"대구광역시 북구 대학로 95","jibunAddr":"대구광역시 북구 산격동 1330-1","openHours":"정시","maleToilets":3,"femaleToilets":6,"disabled":true,"diaperTable":false,"emergencyBell":true,"cctv":false,"managerTel":"0536653310","source":"public","category":"public"},{"id":"202534500000100001","name":"금호강 14번","lat":35.899192,"lng":128.625747,"roadAddr":"대구광역시 북구 복현동 272","openHours":"상시","maleToilets":3,"femaleToilets":3,"disabled":false,"diaperTable":false,"emergencyBell":true,"cctv":false,"source":"public","category":"public"},{"id":"202434500000102290","name":"한신가스충전소","lat":35.901292,"lng":128.584691,"roadAddr":"대구광역시 북구 노원로 229","jibunAddr":"대구광역시 북구 침산동 842","openHours":"정시","maleToilets":3,"femaleToilets":1,"disabled":false,"diaperTable":false,"emergencyBell":false,"cctv":false,"managerTel":"0533545698","source":"public","category":"public"},{"id":"202534500000100021","name":"금호강 13번","lat":35.899192,"lng":128.625747,"roadAddr":"대구광역시 북구 복현동 272","openHours":"상시","maleToilets":3,"femaleToilets":2,"disabled":false,"diaperTable":false,"emergencyBell":true,"cctv":false,"source":"public","category":"public"},{"id":"202434500000102374","name":"롯데백화점 대구점","lat":35.875885,"lng":128.596129,"roadAddr":"대구광역시 북구 태평로 161","jibunAddr":"대구광역시 북구 칠성동2가 302-155","openHours":"정시","maleToilets":113,"femaleToilets":22,"disabled":true,"diaperTable":true,"emergencyBell":true,"cctv":true,"managerTel":"0536601610","source":"public","category":"public"},{"id":"202434500000102262","name":"침산공원(B)","lat":35.89516,"lng":128.584198,"jibunAddr":"대구광역시 북구 침산동 1329","openHours":"상시","maleToilets":6,"femaleToilets":3,"disabled":false,"diaperTable":false,"emergencyBell":true,"cctv":false,"managerTel":"0536652865","source":"public","category":"public"},{"id":"202434500000102184","name":"대구 오페라하우스 대공연장","lat":35.883465,"lng":128.592233,"roadAddr":"대구광역시 북구 호암로 15","jibunAddr":"대구광역시 북구 칠성동2가 727","openHours":"정시","maleToilets":28,"femaleToilets":58,"disabled":true,"diaperTable":false,"emergencyBell":false,"cctv":true,"managerTel":"0534607441","source":"public","category":"public"},{"id":"202434500000102168","name":"시민운동장 스쿼시장","lat":35.883019,"lng":128.586154,"roadAddr":"대구광역시 북구 고성로 191","jibunAddr":"대구광역시 북구 고성동3가 2","openHours":"정시","maleToilets":6,"femaleToilets":4,"disabled":true,"diaperTable":false,"emergencyBell":true,"cctv":false,"managerTel":"0538038450","source":"public","category":"public"},{"id":"202434500000102178","name":"북부소방서","lat":35.878002,"lng":128.592314,"roadAddr":"대구광역시 북구 칠성남로 112","jibunAddr":"대구광역시 북구 칠성동2가 302-142","openHours":"정시","maleToilets":7,"femaleToilets":2,"disabled":true,"diaperTable":false,"emergencyBell":false,"cctv":false,"managerTel":"0533504700","source":"public","category":"public"},{"id":"202434500000102388","name":"칠성시장(신천둔치)","lat":35.876866,"lng":128.604434,"jibunAddr":"대구광역시 북구 칠성동1가 276-99","openHours":"정시","maleToilets":14,"femaleToilets":0,"disabled":false,"diaperTable":false,"emergencyBell":false,"cctv":false,"managerTel":"0534233480","source":"public","category":"public"},{"id":"202434500000102219","name":"(재)대구오페라하우스","lat":35.883465,"lng":128.592233,"roadAddr":"대구광역시 북구 호암로 15","jibunAddr":"대구광역시 북구 칠성동2가 727","openHours":"정시","maleToilets":51,"femaleToilets":72,"disabled":true,"diaperTable":false,"emergencyBell":false,"cctv":true,"managerTel":"0534307441","source":"public","category":"public"},{"id":"202434500000102296","name":"무지개주유소","lat":35.902329,"lng":128.596609,"roadAddr":"대구광역시 북구 연암로 198","jibunAddr":"대구광역시 북구 산격동 755-8","openHours":"정시","maleToilets":4,"femaleToilets":2,"disabled":false,"diaperTable":false,"emergencyBell":false,"cctv":false,"managerTel":"0533845104","source":"public","category":"public"},{"id":"202434500000102298","name":"케이케이㈜침산2주유소","lat":35.902175,"lng":128.595895,"roadAddr":"대구광역시 북구 동북로 21","jibunAddr":"대구광역시 북구 산격동 755-1","openHours":"정시","maleToilets":5,"femaleToilets":2,"disabled":false,"diaperTable":false,"emergencyBell":false,"cctv":false,"managerTel":"0533816051","source":"public","category":"public"},{"id":"202434500000102358","name":"대성산업㈜복현대성주유소","lat":35.898896,"lng":128.615565,"roadAddr":"대구광역시 북구 검단로 12","jibunAddr":"대구광역시 북구 복현동 539-125","openHours":"정시","maleToilets":3,"femaleToilets":2,"disabled":false,"diaperTable":false,"emergencyBell":false,"cctv":false,"managerTel":"0533835150","source":"public","category":"public"},{"id":"202434500000102286","name":"대성산업㈜ 대성충전소","lat":35.881644,"lng":128.589924,"roadAddr":"대구광역시 북구 침산로 60","jibunAddr":"대구광역시 북구 칠성동2가 66","openHours":"정시","maleToilets":15,"femaleToilets":8,"disabled":true,"diaperTable":false,"emergencyBell":false,"cctv":false,"managerTel":"0533548822","source":"public","category":"public"},{"id":"202434500000102210","name":"칠성동 행정복지센터","lat":35.879224,"lng":128.60002,"roadAddr":"대구광역시 북구 칠성로19길 4","jibunAddr":"대구광역시 북구 칠성동2가 409-613","openHours":"정시","maleToilets":7,"femaleToilets":4,"disabled":true,"diaperTable":false,"emergencyBell":false,"cctv":false,"managerTel":"0536653302","source":"public","category":"public"},{"id":"202434500000102167","name":"시민운동장 실내빙상장","lat":35.883019,"lng":128.586154,"roadAddr":"대구광역시 북구 고성로 191","jibunAddr":"대구광역시 북구 고성동3가 2","openHours":"상시","maleToilets":23,"femaleToilets":14,"disabled":true,"diaperTable":false,"emergencyBell":true,"cctv":true,"managerTel":"0533576021","source":"public","category":"public"},{"id":"202434500000102372","name":"(주)이마트 칠성점","lat":35.885226,"lng":128.58979,"roadAddr":"대구광역시 북구 침산로 93","jibunAddr":"대구광역시 북구 칠성동2가 20-1","openHours":"정시","maleToilets":9,"femaleToilets":8,"disabled":true,"diaperTable":true,"emergencyBell":true,"cctv":false,"managerTel":"0536091050","source":"public","category":"public"},{"id":"202434500000102271","name":"연암테니스장","lat":35.900539,"lng":128.604907,"roadAddr":"대구광역시 북구 연암공원로 131","jibunAddr":"대구광역시 북구 산격동 산 18-2","openHours":"상시","maleToilets":2,"femaleToilets":1,"disabled":true,"diaperTable":false,"emergencyBell":true,"cctv":false,"managerTel":"0539580660","source":"public","category":"public"},{"id":"202434500000102342","name":"SK네트윅스㈜해바라기주유소","lat":35.883114,"lng":128.608069,"roadAddr":"대구광역시 북구 대현로 81","jibunAddr":"대구광역시 북구 대현동 158-1","openHours":"정시","maleToilets":3,"femaleToilets":1,"disabled":false,"diaperTable":false,"emergencyBell":false,"cctv":false,"managerTel":"0539414289","source":"public","category":"public"},{"id":"202434500000102376","name":"(주)스펙트럼시티","lat":35.885226,"lng":128.58979,"roadAddr":"대구광역시 북구 침산로 93","jibunAddr":"대구광역시 북구 칠성동2가 20-1","openHours":"정시","maleToilets":65,"femaleToilets":44,"disabled":false,"diaperTable":false,"emergencyBell":false,"cctv":false,"managerTel":"0532131234","source":"public","category":"public"},{"id":"202434500000102261","name":"침산공원(A)","lat":35.897036,"lng":128.584913,"jibunAddr":"대구광역시 북구 침산동 1170-7","openHours":"상시","maleToilets":5,"femaleToilets":2,"disabled":true,"diaperTable":false,"emergencyBell":true,"cctv":false,"managerTel":"0536652865","source":"public","category":"public"},{"id":"202434500000102328","name":"선진주유소","lat":35.895222,"lng":128.594285,"roadAddr":"대구광역시 북구 연암로 119","jibunAddr":"대구광역시 북구 산격동 794-5","openHours":"정시","maleToilets":2,"femaleToilets":1,"disabled":false,"diaperTable":false,"emergencyBell":false,"cctv":false,"managerTel":"0539556647","source":"public","category":"public"},{"id":"202434500000102188","name":"대현도서관","lat":35.881902,"lng":128.607398,"roadAddr":"대구광역시 북구 대현남로 43","jibunAddr":"대구광역시 북구 대현동 394-3","openHours":"정시","maleToilets":6,"femaleToilets":6,"disabled":true,"diaperTable":false,"emergencyBell":true,"cctv":true,"managerTel":"0533205172","source":"public","category":"public"},{"id":"202434500000102432","name":"칠성시장역(지하철1호선)","lat":35.876127,"lng":128.605169,"roadAddr":"대구광역시 북구 칠성남로 222","jibunAddr":"대구광역시 북구 칠성동1가 278-1","openHours":"정시","maleToilets":17,"femaleToilets":6,"disabled":true,"diaperTable":true,"emergencyBell":true,"cctv":true,"managerTel":"0534277751","source":"public","category":"public"},{"id":"202434500000102326","name":"오페라주유소","lat":35.884616,"lng":128.597569,"roadAddr":"대구광역시 북구 중앙대로 580","jibunAddr":"대구광역시 북구 침산동 105-44","openHours":"정시","maleToilets":1,"femaleToilets":1,"disabled":false,"diaperTable":false,"emergencyBell":false,"cctv":true,"managerTel":"0533242524","source":"public","category":"public"},{"id":"202434500000102166","name":"대구실내체육관(B)","lat":35.893754,"lng":128.60301,"roadAddr":"대구광역시 북구 대구체육관로 39","jibunAddr":"대구광역시 북구 산격동 1427-1","openHours":"정시","maleToilets":6,"femaleToilets":6,"disabled":false,"diaperTable":false,"emergencyBell":false,"cctv":false,"managerTel":"0538038450","source":"public","category":"public"},{"id":"202434500000102165","name":"대구실내체육관(A)","lat":35.893754,"lng":128.60301,"roadAddr":"대구광역시 북구 대구체육관로 39","jibunAddr":"대구광역시 북구 산격동 1427-1","openHours":"정시","maleToilets":6,"femaleToilets":0,"disabled":false,"diaperTable":false,"emergencyBell":false,"cctv":true,"managerTel":"0538038450","source":"public","category":"public"},{"id":"202434500000102406","name":"대구도시공사","lat":35.883175,"lng":128.589339,"roadAddr":"대구광역시 북구 침산로 73","jibunAddr":"대구광역시 북구 고성동3가 1-1","openHours":"정시","maleToilets":56,"femaleToilets":19,"disabled":true,"diaperTable":false,"emergencyBell":false,"cctv":false,"managerTel":"0533500300","source":"public","category":"public"},{"id":"202434500000102177","name":"대구광역시청 총무과","lat":35.892027,"lng":128.598409,"roadAddr":"대구광역시 북구 연암로 40","jibunAddr":"대구광역시 북구 산격동 1445-3","openHours":"정시","maleToilets":13,"femaleToilets":8,"disabled":true,"diaperTable":false,"emergencyBell":false,"cctv":false,"managerTel":"0538030114","source":"public","category":"public"},{"id":"202434500000102198","name":"산격4동 행정복지센터","lat":35.892271,"lng":128.604281,"roadAddr":"대구광역시 북구 대구체육관로 48","jibunAddr":"대구광역시 북구 산격동 1490","openHours":"정시","maleToilets":6,"femaleToilets":2,"disabled":true,"diaperTable":true,"emergencyBell":false,"cctv":false,"managerTel":"0536653311","source":"public","category":"public"},{"id":"202434500000102211","name":"침산2동 행정복지센터","lat":35.887268,"lng":128.59699,"roadAddr":"대구광역시 북구 침산남로 195","jibunAddr":"대구광역시 북구 침산동 5-1","openHours":"정시","maleToilets":1,"femaleToilets":1,"disabled":false,"diaperTable":false,"emergencyBell":false,"cctv":false,"managerTel":"0536653465","source":"public","category":"public"},{"id":"202434500000102191","name":"보건복지센터","lat":35.891715,"lng":128.588813,"roadAddr":"대구광역시 북구 성북로 49","jibunAddr":"대구광역시 북구 침산동 521-2","openHours":"정시","maleToilets":46,"femaleToilets":19,"disabled":true,"diaperTable":true,"emergencyBell":true,"cctv":false,"managerTel":"0536653216","source":"public","category":"public"},{"id":"202434500000102348","name":"케이케이(주)침산주유소","lat":35.901269,"lng":128.587714,"roadAddr":"대구광역시 북구 노원로 255","jibunAddr":"대구광역시 북구 침산동 794","openHours":"정시","maleToilets":3,"femaleToilets":2,"disabled":false,"diaperTable":false,"emergencyBell":false,"cctv":false,"managerTel":"0533527272","source":"public","category":"public"},{"id":"202434500000102201","name":"대현동 행정복지센터","lat":35.88158,"lng":128.604644,"roadAddr":"대구광역시 북구 대현남로 25","jibunAddr":"대구광역시 북구 대현동 531","openHours":"정시","maleToilets":8,"femaleToilets":4,"disabled":false,"diaperTable":false,"emergencyBell":false,"cctv":false,"managerTel":"0536653686","source":"public","category":"public"},{"id":"202434500000102444","name":"대구역","lat":35.875885,"lng":128.596129,"roadAddr":"대구광역시 북구 태평로 161","jibunAddr":"대구광역시 북구 칠성동2가 302-155","openHours":"정시","maleToilets":15,"femaleToilets":14,"disabled":true,"diaperTable":false,"emergencyBell":true,"cctv":true,"managerTel":"0539402316","source":"public","category":"public"},{"id":"202434500000102263","name":"침산공원(C)","lat":35.89516,"lng":128.584198,"jibunAddr":"대구광역시 북구 침산동 1329","openHours":"상시","maleToilets":2,"femaleToilets":2,"disabled":false,"diaperTable":false,"emergencyBell":true,"cctv":false,"managerTel":"0536652865","source":"public","category":"public"},{"id":"202434500000102203","name":"복현1동 행정복지센터","lat":35.893769,"lng":128.618586,"roadAddr":"대구광역시 북구 동북로52길 7","jibunAddr":"대구광역시 북구 복현동 457-1","openHours":"정시","maleToilets":3,"femaleToilets":3,"disabled":true,"diaperTable":false,"emergencyBell":false,"cctv":false,"managerTel":"0536653312","source":"public","category":"public"},{"id":"202434500000102338","name":"흥구석유(주)산격주유소","lat":35.902312,"lng":128.597977,"roadAddr":"대구광역시 북구 동북로 39","jibunAddr":"대구광역시 북구 산격동 662-3","openHours":"정시","maleToilets":5,"femaleToilets":1,"disabled":false,"diaperTable":false,"emergencyBell":false,"cctv":false,"managerTel":"0533813950","source":"public","category":"public"},{"id":"202434500000102411","name":"(주)KT산격지점","lat":35.902959,"lng":128.604237,"roadAddr":"대구광역시 북구 호국로 8","jibunAddr":"대구광역시 북구 산격동 1630","openHours":"정시","maleToilets":15,"femaleToilets":14,"disabled":false,"diaperTable":false,"emergencyBell":false,"cctv":false,"source":"public","category":"public"},{"id":"202434500000102341","name":"북대구IC주유소","lat":35.902289,"lng":128.606356,"roadAddr":"대구광역시 북구 동북로 113","jibunAddr":"대구광역시 북구 산격동 507-1","openHours":"정시","maleToilets":2,"femaleToilets":2,"disabled":false,"diaperTable":false,"emergencyBell":false,"cctv":false,"managerTel":"0533810030","source":"public","category":"public"},{"id":"202434500000102299","name":"태왕주유소","lat":35.901872,"lng":128.594606,"roadAddr":"대구광역시 북구 동북로 9","jibunAddr":"대구광역시 북구 산격동 758-10","openHours":"정시","maleToilets":2,"femaleToilets":2,"disabled":false,"diaperTable":false,"emergencyBell":false,"cctv":false,"managerTel":"0533844431","source":"public","category":"public"},{"id":"202434500000102172","name":"북구보훈회관 및 노인회관","lat":35.877334,"lng":128.591821,"roadAddr":"대구광역시 북구 칠성남로26길 27","jibunAddr":"대구광역시 북구 칠성동2가 302-140","openHours":"정시","maleToilets":9,"femaleToilets":15,"disabled":true,"diaperTable":false,"emergencyBell":false,"cctv":false,"managerTel":"0533539633","source":"public","category":"public"},{"id":"202434500000102340","name":"복현셀프주유소","lat":35.894397,"lng":128.618425,"roadAddr":"대구광역시 북구 동북로 256","jibunAddr":"대구광역시 북구 복현동 427-6","openHours":"정시","maleToilets":2,"femaleToilets":0,"disabled":false,"diaperTable":false,"emergencyBell":false,"cctv":false,"managerTel":"0539520919","source":"public","category":"public"},{"id":"202434500000102216","name":"대구광역시청 별관","lat":35.892027,"lng":128.598409,"roadAddr":"대구광역시 북구 연암로 40","jibunAddr":"대구광역시 북구 산격동 1445-3","openHours":"정시","maleToilets":231,"femaleToilets":94,"disabled":true,"diaperTable":true,"emergencyBell":false,"cctv":false,"managerTel":"0538036615","source":"public","category":"public"},{"id":"202434500000102389","name":"칠성시장(1)","lat":35.87698,"lng":128.604501,"roadAddr":"대구광역시 북구 칠성시장로 28","jibunAddr":"대구광역시 북구 칠성동1가 276-165","openHours":"정시","maleToilets":7,"femaleToilets":3,"disabled":false,"diaperTable":false,"emergencyBell":false,"cctv":false,"managerTel":"0534233480","source":"public","category":"public"},{"id":"202434500000102344","name":"대현주유소","lat":35.888845,"lng":128.603436,"roadAddr":"대구광역시 북구 대학로 16","jibunAddr":"대구광역시 북구 산격동 1382-50","openHours":"정시","maleToilets":2,"femaleToilets":0,"disabled":false,"diaperTable":false,"emergencyBell":false,"cctv":false,"managerTel":"0539566370","source":"public","category":"public"},{"id":"202434500000102206","name":"구.산격1동 행정복지센터","lat":35.892627,"lng":128.594656,"roadAddr":"대구광역시 북구 연암로 88","jibunAddr":"대구광역시 북구 산격동 848-61","openHours":"정시","maleToilets":2,"femaleToilets":1,"disabled":true,"diaperTable":false,"emergencyBell":false,"cctv":false,"managerTel":"0536653308","source":"public","category":"public"},{"id":"202434500000102366","name":"박정형외과병원","lat":35.89682,"lng":128.61365,"roadAddr":"대구광역시 북구 대학로 143","jibunAddr":"대구광역시 북구 산격동 1291-19","openHours":"정시","maleToilets":19,"femaleToilets":14,"disabled":true,"diaperTable":false,"emergencyBell":false,"cctv":false,"managerTel":"0539570075","source":"public","category":"public"},{"id":"202434600000100144","name":"수성4가동행정복지센터","lat":35.862649,"lng":128.616647,"roadAddr":"대구광역시 수성구 들안로67길 64","jibunAddr":"대구광역시 수성구 수성동4가 1027-6","openHours":"정시","maleToilets":0,"femaleToilets":2,"disabled":true,"diaperTable":true,"emergencyBell":true,"cctv":false,"managerTel":"0536663723","source":"public","category":"public"},{"id":"202434600000100250","name":"대구은행역","lat":35.85974,"lng":128.614227,"roadAddr":"대구광역시 수성구 달구벌대로 지하2300","jibunAddr":"대구광역시 수성구 수성동4가 1085-32","openHours":"정시","maleToilets":10,"femaleToilets":12,"disabled":true,"diaperTable":true,"emergencyBell":true,"cctv":true,"managerTel":"0537520206","source":"public","category":"public"},{"id":"202434600000100349","name":"국민건강보험공단대구수성지사","lat":35.860377,"lng":128.623664,"roadAddr":"대구광역시 수성구 상록로 13","jibunAddr":"대구광역시 수성구 범어동 557-2","openHours":"정시","maleToilets":16,"femaleToilets":13,"disabled":true,"diaperTable":false,"emergencyBell":true,"cctv":false,"managerTel":"0536686113","source":"public","category":"public"},{"id":"202434600000100348","name":"대구고용복지플러스센터","lat":35.865349,"lng":128.627441,"roadAddr":"대구광역시 수성구 동대구로 392","jibunAddr":"대구광역시 수성구 범어동 45-31","openHours":"정시","maleToilets":27,"femaleToilets":19,"disabled":true,"diaperTable":false,"emergencyBell":true,"cctv":false,"managerTel":"0536676000","source":"public","category":"public"},{"id":"202434600000100173","name":"정호승문학관","lat":35.866106,"lng":128.617799,"roadAddr":"대구광역시 수성구 들안로 403-1","jibunAddr":"대구광역시 수성구 범어동 1265","openHours":"정시","maleToilets":3,"femaleToilets":2,"disabled":false,"diaperTable":true,"emergencyBell":true,"cctv":true,"managerTel":"0536684037","source":"public","category":"public"},{"id":"202434600000100132","name":"범어3동행정복지센터","lat":35.863265,"lng":128.624215,"roadAddr":"대구광역시 수성구 상록로 42","jibunAddr":"대구광역시 수성구 범어동 26-11","openHours":"정시","maleToilets":3,"femaleToilets":7,"disabled":true,"diaperTable":true,"emergencyBell":true,"cctv":false,"managerTel":"0536663571","source":"public","category":"public"}]