[{"id":"202434500000102164","name":"유니버시아드레포츠센터","lat":35.927999,"lng":128.597948,"roadAddr":"대구광역시 북구 호국로57길 6","jibunAddr":"대구광역시 북구 서변동 1724-1","openHours":"09:00~18:00","maleToilets":30,"femaleToilets":27,"disabled":false,"diaperTable":false,"emergencyBell":false,"cctv":true,"managerTel":"0539500113","source":"public","category":"public"},{"id":"202434500000102224","name":"서변동 1630-272번지 하천 인근 화장실","lat":35.915874,"lng":128.599679,"jibunAddr":"대구광역시 북구 서변동 1630-272","openHours":"상시","maleToilets":2,"femaleToilets":2,"disabled":true,"diaperTable":false,"emergencyBell":true,"cctv":false,"managerTel":"0536652615","source":"public","category":"public"},{"id":"202534500000100015","name":"북대구 영업소","lat":35.912961,"lng":128.58771,"roadAddr":"대구광역시 북구 서변남로","openHours":"00:00~24:00","maleToilets":3,"femaleToilets":2,"disabled":true,"diaperTable":false,"emergencyBell":false,"cctv":false,"source":"public","category":"public"},{"id":"202434500000102371","name":"대구종합유통단지 전자상가","lat":35.905457,"lng":128.604982,"roadAddr":"대구광역시 북구 유통단지로 25","jibunAddr":"대구광역시 북구 산격동 1626","openHours":"09:30~20:30","maleToilets":68,"femaleToilets":29,"disabled":true,"diaperTable":false,"emergencyBell":false,"cctv":false,"managerTel":"0536042011","source":"public","category":"public"},{"id":"202634500000100005","name":"검단들공원","lat":35.920088,"lng":128.616032,"roadAddr":"대구광역시 북구 워터폴리스로 63 (검단동)","jibunAddr":"대구광역시 북구 검단동 1542","openHours":"상시","maleToilets":3,"femaleToilets":4,"disabled":true,"diaperTable":true,"emergencyBell":true,"cctv":false,"source":"public","category":"public"},{"id":"202634500000100004","name":"금호워터폴리스공원","lat":35.921577,"lng":128.625841,"roadAddr":"대구광역시 북구 워터폴리스로 153 (검단동)","jibunAddr":"대구광역시 북구 검단동 1675","openHours":"상시","maleToilets":3,"femaleToilets":4,"disabled":true,"diaperTable":true,"emergencyBell":true,"cctv":false,"source":"public","category":"public"},{"id":"202534500000100002","name":"금호강 15번","lat":35.926358,"lng":128.625916,"roadAddr":"대구광역시 북구 검단동 121-4","openHours":"상시","maleToilets":1,"femaleToilets":2,"disabled":true,"diaperTable":false,"emergencyBell":true,"cctv":false,"source":"public","category":"public"},{"id":"202434500000102359","name":"㈜HC에너지 연경1주유소","lat":35.9416,"lng":128.613737,"roadAddr":"대구광역시 북구 동화천로 207","jibunAddr":"대구광역시 북구 연경동 977","openHours":"09:00~18:00","maleToilets":4,"femaleToilets":2,"disabled":false,"diaperTable":false,"emergencyBell":false,"cctv":true,"managerTel":"0539858051","source":"public","category":"public"},{"id":"202434500000102222","name":"동변동 617-1번지 하천 인근 화장실","lat":35.920982,"lng":128.611862,"jibunAddr":"대구광역시 북구 동변동 617-1","openHours":"상시","maleToilets":2,"femaleToilets":2,"disabled":true,"diaperTable":false,"emergencyBell":true,"cctv":false,"managerTel":"0536652615","source":"public","category":"public"},{"id":"202434500000102399","name":"대구종합유통단지 산업용재관","lat":35.904966,"lng":128.606396,"roadAddr":"대구광역시 북구 유통단지로 16","jibunAddr":"대구광역시 북구 산격동 1629","openHours":"09:30~20:30","maleToilets":64,"femaleToilets":38,"disabled":true,"diaperTable":false,"emergencyBell":false,"cctv":false,"managerTel":"0536040700","source":"public","category":"public"},{"id":"202434500000102400","name":"코스트코 홀세일","lat":35.906371,"lng":128.6181,"roadAddr":"대구광역시 북구 검단로 97","jibunAddr":"대구광역시 북구 산격동 1817","openHours":"09:00~22:00","maleToilets":32,"femaleToilets":20,"disabled":true,"diaperTable":true,"emergencyBell":true,"cctv":false,"source":"public","category":"public"},{"id":"202534500000100005","name":"금호강 18번","lat":35.90962,"lng":128.603809,"roadAddr":"대구광역시 북구 산격동 1477-1","openHours":"상시","maleToilets":3,"femaleToilets":3,"disabled":false,"diaperTable":false,"emergencyBell":true,"cctv":false,"source":"public","category":"public"},{"id":"202434500000102327","name":"현대오일뱅크(주)대구현대주유소","lat":35.910208,"lng":128.607545,"roadAddr":"대구광역시 북구 유통단지로13길 38","jibunAddr":"대구광역시 북구 산격동 1552","openHours":"09:00~18:00","maleToilets":3,"femaleToilets":1,"disabled":false,"diaperTable":false,"emergencyBell":false,"cctv":false,"managerTel":"0533830051","source":"public","category":"public"},{"id":"202434500000102221","name":"연경동 1083번지 하천 인근화장실","lat":35.938661,"lng":128.610579,"jibunAddr":"대구광역시 북구 연경동 1083","openHours":"상시","maleToilets":3,"femaleToilets":3,"disabled":false,"diaperTable":true,"emergencyBell":true,"cctv":false,"managerTel":"0536652615","source":"public","category":"public"},{"id":"202434500000102186","name":"북구청소년회관","lat":35.90578,"lng":128.616051,"roadAddr":"대구광역시 북구 검단로 71-17","jibunAddr":"대구광역시 북구 산격동 120","openHours":"07:00~22:00","maleToilets":35,"femaleToilets":16,"disabled":true,"diaperTable":false,"emergencyBell":false,"cctv":true,"managerTel":"0533241388","source":"public","category":"public"},{"id":"202434500000102305","name":"동서변주유소","lat":35.914201,"lng":128.599565,"roadAddr":"대구광역시 북구 호국로 141","jibunAddr":"대구광역시 북구 서변동 1282","openHours":"09:00~18:00","maleToilets":3,"femaleToilets":2,"disabled":false,"diaperTable":false,"emergencyBell":false,"cctv":true,"managerTel":"0539515141","source":"public","category":"public"},{"id":"202434500000102398","name":"대구종합유통단지 전기재료관","lat":35.905061,"lng":128.607713,"roadAddr":"대구광역시 북구 유통단지로 38","jibunAddr":"대구광역시 북구 산격동 1665","openHours":"09:30~20:30","maleToilets":69,"femaleToilets":34,"disabled":true,"diaperTable":false,"emergencyBell":false,"cctv":false,"managerTel":"0536044114","source":"public","category":"public"},{"id":"202434500000102284","name":"대구개인택시조합충전소","lat":35.910037,"lng":128.625335,"roadAddr":"대구광역시 북구 검단로 174","jibunAddr":"대구광역시 북구 검단동 1016-5","openHours":"09:00~18:00","maleToilets":3,"femaleToilets":2,"disabled":true,"diaperTable":false,"emergencyBell":false,"cctv":false,"managerTel":"0533826300","source":"public","category":"public"},{"id":"202534500000100003","name":"금호강 16번","lat":35.925953,"lng":128.624472,"roadAddr":"대구광역시 북구 검단동 121-3","openHours":"상시","maleToilets":1,"femaleToilets":3,"disabled":true,"diaperTable":false,"emergencyBell":true,"cctv":false,"source":"public","category":"public"},{"id":"202534500000100006","name":"금호강 19번","lat":35.903474,"lng":128.594627,"roadAddr":"대구광역시 북구 산격동 722-1","openHours":"상시","maleToilets":3,"femaleToilets":2,"disabled":false,"diaperTable":false,"emergencyBell":false,"cctv":false,"source":"public","category":"public"},{"id":"202434500000102373","name":"대구종합유통단지 전기조명관","lat":35.905696,"lng":128.608275,"roadAddr":"대구광역시 북구 유통단지로 50","jibunAddr":"대구광역시 북구 산격동 1666","openHours":"09:30~20:30","maleToilets":39,"femaleToilets":12,"disabled":true,"diaperTable":false,"emergencyBell":false,"cctv":false,"managerTel":"0536046114","source":"public","category":"public"},{"id":"202434500000102303","name":"까치주유소","lat":35.930628,"lng":128.599549,"roadAddr":"대구광역시 북구 호국로 322","jibunAddr":"대구광역시 북구 서변동 136-3","openHours":"09:00~18:00","maleToilets":3,"femaleToilets":1,"disabled":false,"diaperTable":false,"emergencyBell":false,"cctv":true,"managerTel":"0539430035","source":"public","category":"public"},{"id":"202434500000102304","name":"㈜ISP스퀘어북대구주유소","lat":35.928974,"lng":128.598407,"roadAddr":"대구광역시 북구 호국로 303","jibunAddr":"대구광역시 북구 서변동 140-7","openHours":"09:00~18:00","maleToilets":3,"femaleToilets":1,"disabled":false,"diaperTable":false,"emergencyBell":false,"cctv":false,"managerTel":"0539555185","source":"public","category":"public"},{"id":"202434500000102357","name":"현대오일뱅크(주)유통단지주유소","lat":35.905792,"lng":128.618047,"roadAddr":"대구광역시 북구 검단로 93","jibunAddr":"대구광역시 북구 산격동 1819","openHours":"09:00~18:00","maleToilets":4,"femaleToilets":1,"disabled":false,"diaperTable":false,"emergencyBell":false,"cctv":false,"managerTel":"0533830051","source":"public","category":"public"},{"id":"202434500000102378","name":"대구종합유통단지 섬유제품관","lat":35.906279,"lng":128.609661,"roadAddr":"대구광역시 북구 유통단지로 60","jibunAddr":"대구광역시 북구 산격동 1667","openHours":"09:30~20:30","maleToilets":95,"femaleToilets":62,"disabled":true,"diaperTable":true,"emergencyBell":false,"cctv":false,"managerTel":"0536011506","source":"public","category":"public"},{"id":"202434500000102274","name":"검단 파크골프장 2","lat":35.924917,"lng":128.622325,"jibunAddr":"대구광역시 북구 검단동 1399-1","openHours":"상시","maleToilets":2,"femaleToilets":2,"disabled":true,"diaperTable":false,"emergencyBell":true,"cctv":true,"managerTel":"0536653936","source":"public","category":"public"},{"id":"202434500000102273","name":"무태파크골프장","lat":35.922415,"lng":128.599923,"jibunAddr":"대구광역시 북구 서변동 1630-1","openHours":"상시","maleToilets":2,"femaleToilets":1,"disabled":false,"diaperTable":false,"emergencyBell":true,"cctv":false,"managerTel":"0536653936","source":"public","category":"public"},{"id":"202434500000102396","name":"대구종합유통단지 전자관","lat":35.907203,"lng":128.607019,"roadAddr":"대구광역시 북구 유통단지로 45","jibunAddr":"대구광역시 북구 산격동 1621","openHours":"09:30~20:30","maleToilets":138,"femaleToilets":76,"disabled":true,"diaperTable":false,"emergencyBell":true,"cctv":false,"managerTel":"0536042000","source":"public","category":"public"},{"id":"202434500000102415","name":"대구서변동우체국","lat":35.92091,"lng":128.597153,"roadAddr":"대구광역시 북구 호국로43길 17","jibunAddr":"대구광역시 북구 서변동 1791","openHours":"(평일)09:00∼18:00","maleToilets":3,"femaleToilets":1,"disabled":true,"diaperTable":false,"emergencyBell":false,"cctv":true,"managerTel":"0539519931","source":"public","category":"public"},{"id":"202434500000102267","name":"연경근린공원","lat":35.944041,"lng":128.623518,"roadAddr":"대구광역시 북구 동화천로55길 25","jibunAddr":"대구광역시 북구 연경동 1051","openHours":"상시","maleToilets":5,"femaleToilets":8,"disabled":true,"diaperTable":true,"emergencyBell":true,"cctv":false,"managerTel":"0536652865","source":"public","category":"public"},{"id":"202534500000100004","name":"금호강 17번","lat":35.911605,"lng":128.604642,"roadAddr":"대구광역시 북구 산격동 14-45","openHours":"상시","maleToilets":3,"femaleToilets":3,"disabled":false,"diaperTable":true,"emergencyBell":true,"cctv":false,"source":"public","category":"public"},{"id":"202434500000102258","name":"대불근린공원","lat":35.905722,"lng":128.615383,"jibunAddr":"대구광역시 북구 산격동 산 2-1","openHours":"상시","maleToilets":3,"femaleToilets":2,"disabled":false,"diaperTable":false,"emergencyBell":true,"cctv":false,"managerTel":"0536652865","source":"public","category":"public"},{"id":"202434500000102269","name":"대불스포츠센터","lat":35.904436,"lng":128.611132,"roadAddr":"대구광역시 북구 유통단지로8길 56","jibunAddr":"대구광역시 북구 산격동 277-1","openHours":"상시","maleToilets":7,"femaleToilets":5,"disabled":true,"diaperTable":false,"emergencyBell":true,"cctv":true,"managerTel":"0533838666","source":"public","category":"public"},{"id":"202434500000102277","name":"검단 축구장 1","lat":35.921117,"lng":128.615902,"jibunAddr":"대구광역시 북구 검단동 399-2","openHours":"상시","maleToilets":3,"femaleToilets":2,"disabled":true,"diaperTable":false,"emergencyBell":true,"cctv":false,"managerTel":"0536653936","source":"public","category":"public"},{"id":"202434500000102275","name":"검단 파크골프장 1","lat":35.924917,"lng":128.622325,"jibunAddr":"대구광역시 북구 검단동 1399-1","openHours":"상시","maleToilets":3,"femaleToilets":3,"disabled":false,"diaperTable":false,"emergencyBell":true,"cctv":false,"managerTel":"0536653936","source":"public","category":"public"},{"id":"202434500000102214","name":"무태조야동 행정복지센터","lat":35.921353,"lng":128.597046,"roadAddr":"대구광역시 북구 호국로43길 20","jibunAddr":"대구광역시 북구 서변동 1777","openHours":"09:00~18:00","maleToilets":6,"femaleToilets":4,"disabled":true,"diaperTable":true,"emergencyBell":false,"cctv":false,"managerTel":"0536653317","source":"public","category":"public"},{"id":"202434500000102223","name":"서변동 1630-1번지 하천 인근 화장실","lat":35.910093,"lng":128.595752,"roadAddr":"대구광역시 북구 조야로2길 209","jibunAddr":"대구광역시 북구 서변동 1290-4","openHours":"상시","maleToilets":3,"femaleToilets":4,"disabled":true,"diaperTable":true,"emergencyBell":true,"cctv":false,"managerTel":"0536652615","source":"public","category":"public"},{"id":"202434500000102259","name":"서변근린공원","lat":35.921704,"lng":128.595174,"roadAddr":"대구광역시 북구 서변로3길 64","jibunAddr":"대구광역시 북구 서변동 1747","openHours":"상시","maleToilets":2,"femaleToilets":2,"disabled":false,"diaperTable":false,"emergencyBell":true,"cctv":false,"managerTel":"0536652865","source":"public","category":"public"},{"id":"202434500000102282","name":"연경체육공원","lat":35.944153,"lng":128.625934,"roadAddr":"대구광역시 북구 동화천로 330","jibunAddr":"대구광역시 북구 연경동 1094","openHours":"상시","maleToilets":4,"femaleToilets":4,"disabled":true,"diaperTable":true,"emergencyBell":true,"cctv":true,"managerTel":"0536653936","source":"public","category":"public"},{"id":"202434500000102276","name":"검단 축구장 2","lat":35.921117,"lng":128.615902,"jibunAddr":"대구광역시 북구 검단동 399-2","openHours":"상시","maleToilets":4,"femaleToilets":4,"disabled":false,"diaperTable":false,"emergencyBell":true,"cctv":false,"managerTel":"0536653936","source":"public","category":"public"},{"id":"202434500000102292","name":"서변LPG충전소","lat":35.913344,"lng":128.599044,"roadAddr":"대구광역시 북구 호국로 129","jibunAddr":"대구광역시 북구 서변동 1290-57","openHours":"09:00~18:00","maleToilets":4,"femaleToilets":2,"disabled":false,"diaperTable":false,"emergencyBell":false,"cctv":false,"managerTel":"0539391991","source":"public","category":"public"},{"id":"202434500000102256","name":"유통단지공원","lat":35.907404,"lng":128.609048,"roadAddr":"대구광역시 북구 유통단지로 61","jibunAddr":"대구광역시 북구 산격동 1620","openHours":"상시","maleToilets":4,"femaleToilets":5,"disabled":true,"diaperTable":false,"emergencyBell":true,"cctv":false,"managerTel":"0536652865","source":"public","category":"public"},{"id":"202434500000102413","name":"대구우편집중국","lat":35.910385,"lng":128.614677,"roadAddr":"대구광역시 북구 유통단지로 115","jibunAddr":"대구광역시 북구 산격동 1574","openHours":"09:00~18:00","maleToilets":5,"femaleToilets":2,"disabled":false,"diaperTable":true,"emergencyBell":true,"cctv":true,"managerTel":"0533807257","source":"public","category":"public"}]