[{"id":"202552200000100006","name":"왜관21 미군부대 특화거리 주차장","lat":36.003634,"lng":128.412291,"jibunAddr":"경상북도 칠곡군 왜관읍 석전리 433-13","openHours":"상시","maleToilets":3,"femaleToilets":2,"disabled":true,"diaperTable":false,"emergencyBell":false,"cctv":false,"managerTel":"0549795252","source":"public","category":"public"},{"id":"202052200000100081","name":"교육문화회관(평생학습관)","lat":35.991884,"lng":128.418148,"roadAddr":"경상북도 칠곡군 왜관읍 관문로1길 32","jibunAddr":"경상북도 칠곡군 왜관읍 석전리 254","openHours":"정시","maleToilets":15,"femaleToilets":15,"disabled":true,"diaperTable":false,"emergencyBell":false,"cctv":false,"managerTel":"0549795103","source":"public","category":"public"},{"id":"202352200000100003","name":"칠곡(부산)휴게소","lat":36.019491,"lng":128.42776,"roadAddr":"경상북도 칠곡군 왜관읍 경부고속도로 159","jibunAddr":"경상북도 칠곡군 왜관읍 아곡리 302","openHours":"24시간","maleToilets":39,"femaleToilets":25,"disabled":true,"diaperTable":true,"emergencyBell":true,"cctv":true,"managerTel":"0549752277","source":"public","category":"public"},{"id":"202052200000100069","name":"왜관19 303고지 추모공원 화장실","lat":36.010529,"lng":128.41963,"roadAddr":"경상북도 칠곡군 왜관읍 아곡1길 11-12","jibunAddr":"경상북도 칠곡군 왜관읍 아곡리 458","openHours":"상시","maleToilets":3,"femaleToilets":2,"disabled":false,"diaperTable":false,"emergencyBell":false,"cctv":false,"source":"public","category":"public"},{"id":"202352200000100005","name":"칠곡(부산)주유소","lat":36.019491,"lng":128.42776,"roadAddr":"경상북도 칠곡군 왜관읍 경부고속도로 159","jibunAddr":"경상북도 칠곡군 왜관읍 아곡리 302","openHours":"24시간","maleToilets":4,"femaleToilets":2,"disabled":true,"diaperTable":false,"emergencyBell":true,"cctv":true,"managerTel":"0549751734","source":"public","category":"public"},{"id":"202052200000100079","name":"교육문화회관(본관,대공연장)","lat":35.991884,"lng":128.418148,"roadAddr":"경상북도 칠곡군 왜관읍 관문로1길 32","jibunAddr":"경상북도 칠곡군 왜관읍 석전리 254","openHours":"정시","maleToilets":41,"femaleToilets":17,"disabled":true,"diaperTable":true,"emergencyBell":false,"cctv":false,"managerTel":"0549795103","source":"public","category":"public"},{"id":"202052200000100093","name":"칠곡종합운동장","lat":35.999609,"lng":128.423639,"roadAddr":"경상북도 칠곡군 왜관읍 호국로 203","jibunAddr":"경상북도 칠곡군 왜관읍 아곡리 670-5","openHours":"정시","maleToilets":144,"femaleToilets":44,"disabled":true,"diaperTable":false,"emergencyBell":false,"cctv":false,"managerTel":"0549795212","source":"public","category":"public"},{"id":"202352200000100006","name":"칠곡(서울방향)주유소","lat":36.01345,"lng":128.430589,"roadAddr":"경상북도 칠곡군 왜관읍 경부고속도로 158","jibunAddr":"경상북도 칠곡군 왜관읍 아곡리 138","openHours":"24시간","maleToilets":5,"femaleToilets":2,"disabled":true,"diaperTable":false,"emergencyBell":true,"cctv":true,"managerTel":"0549752544","source":"public","category":"public"},{"id":"202352200000100004","name":"칠곡(서울)휴게소","lat":36.01345,"lng":128.430589,"roadAddr":"경상북도 칠곡군 왜관읍 경부고속도로 158","jibunAddr":"경상북도 칠곡군 왜관읍 아곡리 138","openHours":"24시간","maleToilets":37,"femaleToilets":23,"disabled":true,"diaperTable":true,"emergencyBell":true,"cctv":true,"managerTel":"0549751883","source":"public","category":"public"},{"id":"202052200000100094","name":"칠곡군종합운동장 테니스장","lat":35.999609,"lng":128.423639,"roadAddr":"경상북도 칠곡군 왜관읍 호국로 203","jibunAddr":"경상북도 칠곡군 왜관읍 아곡리 670-5","openHours":"상시","maleToilets":16,"femaleToilets":5,"disabled":true,"diaperTable":false,"emergencyBell":false,"cctv":false,"managerTel":"0549795212","source":"public","category":"public"},{"id":"202052200000100080","name":"교육문화회관(사회교육관)","lat":35.991884,"lng":128.418148,"roadAddr":"경상북도 칠곡군 왜관읍 관문로1길 32","jibunAddr":"경상북도 칠곡군 왜관읍 석전리 254","openHours":"정시","maleToilets":19,"femaleToilets":20,"disabled":true,"diaperTable":false,"emergencyBell":false,"cctv":false,"managerTel":"0549795103","source":"public","category":"public"},{"id":"202052200000100015","name":"왜관14 매원리 전통한옥마을","lat":35.995431,"lng":128.434918,"roadAddr":"경상북도 칠곡군 왜관읍 매원3길 30-8","jibunAddr":"경상북도 칠곡군 왜관읍 매원리 404-1","openHours":"상시","maleToilets":3,"femaleToilets":3,"disabled":false,"diaperTable":false,"emergencyBell":true,"cctv":false,"managerTel":"0549795251","source":"public","category":"public"},{"id":"202252200000100007","name":"리틀야구장","lat":36.006195,"lng":128.423486,"jibunAddr":"경상북도 칠곡군 왜관읍 아곡리 656","openHours":"미개방","maleToilets":2,"femaleToilets":1,"disabled":false,"diaperTable":false,"emergencyBell":false,"cctv":false,"managerTel":"0549795252","source":"public","category":"public"}]