[{"id":"202534100000100007","name":"달성공원","lat":35.873399,"lng":128.575918,"roadAddr":"대구광역시 중구 달성공원로 35","jibunAddr":"대구광역시 중구 달성동 294-1","openHours":"상시","maleToilets":40,"femaleToilets":28,"disabled":true,"diaperTable":false,"emergencyBell":true,"cctv":false,"managerTel":"0538037363","source":"public","category":"public"},{"id":"202534100000100216","name":"대신동 행정복지센터","lat":35.865551,"lng":128.576338,"roadAddr":"대구광역시 중구 달구벌대로389길 50","jibunAddr":"대구광역시 중구 대신동 2107","openHours":"09:00~18:00","maleToilets":6,"femaleToilets":6,"disabled":false,"diaperTable":false,"emergencyBell":false,"cctv":false,"managerTel":"0536613673","source":"public","category":"public"},{"id":"202534100000100180","name":"서문치안센터","lat":35.869607,"lng":128.579357,"roadAddr":"대구광역시 중구 큰장로28길 2","jibunAddr":"대구광역시 중구대신동 115-22","openHours":"09:00~18:00","maleToilets":1,"femaleToilets":1,"disabled":false,"diaperTable":false,"emergencyBell":false,"cctv":true,"managerTel":"0534201307","source":"public","category":"public"},{"id":"202534100000100282","name":"성내3동 행정복지센터","lat":35.874943,"lng":128.581805,"roadAddr":"대구광역시 중구 달성로 111, 성내3동주민센터 (달성동)","jibunAddr":"대구광역시 중구 달성동 229-28 성내3동주민센터","openHours":"09:00~18:00","maleToilets":1,"femaleToilets":4,"disabled":true,"diaperTable":false,"emergencyBell":true,"cctv":true,"managerTel":"0536613652","source":"public","category":"public"},{"id":"202534100000100024","name":"대한적십자사혈액원","lat":35.878769,"lng":128.578896,"roadAddr":"대구광역시 중구 태평로 7","jibunAddr":"대구광역시 중구 달성동 147-2","openHours":"09:00~18:00","maleToilets":8,"femaleToilets":4,"disabled":false,"diaperTable":false,"emergencyBell":true,"cctv":false,"managerTel":"0536055600","source":"public","category":"public"},{"id":"202534100000100091","name":"대신119안전센터","lat":35.868907,"lng":128.580772,"roadAddr":"대구광역시 중구 큰장로26길 45","jibunAddr":"대구광역시 중구 대신동 115-378","openHours":"상시","maleToilets":3,"femaleToilets":1,"disabled":false,"diaperTable":false,"emergencyBell":false,"cctv":false,"managerTel":"0536014574","source":"public","category":"public"},{"id":"202534100000100127","name":"대구향토역사관","lat":35.873399,"lng":128.575918,"roadAddr":"대구광역시 중구 달성공원로 35","jibunAddr":"대구광역시 중구 달성동  294-1","openHours":"09:00~18:00","maleToilets":11,"femaleToilets":7,"disabled":true,"diaperTable":false,"emergencyBell":true,"cctv":false,"managerTel":"0536066422","source":"public","category":"public"},{"id":"202534100000100217","name":"달성공원역(3호선)","lat":35.875649,"lng":128.582081,"roadAddr":"대구광역시 중구 달성로 116","jibunAddr":"대구광역시 중구 수창동 104-13","openHours":"05:20~24:00","maleToilets":6,"femaleToilets":5,"disabled":true,"diaperTable":false,"emergencyBell":true,"cctv":true,"managerTel":"0536407521","source":"public","category":"public"},{"id":"202534100000100149","name":"청라언덕역(신남역)(2호선)","lat":35.864908,"lng":128.582469,"roadAddr":"대구광역시 중구 달구벌대로 지하2000","jibunAddr":"대구광역시 중구 동산동 640","openHours":"05:20~24:00","maleToilets":13,"femaleToilets":14,"disabled":true,"diaperTable":true,"emergencyBell":true,"cctv":true,"managerTel":"0532567728","source":"public","category":"public"},{"id":"202534100000100244","name":"중구보건소 및 노인복지관","lat":35.877815,"lng":128.583335,"roadAddr":"대구광역시 중구 태평로 45","jibunAddr":"대구광역시 중구 태평로3가 174-1 외 4","openHours":"09:00~18:00","maleToilets":18,"femaleToilets":24,"disabled":true,"diaperTable":false,"emergencyBell":true,"cctv":true,"managerTel":"0536613121","source":"public","category":"public"},{"id":"202534100000100189","name":"서문지구대","lat":35.871352,"lng":128.583913,"roadAddr":"대구광역시 중구 국채보상로99길 12","jibunAddr":"대구광역시 중구 동산동 15-30","openHours":"상시","maleToilets":4,"femaleToilets":1,"disabled":true,"diaperTable":true,"emergencyBell":false,"cctv":true,"managerTel":"0534201302","source":"public","category":"public"},{"id":"202534100000100187","name":"대구중부소방서(남산119안전센터)","lat":35.862579,"lng":128.575242,"roadAddr":"대구광역시 중구 달구벌대로 1926","jibunAddr":"대구광역시 중구 남산동 2967-4","openHours":"09:00~18:00","maleToilets":6,"femaleToilets":2,"disabled":false,"diaperTable":false,"emergencyBell":false,"cctv":false,"managerTel":"0536014571","source":"public","category":"public"},{"id":"202534100000100033","name":"대신지하상가","lat":35.870522,"lng":128.581053,"roadAddr":"대구광역시 중구 국채보상로 470","jibunAddr":"대구광역시 중구 대신동 115-1","openHours":"05:00~24:00","maleToilets":14,"femaleToilets":7,"disabled":false,"diaperTable":false,"emergencyBell":true,"cctv":true,"managerTel":"0535559204","source":"public","category":"public"},{"id":"202534100000100233","name":"달성토성 커뮤니티센터","lat":35.873023,"lng":128.57981,"roadAddr":"대구광역시 중구 달성공원로 28","jibunAddr":"대구광역시 중구 대신동 1-28 외 1","openHours":"09:00~18:00","maleToilets":1,"femaleToilets":1,"disabled":false,"diaperTable":false,"emergencyBell":true,"cctv":false,"managerTel":"0536612818","source":"public","category":"public"},{"id":"202534100000100270","name":"서문시장활성화구역","lat":35.870188,"lng":128.581386,"roadAddr":"대구광역시 중구 큰장로28길 41-10","jibunAddr":"대구광역시 중구 대신동 115-180","openHours":"09:00~18:00","maleToilets":4,"femaleToilets":3,"disabled":false,"diaperTable":false,"emergencyBell":false,"cctv":false,"managerTel":"0536612676","source":"public","category":"public"},{"id":"202534100000100250","name":"수창청춘맨숀","lat":35.87532,"lng":128.583078,"roadAddr":"대구광역시 중구 달성로22길 27","jibunAddr":"대구광역시 중구 수창동 64-2","openHours":"10:00~18:00","maleToilets":8,"femaleToilets":8,"disabled":false,"diaperTable":false,"emergencyBell":false,"cctv":false,"managerTel":"0534305673","source":"public","category":"public"},{"id":"202534100000100219","name":"청라언덕역(신남역)(3호선)","lat":35.864154,"lng":128.582367,"roadAddr":"대구광역시 중구 남산로 80","jibunAddr":"대구광역시 중구 남산동 97-2","openHours":"05:20~24:00","maleToilets":6,"femaleToilets":5,"disabled":true,"diaperTable":true,"emergencyBell":true,"cctv":true,"managerTel":"0536407521","source":"public","category":"public"},{"id":"202534100000100218","name":"서문시장역(3호선)","lat":35.869799,"lng":128.582239,"roadAddr":"대구광역시 중구 달성로 50","jibunAddr":"대구광역시 중구 대신동 115-1","openHours":"05:20~24:00","maleToilets":6,"femaleToilets":5,"disabled":true,"diaperTable":false,"emergencyBell":true,"cctv":true,"managerTel":"0536407521","source":"public","category":"public"},{"id":"202434300000100072","name":"서구노인복지관","lat":35.875555,"lng":128.564065,"roadAddr":"대구광역시 서구 문화로 288, 서구노인복지관 (평리동)","jibunAddr":"대구광역시 서구 평리동  1044번지 4호","openHours":"(평일)09:00-18:00+(주말)09:00-13:00","maleToilets":12,"femaleToilets":16,"disabled":true,"diaperTable":false,"emergencyBell":false,"cctv":false,"managerTel":"0535588310","source":"public","category":"public"},{"id":"202434300000100092","name":"한국섬유개발연구원","lat":35.868207,"lng":128.546094,"roadAddr":"대구광역시 서구 국채보상로 136, 한국섬유개발연구원 (중리동)","jibunAddr":"대구광역시 서구 중리동  1083번지","openHours":"(평일)09:00~18:00","maleToilets":89,"femaleToilets":37,"disabled":true,"diaperTable":false,"emergencyBell":true,"cctv":false,"managerTel":"0535606600","source":"public","category":"public"},{"id":"202434300000100048","name":"서구청","lat":35.872339,"lng":128.559279,"roadAddr":"대구광역시 서구 국채보상로 257, 서구청 (평리동)","jibunAddr":"대구광역시 서구 평리동  1230번지 9호","openHours":"상시","maleToilets":59,"femaleToilets":32,"disabled":true,"diaperTable":true,"emergencyBell":false,"cctv":false,"managerTel":"0536632216","source":"public","category":"public"},{"id":"202434300000100064","name":"평리5동 행정복지센터","lat":35.869521,"lng":128.547775,"roadAddr":"대구광역시 서구 국채보상로 151(평리동)","jibunAddr":"대구광역시 서구 평리동 1535-2 2층, 5층","openHours":"(평일)09:00~18:00","maleToilets":10,"femaleToilets":4,"disabled":false,"diaperTable":false,"emergencyBell":false,"cctv":false,"managerTel":"0536633314","source":"public","category":"public"},{"id":"202434300000100062","name":"평리3동 행정복지센터","lat":35.875955,"lng":128.5613,"roadAddr":"대구광역시 서구 문화로 261, 평리3동 행정복지센터 (평리동)","jibunAddr":"대구광역시 서구 평리동  931번지 1호","openHours":"(평일)09:00~18:00","maleToilets":3,"femaleToilets":2,"disabled":false,"diaperTable":false,"emergencyBell":false,"cctv":false,"managerTel":"0536634394","source":"public","category":"public"},{"id":"202434300000100080","name":"서문우체국","lat":35.867947,"lng":128.577121,"roadAddr":"대구광역시 서구 큰장로 101 (내당동)","jibunAddr":"대구광역시 서구 내당동  1015번지 17호","openHours":"(평일)09:00~18:00","maleToilets":0,"femaleToilets":0,"disabled":false,"diaperTable":false,"emergencyBell":false,"cctv":false,"managerTel":"0535713100","source":"public","category":"public"},{"id":"202434300000100077","name":"이현지구대","lat":35.869047,"lng":128.543955,"roadAddr":"대구광역시 서구 국채보상로 117, 이현지구대 (이현동)","jibunAddr":"대구광역시 서구 이현동  44번지 35호","openHours":"00:00~24:00","maleToilets":2,"femaleToilets":1,"disabled":false,"diaperTable":false,"emergencyBell":false,"cctv":false,"managerTel":"0536083311","source":"public","category":"public"},{"id":"202434300000100156","name":"비원뮤직홀","lat":35.883036,"lng":128.574565,"roadAddr":"대구광역시 서구 달서천로 374(원대동1가)","jibunAddr":"대구광역시 서구 원대동1가 633","openHours":"(평일)09:00~21:00+(토요일)09:00~18:00","maleToilets":8,"femaleToilets":14,"disabled":true,"diaperTable":true,"emergencyBell":true,"cctv":true,"managerTel":"0536633686","source":"public","category":"public"},{"id":"202434300000100117","name":"달서주유소","lat":35.881933,"lng":128.553676,"roadAddr":"대구광역시 서구 달서천로 176 (평리동)","jibunAddr":"대구광역시 서구 평리동  107번지 5호","openHours":"07:00~23:00","maleToilets":2,"femaleToilets":0,"disabled":false,"diaperTable":false,"emergencyBell":false,"cctv":false,"managerTel":"0533524001","source":"public","category":"public"},{"id":"202434300000100108","name":"합천주유소","lat":35.889721,"lng":128.545079,"roadAddr":"대구광역시 서구 염색공단천로 78 (비산동)","jibunAddr":"대구광역시 서구 비산동  2043번지 16호","openHours":"(평일)06:00~20:00+(주말)07:00~17:00","maleToilets":4,"femaleToilets":1,"disabled":false,"diaperTable":false,"emergencyBell":false,"cctv":false,"managerTel":"0533561010","source":"public","category":"public"},{"id":"202434300000100006","name":"비산2,3동 철도변화장실(육교아래)","lat":35.881053,"lng":128.574651,"roadAddr":"대구광역시 서구 북비산로81길 44","jibunAddr":"대구광역시 서구 비산동 2100-112","openHours":"상시","maleToilets":1,"femaleToilets":1,"disabled":true,"diaperTable":false,"emergencyBell":true,"cctv":false,"managerTel":"0536632826","source":"public","category":"public"},{"id":"202434300000100011","name":"서대구완충녹지(7BL)","lat":35.862324,"lng":128.545639,"roadAddr":"대구광역시 서구 와룡로66길 73","jibunAddr":"대구광역시 서구 중리동 산103-3","openHours":"상시","maleToilets":3,"femaleToilets":2,"disabled":false,"diaperTable":false,"emergencyBell":true,"cctv":false,"managerTel":"0536632826","source":"public","category":"public"},{"id":"202434300000100049","name":"서구보건소","lat":35.872339,"lng":128.559279,"roadAddr":"대구광역시 서구 국채보상로 257, 서구보건소 (평리동)","jibunAddr":"대구광역시 서구 평리동  1230번지 9호","openHours":"(평일)09:00~18:00","maleToilets":18,"femaleToilets":19,"disabled":true,"diaperTable":false,"emergencyBell":true,"cctv":false,"managerTel":"0536633116","source":"public","category":"public"},{"id":"202434300000100015","name":"철로변 북편 화장실","lat":35.884114,"lng":128.565467,"roadAddr":"대구광역시 서구 달서천로 286","jibunAddr":"대구광역시 서구 비산동 970-7","openHours":"상시","maleToilets":0,"femaleToilets":1,"disabled":true,"diaperTable":false,"emergencyBell":true,"cctv":false,"managerTel":"0536632826","source":"public","category":"public"},{"id":"202434300000100143","name":"내당2,3동 드림도서관","lat":35.864329,"lng":128.568755,"roadAddr":"대구광역시 서구 달서로5길 31-1 (내당동)","jibunAddr":"대구광역시 서구 내당동  911번지 32호","openHours":"(평일)09:00~18:00","maleToilets":2,"femaleToilets":1,"disabled":false,"diaperTable":false,"emergencyBell":true,"cctv":false,"managerTel":"0535219100","source":"public","category":"public"},{"id":"202434300000100016","name":"서대구완충녹지(9BL)","lat":35.859848,"lng":128.541996,"roadAddr":"대구광역시 서구 평리로35길 5-13","jibunAddr":"대구광역시 서구 중리동 688-2","openHours":"상시","maleToilets":0,"femaleToilets":1,"disabled":true,"diaperTable":false,"emergencyBell":true,"cctv":false,"managerTel":"0536632826","source":"public","category":"public"},{"id":"202434300000100123","name":"광명주유소","lat":35.876063,"lng":128.554538,"roadAddr":"대구광역시 서구 서대구로 201 (평리동)","jibunAddr":"대구광역시 서구 평리동  617번지 18호","openHours":"07:20~22:30","maleToilets":3,"femaleToilets":1,"disabled":false,"diaperTable":false,"emergencyBell":false,"cctv":false,"managerTel":"0535555563","source":"public","category":"public"},{"id":"202434300000100148","name":"원고개도서관","lat":35.881875,"lng":128.570793,"roadAddr":"대구광역시 서구 달서로43길 12, 원고개도서관 (비산동)","jibunAddr":"대구광역시 서구 비산동  598번지","openHours":"(평일)09:00~20:00","maleToilets":4,"femaleToilets":5,"disabled":true,"diaperTable":true,"emergencyBell":true,"cctv":false,"managerTel":"0536633941","source":"public","category":"public"},{"id":"202434300000100095","name":"대구의료원 본관 내 생명존중센터","lat":35.859919,"lng":128.541124,"roadAddr":"대구광역시 서구 평리로 157, 대구의료원 (중리동)","jibunAddr":"대구광역시 서구 중리동  1162번지","openHours":"(평일)06:00-24:00+(주말)09:00-18:00","maleToilets":4,"femaleToilets":3,"disabled":true,"diaperTable":true,"emergencyBell":true,"cctv":false,"managerTel":"0535609394","source":"public","category":"public"},{"id":"202434300000100149","name":"서구어린이도서관","lat":35.874279,"lng":128.546381,"roadAddr":"대구광역시 서구 문화로 123(이현동)","jibunAddr":"대구광역시 서구 이현동 69-3번지","openHours":"(평일)09:00~18:00","maleToilets":6,"femaleToilets":6,"disabled":false,"diaperTable":false,"emergencyBell":true,"cctv":false,"managerTel":"0536633701","source":"public","category":"public"},{"id":"202434300000100155","name":"서대구역","lat":35.88148,"lng":128.540176,"roadAddr":"대구광역시 서구 와룡로 527(이현동)","jibunAddr":"대구광역시 서구 이현동 232-1","openHours":"05:40~01:00","maleToilets":20,"femaleToilets":36,"disabled":true,"diaperTable":true,"emergencyBell":true,"cctv":true,"managerTel":"0539402228","source":"public","category":"public"},{"id":"202434300000100018","name":"이현공원 어린이 물놀이장 화장실","lat":35.873866,"lng":128.546497,"roadAddr":"대구광역시 서구 당산로 417","jibunAddr":"대구광역시 서구 이현동 48-3","openHours":"상시","maleToilets":2,"femaleToilets":2,"disabled":true,"diaperTable":false,"emergencyBell":true,"cctv":false,"managerTel":"0536632826","source":"public","category":"public"},{"id":"202434300000100086","name":"이현119안전센터","lat":35.869081,"lng":128.544139,"roadAddr":"대구광역시 서구 국채보상로 119, 이현119안전센터 (이현동)","jibunAddr":"대구광역시 서구 이현동  44번지 36호","openHours":"00:00~24:00","maleToilets":13,"femaleToilets":3,"disabled":true,"diaperTable":false,"emergencyBell":true,"cctv":false,"managerTel":"0535520119","source":"public","category":"public"},{"id":"202434300000100087","name":"서부소방서","lat":35.881875,"lng":128.554386,"roadAddr":"대구광역시 서구 달서천로 186, 대구광역시서부소방서 (평리동)","jibunAddr":"대구광역시 서구 평리동  70번지 1호","openHours":"00:00~24:00","maleToilets":0,"femaleToilets":0,"disabled":false,"diaperTable":false,"emergencyBell":false,"cctv":false,"managerTel":"0533539119","source":"public","category":"public"},{"id":"202434300000100070","name":"대구서구지역자활센터","lat":35.863421,"lng":128.569978,"roadAddr":"대구광역시 서구 달구벌대로377길 12-10 (내당동)","jibunAddr":"대구광역시 서구 내당동  906번지","openHours":"09:00~18:00","maleToilets":2,"femaleToilets":3,"disabled":false,"diaperTable":false,"emergencyBell":false,"cctv":false,"managerTel":"0535554848","source":"public","category":"public"},{"id":"202434300000100069","name":"서구장애인재활교육센터","lat":35.864273,"lng":128.570429,"roadAddr":"대구광역시 서구 달서로5길 10 (내당동)","jibunAddr":"대구광역시 서구 내당동  901번지 26호","openHours":"(평일)09:00~18:00","maleToilets":2,"femaleToilets":2,"disabled":true,"diaperTable":false,"emergencyBell":true,"cctv":false,"managerTel":"0535734654","source":"public","category":"public"},{"id":"202434300000100021","name":"공단역","lat":35.891808,"lng":128.553658,"roadAddr":"대구광역시 서구 팔달로 28","jibunAddr":"대구광역시 서구 비산동  1705번지 2호","openHours":"05:20~24:00","maleToilets":5,"femaleToilets":5,"disabled":true,"diaperTable":true,"emergencyBell":true,"cctv":false,"managerTel":"0536407431","source":"public","category":"public"},{"id":"202434300000100116","name":"이현공단주유소","lat":35.870134,"lng":128.550552,"roadAddr":"대구광역시 서구 국채보상로 181 (평리동)","jibunAddr":"대구광역시 서구 평리동  1527번지 2호","openHours":"07:00~22:00","maleToilets":6,"femaleToilets":2,"disabled":false,"diaperTable":false,"emergencyBell":true,"cctv":true,"managerTel":"0535650889","source":"public","category":"public"},{"id":"202434300000100120","name":"지민주유소","lat":35.879323,"lng":128.552459,"roadAddr":"대구광역시 서구 북비산로 177 (평리동)","jibunAddr":"대구광역시 서구 평리동  544번지","openHours":"06:50~22:40","maleToilets":4,"femaleToilets":2,"disabled":false,"diaperTable":false,"emergencyBell":false,"cctv":false,"managerTel":"0535623332","source":"public","category":"public"},{"id":"202534300000100025","name":"서대구근로자복지회관","lat":35.868511,"lng":128.544746,"roadAddr":"대구광역시 서구 국채보상로 124 (중리동)","jibunAddr":"대구광역시 서구 중리동 1082-8","openHours":"평일 06:00-24:00","maleToilets":30,"femaleToilets":14,"disabled":true,"diaperTable":false,"emergencyBell":false,"cctv":false,"source":"public","category":"public"},{"id":"202434300000100076","name":"평산지구대","lat":35.873352,"lng":128.571481,"roadAddr":"대구광역시 서구 달서로26길 1, 평산지구대 (비산동)","jibunAddr":"대구광역시 서구 비산동  434번지 27호","openHours":"00:00~24:00","maleToilets":3,"femaleToilets":1,"disabled":false,"diaperTable":false,"emergencyBell":false,"cctv":false,"managerTel":"0536083309","source":"public","category":"public"},{"id":"202434300000100110","name":"평리동양주유소","lat":35.879731,"lng":128.559184,"roadAddr":"대구광역시 서구 북비산로 47길 6(평리동)","jibunAddr":"대구광역시 서구 평리동  646번지 13호","openHours":"07:10~22:00","maleToilets":2,"femaleToilets":1,"disabled":false,"diaperTable":false,"emergencyBell":false,"cctv":false,"managerTel":"0535255995","source":"public","category":"public"},{"id":"202434300000100122","name":"영신제2주유소","lat":35.876568,"lng":128.554522,"roadAddr":"대구광역시 서구 서대구로 207 (평리동)","jibunAddr":"대구광역시 서구 평리동  617번지 2호","openHours":"06:00~22:50","maleToilets":3,"femaleToilets":1,"disabled":false,"diaperTable":false,"emergencyBell":false,"cctv":false,"managerTel":"0535535511","source":"public","category":"public"},{"id":"202434300000100068","name":"서구종합사회복지관","lat":35.861039,"lng":128.563321,"roadAddr":"대구광역시 서구 달구벌대로365길 3 (내당동)","jibunAddr":"대구광역시 서구 내당동  67번지 9호","openHours":"09:00~21:00","maleToilets":10,"femaleToilets":9,"disabled":true,"diaperTable":false,"emergencyBell":false,"cctv":false,"managerTel":"0535630777","source":"public","category":"public"},{"id":"202434300000100083","name":"서대구우체국","lat":35.866802,"lng":128.555186,"roadAddr":"대구광역시 서구 서대구로 97, 서대구우체국 (평리동)","jibunAddr":"대구광역시 서구 평리동  1404번지 4호","openHours":"(평일)09:00~18:00","maleToilets":12,"femaleToilets":4,"disabled":true,"diaperTable":false,"emergencyBell":false,"cctv":false,"managerTel":"0535605335","source":"public","category":"public"},{"id":"202434300000100007","name":"철로변완충녹지 남편(평리지하도동편)","lat":35.881043,"lng":128.557882,"roadAddr":"대구광역시 서구 통학로51길 52","jibunAddr":"대구광역시 서구 평리동 477","openHours":"상시","maleToilets":1,"femaleToilets":0,"disabled":true,"diaperTable":false,"emergencyBell":true,"cctv":false,"managerTel":"0536632826","source":"public","category":"public"},{"id":"202534300000100010","name":"창의나라유치원","lat":35.877255,"lng":128.561113,"roadAddr":"대구광역시 서구 서대구로42길 53 (평리동)","jibunAddr":"대구광역시 서구 평리동 699-7","openHours":"미개방","maleToilets":2,"femaleToilets":1,"disabled":true,"diaperTable":false,"emergencyBell":false,"cctv":false,"source":"public","category":"public"},{"id":"202434300000100111","name":"영신주유소","lat":35.876661,"lng":128.55535,"roadAddr":"대구광역시 서구 서대구로 210 (평리동)","jibunAddr":"대구광역시 서구 평리동  722번지 2호","openHours":"07:00~22:00","maleToilets":3,"femaleToilets":1,"disabled":false,"diaperTable":false,"emergencyBell":false,"cctv":false,"managerTel":"0535557450","source":"public","category":"public"},{"id":"202434300000100119","name":"이현IC주유소","lat":35.879366,"lng":128.553229,"roadAddr":"대구광역시 서구 북비산로 183 (평리동)","jibunAddr":"대구광역시 서구 평리동  536번지 12호","openHours":"07:30~22:30","maleToilets":3,"femaleToilets":1,"disabled":false,"diaperTable":false,"emergencyBell":false,"cctv":false,"managerTel":"0535641112","source":"public","category":"public"},{"id":"202434300000100071","name":"서구치매안심센터","lat":35.880161,"lng":128.5724,"roadAddr":"대구광역시 서구 북비산로71길 7, 구민건강증진센터 (비산동)","jibunAddr":"대구광역시 서구 비산동  42번지 107호","openHours":"(평일)09:00~18:00","maleToilets":2,"femaleToilets":6,"disabled":true,"diaperTable":false,"emergencyBell":true,"cctv":false,"managerTel":"0536633811","source":"public","category":"public"},{"id":"202434300000100121","name":"천만에너지","lat":35.878387,"lng":128.549948,"roadAddr":"대구광역시 서구 북비산로 154 (평리동)","jibunAddr":"대구광역시 서구 평리동  574번지 1호","openHours":"07:00~23:00","maleToilets":3,"femaleToilets":2,"disabled":false,"diaperTable":false,"emergencyBell":false,"cctv":false,"managerTel":"0535685180","source":"public","category":"public"},{"id":"202434300000100096","name":"대구의료원 라파엘웰빙센터","lat":35.859919,"lng":128.541124,"roadAddr":"대구광역시 서구 평리로 157, 대구의료원 (중리동)","jibunAddr":"대구광역시 서구 중리동  1163번지","openHours":"(평일)06:00-24:00+(주말)09:00-18:00","maleToilets":12,"femaleToilets":12,"disabled":true,"diaperTable":false,"emergencyBell":true,"cctv":false,"managerTel":"0535609394","source":"public","category":"public"},{"id":"202434300000100151","name":"청소년문화의집(꼼지락발전소)","lat":35.865515,"lng":128.54863,"roadAddr":"대구광역시 서구 국채보상로34길 48-1, 청소년문화의집 (중리동)","jibunAddr":"대구광역시 서구 중리동 90번지 13호","openHours":"(평일)09:00~20:00","maleToilets":10,"femaleToilets":19,"disabled":true,"diaperTable":false,"emergencyBell":true,"cctv":false,"managerTel":"0532162360","source":"public","category":"public"},{"id":"202434300000100150","name":"서구영어도서관","lat":35.867913,"lng":128.544237,"roadAddr":"대구광역시 서구 평리로 35길 90-6(중리동)","jibunAddr":"대구광역시 서구 중리동  1082-11번지","openHours":"(평일)09:00~18:00","maleToilets":1,"femaleToilets":1,"disabled":true,"diaperTable":true,"emergencyBell":false,"cctv":false,"managerTel":"0536633861","source":"public","category":"public"},{"id":"202434300000100043","name":"서구국민체육센터","lat":35.873412,"lng":128.540987,"roadAddr":"대구광역시 서구 문화로 72, 서구국민체육센터 (이현동)","jibunAddr":"대구광역시 서구 이현동  315번지 15호","openHours":"(평일)06:00-21:00+(토)06:00-14:00","maleToilets":12,"femaleToilets":13,"disabled":true,"diaperTable":false,"emergencyBell":true,"cctv":false,"managerTel":"0536633663","source":"public","category":"public"},{"id":"202434300000100107","name":"아름다운주유소","lat":35.868182,"lng":128.570727,"roadAddr":"대구광역시 서구 달서로 67 (비산동)","jibunAddr":"대구광역시 서구 비산동  302번지 5호","openHours":"07:10~22:00","maleToilets":3,"femaleToilets":2,"disabled":false,"diaperTable":false,"emergencyBell":false,"cctv":false,"managerTel":"0535570900","source":"public","category":"public"},{"id":"202434300000100005","name":"철로변 완충녹지 남편(육교옆)","lat":35.883586,"lng":128.565176,"roadAddr":"대구광역시 서구 통학로52길 19","jibunAddr":"대구광역시 서구 비산동 752","openHours":"상시","maleToilets":0,"femaleToilets":1,"disabled":true,"diaperTable":false,"emergencyBell":true,"cctv":false,"managerTel":"0536632826","source":"public","category":"public"},{"id":"202434300000100041","name":"서구구민운동장","lat":35.873615,"lng":128.542905,"roadAddr":"대구광역시 서구 문화로 96(이현동)","jibunAddr":"대구광역시 서구 이현동  152번지 1호","openHours":"상시","maleToilets":8,"femaleToilets":8,"disabled":true,"diaperTable":false,"emergencyBell":true,"cctv":false,"managerTel":"0536633663","source":"public","category":"public"},{"id":"202534300000100001","name":"평오근린공원 화장실","lat":35.872088,"lng":128.550208,"jibunAddr":"대구광역시 서구 평리동 1512-25","openHours":"상시","maleToilets":2,"femaleToilets":3,"disabled":true,"diaperTable":false,"emergencyBell":false,"cctv":false,"source":"public","category":"public"},{"id":"202434300000100079","name":"서도지구대","lat":35.871,"lng":128.559511,"roadAddr":"대구광역시 서구 국채보상로 260, 서도지구대 (평리동)","jibunAddr":"대구광역시 서구 평리동  1218번지 5호","openHours":"00:00~24:00","maleToilets":2,"femaleToilets":1,"disabled":false,"diaperTable":false,"emergencyBell":false,"cctv":false,"managerTel":"0536083307","source":"public","category":"public"},{"id":"202434300000100097","name":"대구의료원 국화원","lat":35.859919,"lng":128.541124,"roadAddr":"대구광역시 서구 평리로 157, 대구의료원 (중리동)","jibunAddr":"대구광역시 서구 중리동  1164번지","openHours":"(평일)06:00-24:00+(주말)09:00-18:00","maleToilets":15,"femaleToilets":15,"disabled":true,"diaperTable":false,"emergencyBell":true,"cctv":false,"managerTel":"0535609394","source":"public","category":"public"},{"id":"202434300000100055","name":"비산2.3동 행정복지센터","lat":35.875801,"lng":128.574715,"roadAddr":"대구광역시 서구 국채보상로81길 43, 비산2.3동 행정복지센터 (비산동)","jibunAddr":"대구광역시 서구 비산동  125번지 22호","openHours":"(평일)09:00~18:00","maleToilets":8,"femaleToilets":4,"disabled":false,"diaperTable":false,"emergencyBell":false,"cctv":false,"managerTel":"0536633305","source":"public","category":"public"},{"id":"202434300000100019","name":"자전거 만남의광장","lat":35.882135,"lng":128.555874,"roadAddr":"대구광역시 서구 달서천로 196","jibunAddr":"대구광역시 서구 비산동 840-5","openHours":"상시","maleToilets":2,"femaleToilets":2,"disabled":false,"diaperTable":false,"emergencyBell":true,"cctv":false,"managerTel":"0536633011","source":"public","category":"public"},{"id":"202434300000100124","name":"㈜브라보주유소","lat":35.878906,"lng":128.543382,"roadAddr":"대구광역시 서구 북비산로 95 (이현동)","jibunAddr":"대구광역시 서구 이현동  33번지 14호","openHours":"07:20~22:00","maleToilets":2,"femaleToilets":1,"disabled":false,"diaperTable":false,"emergencyBell":false,"cctv":false,"managerTel":"0535518851","source":"public","category":"public"},{"id":"202434300000100131","name":"행복주유소","lat":35.868606,"lng":128.54434,"roadAddr":"대구광역시 서구 국채보상로 122 (중리동)","jibunAddr":"대구광역시 서구 중리동  1082번지 7호","openHours":"06:00~23:00","maleToilets":2,"femaleToilets":1,"disabled":false,"diaperTable":false,"emergencyBell":false,"cctv":false,"managerTel":"0535235189","source":"public","category":"public"},{"id":"202434300000100059","name":"비산7동 행정복지센터","lat":35.887937,"lng":128.553541,"roadAddr":"대구광역시 서구 염색공단로5길 4, 비산7동 행정복지센터 (비산동)","jibunAddr":"대구광역시 서구 비산동  1890번지 2호","openHours":"(평일)09:00~18:00","maleToilets":2,"femaleToilets":1,"disabled":true,"diaperTable":false,"emergencyBell":false,"cctv":false,"managerTel":"0536633309","source":"public","category":"public"},{"id":"202434300000100094","name":"대구의료원 본관 내 별관(서관)","lat":35.859919,"lng":128.541124,"roadAddr":"대구광역시 서구 평리로 157, 대구의료원 (중리동)","jibunAddr":"대구광역시 서구 중리동  1162번지","openHours":"(평일)06:00-24:00+(주말)09:00-18:00","maleToilets":12,"femaleToilets":9,"disabled":true,"diaperTable":false,"emergencyBell":true,"cctv":false,"managerTel":"0535609394","source":"public","category":"public"},{"id":"202434300000100037","name":"홈플러스 내당점","lat":35.860323,"lng":128.563731,"roadAddr":"대구광역시 서구 달구벌대로 1821 (내당동)","jibunAddr":"대구광역시 서구 내당동  65번지 8호","openHours":"10:00~23:00","maleToilets":18,"femaleToilets":12,"disabled":true,"diaperTable":true,"emergencyBell":true,"cctv":false,"managerTel":"0535672080","source":"public","category":"public"},{"id":"202434300000100101","name":"채움self주유소","lat":35.8609,"lng":128.565334,"roadAddr":"대구광역시 서구 달구벌대로 1833 (내당동)","jibunAddr":"대구광역시 서구 내당동  63번지 4호","openHours":"08:00~22:00","maleToilets":4,"femaleToilets":1,"disabled":false,"diaperTable":false,"emergencyBell":false,"cctv":false,"managerTel":"0535265558","source":"public","category":"public"},{"id":"202434300000100089","name":"한국업사이클센터","lat":35.87147,"lng":128.557657,"roadAddr":"대구광역시 서구 국채보상로 243 (평리동)","jibunAddr":"대구광역시 서구 평리동  1301번지","openHours":"(평일)09:00~18:00","maleToilets":12,"femaleToilets":13,"disabled":true,"diaperTable":false,"emergencyBell":true,"cctv":false,"managerTel":"0537196066","source":"public","category":"public"},{"id":"202434300000100009","name":"서대구완충녹지(2BL)","lat":35.876994,"lng":128.546493,"roadAddr":"대구광역시 서구 와룡로100길 62","jibunAddr":"대구광역시 서구 이현동 63-13","openHours":"상시","maleToilets":1,"femaleToilets":1,"disabled":true,"diaperTable":false,"emergencyBell":true,"cctv":false,"managerTel":"0536632826","source":"public","category":"public"},{"id":"202434300000100024","name":"㈜북부정류장","lat":35.885286,"lng":128.555135,"roadAddr":"대구광역시 서구 서대구로 295 (비산동)","jibunAddr":"대구광역시 서구 비산동  1856번지 3호","openHours":"06:00~22:50","maleToilets":26,"femaleToilets":9,"disabled":true,"diaperTable":false,"emergencyBell":false,"cctv":false,"managerTel":"16661851","source":"public","category":"public"},{"id":"202434300000100003","name":"중리공원","lat":35.863579,"lng":128.549799,"roadAddr":"대구광역시 서구 국채보상로34길 64-10","jibunAddr":"대구광역시 서구 중리동 100-5","openHours":"상시","maleToilets":1,"femaleToilets":1,"disabled":true,"diaperTable":false,"emergencyBell":true,"cctv":false,"managerTel":"0536632826","source":"public","category":"public"},{"id":"202434300000100061","name":"평리2동 행정복지센터","lat":35.871219,"lng":128.563643,"roadAddr":"대구광역시 서구 국채보상로60길 6, 평리2동 행정복지센터 (평리동)","jibunAddr":"대구광역시 서구 평리동  1100번지 7호","openHours":"(평일)09:00~18:00","maleToilets":2,"femaleToilets":2,"disabled":false,"diaperTable":false,"emergencyBell":false,"cctv":false,"managerTel":"0536633311","source":"public","category":"public"},{"id":"202434300000100104","name":"청구LPG충전소","lat":35.868493,"lng":128.541201,"roadAddr":"대구광역시 서구 국채보상로 92 (중리동)","jibunAddr":"대구광역시 서구 중리동  292번지28호","openHours":"06:00~23:50","maleToilets":2,"femaleToilets":1,"disabled":false,"diaperTable":false,"emergencyBell":false,"cctv":false,"managerTel":"0535521123","source":"public","category":"public"},{"id":"202434300000100142","name":"서구자원봉사센터","lat":35.872275,"lng":128.574787,"roadAddr":"대구광역시 서구 국채보상로 399 (비산동)","jibunAddr":"대구광역시 서구 비산동  399번지 34호","openHours":"09:00~18:00","maleToilets":9,"femaleToilets":6,"disabled":true,"diaperTable":false,"emergencyBell":false,"cctv":false,"managerTel":"0533571365","source":"public","category":"public"},{"id":"202434300000100103","name":"신대한LPG충전소","lat":35.868759,"lng":128.5547,"roadAddr":"대구광역시 서구 서대구로 121 (평리동)","jibunAddr":"대구광역시 서구 평리동  1403번지 1호","openHours":"05:00~23:00","maleToilets":5,"femaleToilets":2,"disabled":false,"diaperTable":false,"emergencyBell":false,"cctv":false,"managerTel":"0535662609","source":"public","category":"public"},{"id":"202434300000100146","name":"서구비원건강증진센터","lat":35.886885,"lng":128.558621,"roadAddr":"대구광역시 서구 서대구로 330 (비산동)","jibunAddr":"대구광역시 서구 비산동  1316번지","openHours":"(평일)09:00~18:00","maleToilets":10,"femaleToilets":10,"disabled":true,"diaperTable":false,"emergencyBell":true,"cctv":false,"managerTel":"0536633821","source":"public","category":"public"},{"id":"202434300000100067","name":"원대동 행정복지센터","lat":35.885404,"lng":128.573484,"roadAddr":"대구광역시 서구 달서로 257, 원대동행정복지센터 (원대동3가)","jibunAddr":"대구광역시 서구 원대동3가  1429번지 7호","openHours":"(평일)09:00~18:00","maleToilets":6,"femaleToilets":7,"disabled":true,"diaperTable":true,"emergencyBell":true,"cctv":false,"managerTel":"0536633317","source":"public","category":"public"},{"id":"202434300000100039","name":"이마트트레이더스 비산점","lat":35.889905,"lng":128.555962,"roadAddr":"대구광역시 서구 팔달로 54 (비산동)","jibunAddr":"대구광역시 서구 비산동  1610번지 3호","openHours":"10:00~23:00","maleToilets":5,"femaleToilets":3,"disabled":true,"diaperTable":true,"emergencyBell":true,"cctv":false,"managerTel":"0537141100","source":"public","category":"public"},{"id":"202434300000100081","name":"비산우체국","lat":35.876326,"lng":128.570893,"roadAddr":"대구광역시 서구 달서로 157 (비산동)","jibunAddr":"대구광역시 서구 비산동  497번지 3호","openHours":"(평일)09:00~18:00","maleToilets":2,"femaleToilets":1,"disabled":false,"diaperTable":false,"emergencyBell":false,"cctv":false,"managerTel":"0535580014","source":"public","category":"public"},{"id":"202434300000100075","name":"서구제일종합사회복지관","lat":35.885722,"lng":128.578884,"roadAddr":"대구광역시 서구 옥산로6길 9 (원대동3가)","jibunAddr":"대구광역시 서구 원대동3가  1120번지 1호","openHours":"(평일)09:00-20:00","maleToilets":19,"femaleToilets":14,"disabled":true,"diaperTable":true,"emergencyBell":true,"cctv":false,"managerTel":"0533538310","source":"public","category":"public"},{"id":"202434300000100060","name":"평리1동 행정복지센터","lat":35.875596,"lng":128.563262,"roadAddr":"대구광역시 서구 문화로 280, 평리1동 행정복지센터 (평리동)","jibunAddr":"대구광역시 서구 평리동  1044번지 1호","openHours":"(평일)09:00~18:00","maleToilets":9,"femaleToilets":6,"disabled":true,"diaperTable":false,"emergencyBell":false,"cctv":false,"managerTel":"0536633310","source":"public","category":"public"},{"id":"202434300000100073","name":"비원노인복지관","lat":35.881641,"lng":128.555717,"roadAddr":"대구광역시 서구 서대구로 268(비산동)","jibunAddr":"대구광역시 서구 비산동 840-21번지","openHours":"(평일)09:00~18:00+(토요일)09:00~13:00","maleToilets":6,"femaleToilets":9,"disabled":true,"diaperTable":false,"emergencyBell":true,"cctv":false,"managerTel":"0537109985","source":"public","category":"public"},{"id":"202434300000100040","name":"서구문화회관","lat":35.87279,"lng":128.545538,"roadAddr":"대구광역시 서구 당산로 403, 서구문화회관 (이현동)","jibunAddr":"대구광역시 서구 이현동  48번지 144호","openHours":"(평일)08:00~21:00+(주말)09:00~18:00","maleToilets":46,"femaleToilets":31,"disabled":true,"diaperTable":true,"emergencyBell":true,"cctv":false,"managerTel":"0536633083","source":"public","category":"public"},{"id":"202434300000100008","name":"경부선철로변화장실","lat":35.880587,"lng":128.552807,"roadAddr":"대구광역시 서구 북비산로37길 15-6","jibunAddr":"대구광역시 서구 평리동 286-17","openHours":"상시","maleToilets":1,"femaleToilets":0,"disabled":true,"diaperTable":false,"emergencyBell":true,"cctv":false,"managerTel":"0536632826","source":"public","category":"public"},{"id":"202434300000100093","name":"대구의료원 본관","lat":35.859919,"lng":128.541124,"roadAddr":"대구광역시 서구 평리로 157, 대구의료원 (중리동)","jibunAddr":"대구광역시 서구 중리동  1162번지","openHours":"(평일)06:00-24:00+(주말)09:00-18:00","maleToilets":16,"femaleToilets":14,"disabled":true,"diaperTable":true,"emergencyBell":true,"cctv":false,"managerTel":"0535609394","source":"public","category":"public"},{"id":"202434300000100090","name":"대구광역시선거관리위원회","lat":35.86522,"lng":128.549387,"roadAddr":"대구광역시 서구 국채보상로34길 46, 대구광역시선거관리위원회 (중리동)","jibunAddr":"대구광역시 서구 중리동 62번지12호","openHours":"(평일)09:00~18:00","maleToilets":15,"femaleToilets":15,"disabled":true,"diaperTable":false,"emergencyBell":false,"cctv":false,"managerTel":"0534221390","source":"public","category":"public"},{"id":"202434300000100160","name":"인동촌노인복지관","lat":35.879566,"lng":128.574312,"roadAddr":"대구광역시 서구 북비산로75길 6 (비산동)","jibunAddr":"대구광역시 서구 비산동 12-27","openHours":"(평일)09:00~18:00","maleToilets":8,"femaleToilets":13,"disabled":true,"diaperTable":false,"emergencyBell":true,"cctv":true,"managerTel":"0535618310","source":"public","category":"public"},{"id":"202434300000100113","name":"e편한주유소","lat":35.864188,"lng":128.557941,"roadAddr":"대구광역시 서구 평리로 317 (평리동)","jibunAddr":"대구광역시 서구 평리동  1359번지 2호","openHours":"07:10~22:30","maleToilets":4,"femaleToilets":2,"disabled":false,"diaperTable":false,"emergencyBell":false,"cctv":false,"managerTel":"0535569942","source":"public","category":"public"},{"id":"202434300000100136","name":"행복제1주유소","lat":35.882295,"lng":128.577212,"roadAddr":"대구광역시 서구 고성로 104 (원대동1가)","jibunAddr":"대구광역시 서구 원대동1가  208번지","openHours":"06:00~23:00","maleToilets":2,"femaleToilets":2,"disabled":false,"diaperTable":false,"emergencyBell":false,"cctv":false,"managerTel":"0533561951","source":"public","category":"public"},{"id":"202434300000100114","name":"㈜세아에너지 신라주유소","lat":35.867375,"lng":128.554966,"roadAddr":"대구광역시 서구 서대구로 105 (평리동)","jibunAddr":"대구광역시 서구 평리동  1404번지 3호","openHours":"07:00~23:00","maleToilets":2,"femaleToilets":1,"disabled":false,"diaperTable":false,"emergencyBell":false,"cctv":false,"managerTel":"0535615182","source":"public","category":"public"},{"id":"202434300000100023","name":"북구청역","lat":35.883983,"lng":128.581365,"roadAddr":"대구광역시 서구 원대로 71","jibunAddr":"대구광역시 서구 원대동2가  203번지 2호","openHours":"05:20~24:00","maleToilets":5,"femaleToilets":5,"disabled":true,"diaperTable":true,"emergencyBell":true,"cctv":false,"managerTel":"0536407521","source":"public","category":"public"},{"id":"202534300000100011","name":"청라중학교","lat":35.870685,"lng":128.573808,"roadAddr":"대구광역시 서구 국채보상로 384, 대구청라중학교.대구제일고등학교 (비산동)","jibunAddr":"대구광역시 서구 비산동 228 대구청라중학교.대구제일고등학교","openHours":"미개방","maleToilets":18,"femaleToilets":56,"disabled":true,"diaperTable":false,"emergencyBell":false,"cctv":false,"source":"public","category":"public"},{"id":"202434300000100074","name":"청소년수련관","lat":35.873623,"lng":128.545478,"roadAddr":"대구광역시 서구 문화로 122 (이현동)","jibunAddr":"대구광역시 서구 이현동  48번지 8호","openHours":"(평일)09:00~18:00","maleToilets":19,"femaleToilets":9,"disabled":true,"diaperTable":false,"emergencyBell":false,"cctv":false,"managerTel":"0535722451","source":"public","category":"public"},{"id":"202434300000100118","name":"평리주유소","lat":35.878352,"lng":128.554573,"roadAddr":"대구광역시 서구 서대구로 227 (평리동)","jibunAddr":"대구광역시 서구 평리동  530번지 9호","openHours":"07:00~23:00","maleToilets":0,"femaleToilets":0,"disabled":false,"diaperTable":false,"emergencyBell":false,"cctv":false,"managerTel":"0535531034","source":"public","category":"public"},{"id":"202434300000100109","name":"꽉주유소","lat":35.872307,"lng":128.565734,"roadAddr":"대구광역시 서구 국채보상로 317 (평리동)","jibunAddr":"대구광역시 서구 평리동  1052번지 9호","openHours":"07:00~22:10","maleToilets":0,"femaleToilets":0,"disabled":false,"diaperTable":false,"emergencyBell":false,"cctv":false,"managerTel":"0535655185","source":"public","category":"public"},{"id":"202434300000100058","name":"비산6동 행정복지센터","lat":35.876303,"lng":128.569094,"roadAddr":"대구광역시 서구 문화로67길 3, 비산6동 행정복지센터 (비산동)","jibunAddr":"대구광역시 서구 비산동  491번지 1호","openHours":"(평일)09:00~18:00","maleToilets":0,"femaleToilets":1,"disabled":true,"diaperTable":false,"emergencyBell":false,"cctv":false,"managerTel":"0536633308","source":"public","category":"public"},{"id":"202434300000100054","name":"비산1동 행정복지센터","lat":35.881171,"lng":128.56897,"roadAddr":"대구광역시 서구 북비산로65길 18, 비산1동 행정복지센터 (비산동)","jibunAddr":"대구광역시 서구 비산동  716번지 8호","openHours":"(평일)09:00~18:00","maleToilets":8,"femaleToilets":4,"disabled":false,"diaperTable":false,"emergencyBell":false,"cctv":false,"managerTel":"0536634242","source":"public","category":"public"},{"id":"202434300000100144","name":"비산도서관","lat":35.868576,"lng":128.573314,"roadAddr":"대구광역시 서구 달서로14길 13 (비산동)","jibunAddr":"대구광역시 서구 비산동  200번지 8호","openHours":"(평일)09:00~20:00","maleToilets":4,"femaleToilets":4,"disabled":true,"diaperTable":true,"emergencyBell":false,"cctv":false,"managerTel":"0536633721","source":"public","category":"public"},{"id":"202534300000100003","name":"비산 제3파크골프장","lat":35.891574,"lng":128.542551,"jibunAddr":"대구광역시 서구 비산동 1986","openHours":"상시","maleToilets":5,"femaleToilets":5,"disabled":false,"diaperTable":false,"emergencyBell":false,"cctv":false,"source":"public","category":"public"},{"id":"202434300000100057","name":"비산5동 행정복지센터","lat":35.886324,"lng":128.569642,"roadAddr":"대구광역시 서구 달서천로65길 17, 비산5동 행정복지센터 (비산동)","jibunAddr":"대구광역시 서구 비산동  1185번지 59호","openHours":"(평일)09:00~18:00","maleToilets":8,"femaleToilets":4,"disabled":false,"diaperTable":false,"emergencyBell":false,"cctv":false,"managerTel":"0536633307","source":"public","category":"public"},{"id":"202434300000100056","name":"비산4동 행정복지센터","lat":35.86984,"lng":128.574054,"roadAddr":"대구광역시 서구 국채보상로78길 29-4, 비산4동 행정복지센터 (비산동)","jibunAddr":"대구광역시 서구 비산동  213번지 18호","openHours":"(평일)09:00~18:00","maleToilets":9,"femaleToilets":9,"disabled":true,"diaperTable":false,"emergencyBell":false,"cctv":false,"managerTel":"0536633306","source":"public","category":"public"},{"id":"202434300000100026","name":"원고개시장","lat":35.880504,"lng":128.568259,"roadAddr":"대구광역시 서구 통학로46길 45-4 (비산동)","jibunAddr":"대구광역시 서구 비산동  719번지 11호","openHours":"상시","maleToilets":4,"femaleToilets":2,"disabled":false,"diaperTable":false,"emergencyBell":true,"cctv":true,"managerTel":"0536632654","source":"public","category":"public"},{"id":"202434300000100099","name":"GS칼텍스(주)달구벌대로주유소","lat":35.861031,"lng":128.566252,"roadAddr":"대구광역시 서구 달구벌대로 1845(내당동)","jibunAddr":"대구광역시 서구 내당동  62번지 1호","openHours":"07:50~22:00","maleToilets":0,"femaleToilets":0,"disabled":false,"diaperTable":false,"emergencyBell":false,"cctv":false,"managerTel":"0535565151","source":"public","category":"public"},{"id":"202434300000100010","name":"서대구완충녹지(3-3BL)","lat":35.869664,"lng":128.546301,"roadAddr":"대구광역시 서구 당산로77길 3","jibunAddr":"대구광역시 서구 이현동 산155","openHours":"상시","maleToilets":0,"femaleToilets":1,"disabled":true,"diaperTable":false,"emergencyBell":true,"cctv":false,"managerTel":"0536632826","source":"public","category":"public"},{"id":"202434300000100065","name":"평리6동 행정복지센터","lat":35.87646,"lng":128.550072,"roadAddr":"대구광역시 서구 서대구로41길 41 (평리동)","jibunAddr":"대구광역시 서구 평리동 628-1","openHours":"(평일)09:00~18:00","maleToilets":4,"femaleToilets":4,"disabled":true,"diaperTable":true,"emergencyBell":true,"cctv":false,"managerTel":"0536633315","source":"public","category":"public"},{"id":"202434300000100066","name":"상중이동 행정복지센터","lat":35.866976,"lng":128.546114,"roadAddr":"대구광역시 서구 당산로 343, 상중이동 행정복지센터 (중리동)","jibunAddr":"대구광역시 서구 중리동  1085번지 3호","openHours":"(평일)09:00~18:00","maleToilets":1,"femaleToilets":3,"disabled":true,"diaperTable":false,"emergencyBell":true,"cctv":false,"managerTel":"0536633316","source":"public","category":"public"},{"id":"202434300000100147","name":"비원도서관","lat":35.88609,"lng":128.569287,"roadAddr":"대구광역시 서구 달서천로61안길 10, 비원도서관 (비산동)","jibunAddr":"대구광역시 서구 비산동  1025번지 358호","openHours":"(평일)09:00~20:00","maleToilets":8,"femaleToilets":8,"disabled":true,"diaperTable":false,"emergencyBell":true,"cctv":false,"managerTel":"0536633871","source":"public","category":"public"},{"id":"202534300000100038","name":"뉴평리도서관","lat":35.868914,"lng":128.562289,"roadAddr":"대구광역시 서구 평리로73길 37 (평리동)","jibunAddr":"대구광역시 서구 평리동 1208-6","openHours":"평일 09:00-20:00 + 주말 09:00-17:00, 월휴무","maleToilets":8,"femaleToilets":10,"disabled":true,"diaperTable":false,"emergencyBell":false,"cctv":false,"source":"public","category":"public"},{"id":"202434300000100145","name":"서부시장 주민지원센터","lat":35.874017,"lng":128.571771,"roadAddr":"대구광역시 서구 달서로 28길 6-21(비산동)","jibunAddr":"대구광역시 서구 비산동  434번지 192호","openHours":"00:00~23:50","maleToilets":9,"femaleToilets":3,"disabled":true,"diaperTable":false,"emergencyBell":true,"cctv":true,"managerTel":"0536632645","source":"public","category":"public"},{"id":"202434300000100050","name":"내당1동 행정복지센터","lat":35.860638,"lng":128.560729,"roadAddr":"대구광역시 서구 서대구로4길 35, 내당1동 행정복지센터 (내당동)","jibunAddr":"대구광역시 서구 내당동  214번지 33호","openHours":"(평일)09:00-18:00","maleToilets":3,"femaleToilets":7,"disabled":true,"diaperTable":true,"emergencyBell":true,"cctv":false,"managerTel":"0536633301","source":"public","category":"public"},{"id":"202434300000100091","name":"한국염색기술연구소","lat":35.881988,"lng":128.544181,"roadAddr":"대구광역시 서구 달서천로 92, 한국염색기술연구소 (평리동)","jibunAddr":"대구광역시 서구 평리동  404번지 7호","openHours":"(평일)09:00~18:00","maleToilets":71,"femaleToilets":23,"disabled":true,"diaperTable":false,"emergencyBell":false,"cctv":false,"managerTel":"0533503700","source":"public","category":"public"},{"id":"202434300000100105","name":"화성제일주유소","lat":35.872448,"lng":128.569937,"roadAddr":"대구광역시 서구 국채보상로 355-1 (비산동)","jibunAddr":"대구광역시 서구 비산동  372번지 1호","openHours":"08:00~22:00","maleToilets":0,"femaleToilets":0,"disabled":false,"diaperTable":false,"emergencyBell":false,"cctv":false,"managerTel":"0535235100","source":"public","category":"public"},{"id":"202434300000100014","name":"원대동 제일공원","lat":35.883247,"lng":128.577679,"roadAddr":"대구광역시 서구 원대로13길 29 (원대동3가)","jibunAddr":"대구광역시 서구 원대동3가  1222번지 22호","openHours":"상시","maleToilets":5,"femaleToilets":2,"disabled":false,"diaperTable":false,"emergencyBell":true,"cctv":false,"managerTel":"0536632826","source":"public","category":"public"},{"id":"202434300000100020","name":"내당역","lat":35.860177,"lng":128.564743,"roadAddr":"대구광역시 서구 달구벌대로 지하1827","jibunAddr":"대구광역시 서구 내당동 1290","openHours":"05:20~24:00","maleToilets":8,"femaleToilets":7,"disabled":true,"diaperTable":true,"emergencyBell":true,"cctv":false,"managerTel":"0536566038","source":"public","category":"public"},{"id":"202434300000100100","name":"태화주유소","lat":35.862482,"lng":128.551868,"roadAddr":"대구광역시 서구 평리로 260 (내당동)","jibunAddr":"대구광역시 서구 내당동  300번지 4호","openHours":"07:30~22:30","maleToilets":3,"femaleToilets":1,"disabled":false,"diaperTable":false,"emergencyBell":false,"cctv":false,"managerTel":"0535661778","source":"public","category":"public"},{"id":"202434300000100047","name":"서부도서관","lat":35.872436,"lng":128.557704,"roadAddr":"대구광역시 서구 국채보상로49길 12, 서부도서관 (평리동)","jibunAddr":"대구광역시 서구 평리동  1230번지 1호","openHours":"07:00~22:00","maleToilets":27,"femaleToilets":17,"disabled":true,"diaperTable":false,"emergencyBell":true,"cctv":false,"managerTel":"0532312400","source":"public","category":"public"},{"id":"202434300000100022","name":"원대역","lat":35.887782,"lng":128.574392,"roadAddr":"대구광역시 서구 팔달로 224-2","jibunAddr":"대구광역시 서구 원대동3가  1317번지 2호","openHours":"05:20~24:00","maleToilets":5,"femaleToilets":5,"disabled":true,"diaperTable":true,"emergencyBell":true,"cctv":false,"managerTel":"0536407521","source":"public","category":"public"},{"id":"202434300000100078","name":"서부경찰서","lat":35.871828,"lng":128.558455,"roadAddr":"대구광역시 서구 국채보상로 249, 대구서부경찰서 (평리동)","jibunAddr":"대구광역시 서구 평리동  1230번지 8호","openHours":"00:00~24:00","maleToilets":41,"femaleToilets":33,"disabled":true,"diaperTable":true,"emergencyBell":true,"cctv":false,"managerTel":"0536083321","source":"public","category":"public"},{"id":"202434300000100082","name":"비산7동우체국","lat":35.88838,"lng":128.560655,"roadAddr":"대구광역시 서구 서대구로 358 (비산동)","jibunAddr":"대구광역시 서구 비산동  1254번지 1호","openHours":"(평일)09:00~18:00","maleToilets":2,"femaleToilets":1,"disabled":false,"diaperTable":false,"emergencyBell":false,"cctv":false,"managerTel":"0533540100","source":"public","category":"public"},{"id":"202434300000100098","name":"한국전력공사 서대구지사","lat":35.869837,"lng":128.570543,"roadAddr":"대구광역시 서구 달서로 85, 한국전력서대구점 (비산동)","jibunAddr":"대구광역시 서구 비산동  312번지 7호","openHours":"(평일)09:00~18:00","maleToilets":38,"femaleToilets":14,"disabled":false,"diaperTable":false,"emergencyBell":false,"cctv":false,"managerTel":"0535502216","source":"public","category":"public"},{"id":"202434300000100063","name":"평리4동 행정복지센터","lat":35.867194,"lng":128.556432,"roadAddr":"대구광역시 서구 국채보상로46길 37-3, 평리4동 행정복지센터 (평리동)","jibunAddr":"대구광역시 서구 평리동  1346번지 3호","openHours":"(평일)09:00~18:00","maleToilets":2,"femaleToilets":2,"disabled":true,"diaperTable":false,"emergencyBell":false,"cctv":false,"managerTel":"0536633313","source":"public","category":"public"},{"id":"202434300000100085","name":"비산119안전센터","lat":35.880454,"lng":128.572018,"roadAddr":"대구광역시 서구 달서로 206, 비산119안전센터 (비산동)","jibunAddr":"대구광역시 서구 비산동  57번지 12호","openHours":"00:00~24:00","maleToilets":0,"femaleToilets":0,"disabled":false,"diaperTable":false,"emergencyBell":false,"cctv":false,"managerTel":"0533204496","source":"public","category":"public"},{"id":"202434500000102370","name":"강병원 (의료법인 강의료재단)","lat":35.893699,"lng":128.569913,"roadAddr":"대구광역시 북구 노원로 70","jibunAddr":"대구광역시 북구 노원동3가 1013","openHours":"09:00~18:00","maleToilets":39,"femaleToilets":20,"disabled":true,"diaperTable":false,"emergencyBell":false,"cctv":false,"managerTel":"0533505000","source":"public","category":"public"},{"id":"202434500000102225","name":"팔달동 524-32번지 하천 인근 화장실","lat":35.897205,"lng":128.548641,"jibunAddr":"대구광역시 북구 팔달동 524-32","openHours":"상시","maleToilets":2,"femaleToilets":2,"disabled":true,"diaperTable":false,"emergencyBell":true,"cctv":false,"managerTel":"0536652615","source":"public","category":"public"},{"id":"202434500000102420","name":"대구노원동우체국","lat":35.88855,"lng":128.571396,"roadAddr":"대구광역시 북구 팔달로 195","jibunAddr":"대구광역시 북구 노원동2가 372-4","openHours":"(평일)09:00∼18:00","maleToilets":1,"femaleToilets":0,"disabled":true,"diaperTable":false,"emergencyBell":false,"cctv":true,"managerTel":"0533574122","source":"public","category":"public"},{"id":"202434500000102440","name":"팔달시장역(지상철3호선)","lat":35.88884,"lng":128.567891,"roadAddr":"대구광역시 북구 팔달로 163-1","jibunAddr":"대구광역시 북구 노원동3가 784-1","openHours":"05:30~24:00","maleToilets":4,"femaleToilets":6,"disabled":true,"diaperTable":true,"emergencyBell":true,"cctv":true,"managerTel":"0536407521","source":"public","category":"public"},{"id":"202434500000102197","name":"노원동 행정복지센터","lat":35.890148,"lng":128.576226,"roadAddr":"대구광역시 북구 노원로10길 166","jibunAddr":"대구광역시 북구 노원동2가 211","openHours":"(평일)09:00-18:00","maleToilets":3,"femaleToilets":2,"disabled":true,"diaperTable":false,"emergencyBell":false,"cctv":false,"managerTel":"0536653505","source":"public","category":"public"},{"id":"202434500000102287","name":"개인택시제5충전소","lat":35.890868,"lng":128.55809,"roadAddr":"대구광역시 북구 팔달로 67","jibunAddr":"대구광역시 북구 노원동3가 636","openHours":"09:00~18:00","maleToilets":4,"femaleToilets":1,"disabled":false,"diaperTable":false,"emergencyBell":false,"cctv":false,"managerTel":"0533577710","source":"public","category":"public"},{"id":"202434500000102422","name":"대구고성동우체국","lat":35.882715,"lng":128.58182,"roadAddr":"대구광역시 북구 원대로 60","jibunAddr":"대구광역시 북구 고성동3가 138","openHours":"(평일)09:00∼18:00","maleToilets":7,"femaleToilets":3,"disabled":true,"diaperTable":false,"emergencyBell":false,"cctv":false,"managerTel":"0533572241","source":"public","category":"public"},{"id":"202534500000100008","name":"금호강 22번","lat":35.901825,"lng":128.567062,"roadAddr":"대구광역시 북구 노곡동 983-2","openHours":"상시","maleToilets":4,"femaleToilets":5,"disabled":false,"diaperTable":false,"emergencyBell":false,"cctv":false,"source":"public","category":"public"},{"id":"202434500000102345","name":"대구주유소","lat":35.89564,"lng":128.571883,"roadAddr":"대구광역시 북구 노원로 97","jibunAddr":"대구광역시 북구 노원동3가 182-12","openHours":"09:00~18:00","maleToilets":2,"femaleToilets":1,"disabled":false,"diaperTable":false,"emergencyBell":false,"cctv":false,"managerTel":"0533565151","source":"public","category":"public"},{"id":"202434500000102439","name":"만평역(지상철3호선)","lat":35.889841,"lng":128.561073,"roadAddr":"대구광역시 북구 팔달로 105","jibunAddr":"대구광역시 북구 노원동3가 252-3","openHours":"05:30~24:00","maleToilets":4,"femaleToilets":6,"disabled":true,"diaperTable":true,"emergencyBell":true,"cctv":true,"managerTel":"0536407431","source":"public","category":"public"},{"id":"202434500000102278","name":"노원체육공원 축구장(신규)","lat":35.899403,"lng":128.56365,"jibunAddr":"대구광역시 북구 노곡동 804-1","openHours":"상시","maleToilets":2,"femaleToilets":1,"disabled":false,"diaperTable":false,"emergencyBell":true,"cctv":false,"managerTel":"0536653936","source":"public","category":"public"},{"id":"202434500000102306","name":"GS칼텍스 흥구석유 원대주유소","lat":35.890868,"lng":128.55809,"roadAddr":"대구광역시 북구 팔달로 67","jibunAddr":"대구광역시 북구 노원동3가 636","openHours":"09:00~18:00","maleToilets":3,"femaleToilets":1,"disabled":false,"diaperTable":false,"emergencyBell":false,"cctv":false,"managerTel":"0533578220","source":"public","category":"public"},{"id":"202434500000102405","name":"북대구세무서","lat":35.88788,"lng":128.583457,"roadAddr":"대구광역시 북구 원대로 118","jibunAddr":"대구광역시 북구 침산동 402-1","openHours":"09:00~18:00","maleToilets":24,"femaleToilets":12,"disabled":true,"diaperTable":false,"emergencyBell":false,"cctv":false,"managerTel":"0533504200","source":"public","category":"public"},{"id":"202434500000102218","name":"대구광역시 여성회관","lat":35.894306,"lng":128.55505,"roadAddr":"대구광역시 북구 팔달로1길 26","jibunAddr":"대구광역시 북구 노원동3가 483","openHours":"09:00~18:00","maleToilets":4,"femaleToilets":15,"disabled":true,"diaperTable":false,"emergencyBell":false,"cctv":false,"managerTel":"0538037194","source":"public","category":"public"},{"id":"202434500000102346","name":"(주)진양에너지","lat":35.890766,"lng":128.563535,"roadAddr":"대구광역시 북구 노원로 3","jibunAddr":"대구광역시 북구 노원동3가 722-4","openHours":"09:00~18:00","maleToilets":2,"femaleToilets":1,"disabled":false,"diaperTable":false,"emergencyBell":false,"cctv":false,"managerTel":"0533514500","source":"public","category":"public"},{"id":"202434500000102412","name":"대구지방국세청 정보화센터","lat":35.888308,"lng":128.583538,"roadAddr":"대구광역시 북구 원대로 124","jibunAddr":"대구광역시 북구 침산동 402-3","openHours":"09:00~18:00","maleToilets":11,"femaleToilets":12,"disabled":false,"diaperTable":false,"emergencyBell":false,"cctv":false,"managerTel":"0533504200","source":"public","category":"public"},{"id":"202434500000102351","name":"(주)영신에너지","lat":35.898553,"lng":128.57838,"roadAddr":"대구광역시 북구 노원로 164","jibunAddr":"대구광역시 북구 노원동3가 1220","openHours":"09:00~18:00","maleToilets":1,"femaleToilets":0,"disabled":false,"diaperTable":false,"emergencyBell":false,"cctv":false,"managerTel":"0533578714","source":"public","category":"public"},{"id":"202534500000100009","name":"금호강 23번","lat":35.900749,"lng":128.564454,"roadAddr":"대구광역시 북구 노곡동 876","openHours":"상시","maleToilets":4,"femaleToilets":5,"disabled":false,"diaperTable":false,"emergencyBell":false,"cctv":false,"source":"public","category":"public"},{"id":"202434500000102307","name":"팔달41주유소","lat":35.891235,"lng":128.554972,"roadAddr":"대구광역시 북구 팔달로 41","jibunAddr":"대구광역시 북구 노원동3가 600","openHours":"09:00~18:00","maleToilets":2,"femaleToilets":0,"disabled":false,"diaperTable":false,"emergencyBell":true,"cctv":false,"managerTel":"0532144800","source":"public","category":"public"},{"id":"202434500000102319","name":"오일월드주유소","lat":35.898786,"lng":128.547696,"roadAddr":"대구광역시 북구 칠곡중앙대로 25","jibunAddr":"대구광역시 북구 팔달동 524-19","openHours":"09:00~18:00","maleToilets":2,"femaleToilets":1,"disabled":false,"diaperTable":false,"emergencyBell":false,"cctv":false,"managerTel":"0533250051","source":"public","category":"public"},{"id":"202434500000102193","name":"고성동 행정복지센터","lat":35.881846,"lng":128.583508,"roadAddr":"대구광역시 북구 고성로31길 21","jibunAddr":"대구광역시 북구 고성동3가 6-270","openHours":"(평일)09:00~18:00","maleToilets":7,"femaleToilets":3,"disabled":true,"diaperTable":true,"emergencyBell":true,"cctv":false,"managerTel":"0536653404","source":"public","category":"public"},{"id":"202434500000102441","name":"팔달공영주차장","lat":35.890685,"lng":128.565973,"roadAddr":"대구광역시 북구 팔달로33길 59","jibunAddr":"대구광역시 북구 노원동3가 750","openHours":"09:00~18:00","maleToilets":4,"femaleToilets":4,"disabled":true,"diaperTable":false,"emergencyBell":true,"cctv":false,"source":"public","category":"public"},{"id":"202434500000102347","name":"산동주유소","lat":35.891555,"lng":128.566052,"roadAddr":"대구광역시 북구 노원로 28","jibunAddr":"대구광역시 북구 노원동3가 883","openHours":"09:00~18:00","maleToilets":2,"femaleToilets":0,"disabled":false,"diaperTable":false,"emergencyBell":false,"cctv":false,"managerTel":"0533582381","source":"public","category":"public"},{"id":"202434500000102350","name":"에코주유소","lat":35.899622,"lng":128.580956,"roadAddr":"대구광역시 북구 노원로 190","jibunAddr":"대구광역시 북구 침산동 1025-11","openHours":"09:00~18:00","maleToilets":2,"femaleToilets":2,"disabled":false,"diaperTable":false,"emergencyBell":false,"cctv":false,"managerTel":"0533530505","source":"public","category":"public"},{"id":"202434500000102443","name":"서대구고속버스터미널","lat":35.890244,"lng":128.561424,"roadAddr":"대구광역시 북구 팔달로 103","jibunAddr":"대구광역시 북구 노원동3가 685","openHours":"상시","maleToilets":5,"femaleToilets":4,"disabled":true,"diaperTable":false,"emergencyBell":false,"cctv":true,"managerTel":"0533580354","source":"public","category":"public"},{"id":"202434500000102190","name":"대구광역시 북구청","lat":35.885689,"lng":128.582848,"roadAddr":"대구광역시 북구 옥산로 65","jibunAddr":"대구광역시 북구 침산동 447-16","openHours":"09:00~18:00","maleToilets":76,"femaleToilets":70,"disabled":true,"diaperTable":true,"emergencyBell":true,"cctv":true,"managerTel":"0536654475","source":"public","category":"public"},{"id":"202434500000102308","name":"㈜아스트로주유소","lat":35.888247,"lng":128.573208,"roadAddr":"대구광역시 북구 팔달로 215","jibunAddr":"대구광역시 북구 노원동2가 282-1","openHours":"09:00~18:00","maleToilets":2,"femaleToilets":1,"disabled":false,"diaperTable":false,"emergencyBell":false,"cctv":false,"managerTel":"0533518500","source":"public","category":"public"},{"id":"202434500000102312","name":"공명주유소","lat":35.889303,"lng":128.580699,"roadAddr":"대구광역시 북구 침산남로 43","jibunAddr":"대구광역시 북구 노원동1가 3-10","openHours":"09:00~18:00","maleToilets":3,"femaleToilets":1,"disabled":false,"diaperTable":false,"emergencyBell":false,"cctv":false,"managerTel":"0533410051","source":"public","category":"public"},{"id":"202434500000102248","name":"해바라기어린이공원","lat":35.888978,"lng":128.574008,"roadAddr":"대구광역시 북구 오봉로1길 41","jibunAddr":"대구광역시 북구 노원동2가 267","openHours":"상시","maleToilets":2,"femaleToilets":2,"disabled":false,"diaperTable":false,"emergencyBell":true,"cctv":false,"managerTel":"0536652865","source":"public","category":"public"},{"id":"202434500000102408","name":"KT북대구 고객서비스센터","lat":35.881869,"lng":128.581452,"roadAddr":"대구광역시 북구 고성로 141","jibunAddr":"대구광역시 북구 고성동3가 103","openHours":"09:00~18:00","maleToilets":2,"femaleToilets":1,"disabled":true,"diaperTable":false,"emergencyBell":false,"cctv":false,"source":"public","category":"public"},{"id":"202434500000102429","name":"팔달역(지상철3호선)","lat":35.897823,"lng":128.54672,"roadAddr":"대구광역시 북구 매천로2길 43","jibunAddr":"대구광역시 북구 팔달동 76-3","openHours":"05:30~24:00","maleToilets":4,"femaleToilets":5,"disabled":true,"diaperTable":true,"emergencyBell":true,"cctv":true,"managerTel":"0536407431","source":"public","category":"public"},{"id":"202434500000102349","name":"강남고속주유소","lat":35.900013,"lng":128.583689,"roadAddr":"대구광역시 북구 노원로 216","jibunAddr":"대구광역시 북구 침산동 1026-9","openHours":"09:00~18:00","maleToilets":2,"femaleToilets":1,"disabled":false,"diaperTable":false,"emergencyBell":false,"cctv":false,"managerTel":"0533556115","source":"public","category":"public"},{"id":"202434500000102379","name":"팔달신시장 고객쉼터(남편화장실)","lat":35.889512,"lng":128.566832,"roadAddr":"대구광역시 북구 팔달로33길 17-27","jibunAddr":"대구광역시 북구 노원동3가 764-4","openHours":"09:00~18:00","maleToilets":6,"femaleToilets":5,"disabled":true,"diaperTable":true,"emergencyBell":false,"cctv":false,"managerTel":"0533574953","source":"public","category":"public"},{"id":"202434500000102212","name":"침산1동 행정복지센터","lat":35.890318,"lng":128.581352,"roadAddr":"대구광역시 북구 침산남로13길 16","jibunAddr":"대구광역시 북구 침산동 1660-4","openHours":"09:00~18:00","maleToilets":1,"femaleToilets":1,"disabled":true,"diaperTable":false,"emergencyBell":false,"cctv":false,"managerTel":"0536653303","source":"public","category":"public"},{"id":"202534500000100007","name":"금호강 21번","lat":35.902697,"lng":128.564049,"roadAddr":"대구광역시 북구 노곡동 738","openHours":"상시","maleToilets":3,"femaleToilets":4,"disabled":true,"diaperTable":false,"emergencyBell":true,"cctv":false,"source":"public","category":"public"},{"id":"202434500000102426","name":"대구북부경찰서","lat":35.886451,"lng":128.582647,"roadAddr":"대구광역시 북구 원대로 100","jibunAddr":"대구광역시 북구 침산동 447-15","openHours":"상시","maleToilets":29,"femaleToilets":13,"disabled":true,"diaperTable":true,"emergencyBell":true,"cctv":false,"managerTel":"0533805230","source":"public","category":"public"},{"id":"202434500000102249","name":"팔달어린이공원","lat":35.892839,"lng":128.569793,"jibunAddr":"대구광역시 북구 노원동3가 1019","openHours":"상시","maleToilets":1,"femaleToilets":1,"disabled":false,"diaperTable":false,"emergencyBell":true,"cctv":false,"managerTel":"0536652865","source":"public","category":"public"},{"id":"202434500000102427","name":"(재)한국안광학산업진흥원","lat":35.899373,"lng":128.578588,"roadAddr":"대구광역시 북구 노원로 169","jibunAddr":"대구광역시 북구 노원동3가 1205-1","openHours":"09:00~18:00","maleToilets":5,"femaleToilets":3,"disabled":true,"diaperTable":false,"emergencyBell":false,"cctv":false,"managerTel":"0533507800","source":"public","category":"public"},{"id":"202434500000102410","name":"한국전력공사 대구지역본부","lat":35.887177,"lng":128.58315,"roadAddr":"대구광역시 북구 원대로 110","jibunAddr":"대구광역시 북구 침산동 447-2","openHours":"09:00~18:00","maleToilets":35,"femaleToilets":12,"disabled":false,"diaperTable":false,"emergencyBell":false,"cctv":false,"managerTel":"0533502260","source":"public","category":"public"},{"id":"202534700000100647","name":"반고개역","lat":35.862199,"lng":128.572555,"roadAddr":"대구광역시 달서구 달구벌대로 지하 1900","openHours":"05:20~00:00","maleToilets":11,"femaleToilets":11,"disabled":true,"diaperTable":true,"emergencyBell":true,"cctv":false,"managerTel":"0536551196","source":"public","category":"public"},{"id":"202534700000100580","name":"서대구시장","lat":35.860657,"lng":128.571233,"roadAddr":"대구광역시 달서구 명덕로2길 30","openHours":"상시","maleToilets":2,"femaleToilets":0,"disabled":false,"diaperTable":false,"emergencyBell":true,"cctv":false,"managerTel":"0536269981","source":"public","category":"public"}]