[{"id":"202434300000100004","name":"가르뱅이공원","lat":35.88044,"lng":128.524719,"roadAddr":"대구광역시 서구 가르뱅이로20길 36","jibunAddr":"대구광역시 서구 상리동 154","openHours":"상시","maleToilets":1,"femaleToilets":2,"disabled":true,"diaperTable":false,"emergencyBell":true,"cctv":false,"managerTel":"0536632826","source":"public","category":"public"},{"id":"202434300000100002","name":"상리공원","lat":35.861795,"lng":128.531218,"roadAddr":"대구광역시 서구 장산로32길 77","jibunAddr":"대구광역시 서구 중리동 1180-1","openHours":"상시","maleToilets":8,"femaleToilets":5,"disabled":true,"diaperTable":false,"emergencyBell":true,"cctv":false,"managerTel":"0536632826","source":"public","category":"public"},{"id":"202434300000100132","name":"가나주유소","lat":35.864436,"lng":128.537867,"roadAddr":"대구광역시 서구 와룡로 358 (중리동)","jibunAddr":"대구광역시 서구 중리동  1119번지 2호","openHours":"정시","maleToilets":3,"femaleToilets":2,"disabled":false,"diaperTable":false,"emergencyBell":false,"cctv":false,"managerTel":"0535655770","source":"public","category":"public"},{"id":"202434300000100127","name":"조광주유소","lat":35.878247,"lng":128.536962,"roadAddr":"대구광역시 서구 북비산로 36 (이현동)","jibunAddr":"대구광역시 서구 이현동  42번지 331호","openHours":"정시","maleToilets":2,"femaleToilets":1,"disabled":false,"diaperTable":false,"emergencyBell":false,"cctv":false,"managerTel":"0535592225","source":"public","category":"public"},{"id":"202434300000100102","name":"S-OIL 화성가스충전소","lat":35.863484,"lng":128.537879,"roadAddr":"대구광역시 서구 와룡로 346 (중리동)","jibunAddr":"대구광역시 서구 중리동  1120번지 1호","openHours":"정시","maleToilets":4,"femaleToilets":1,"disabled":false,"diaperTable":false,"emergencyBell":false,"cctv":false,"managerTel":"0535650221","source":"public","category":"public"},{"id":"202434300000100044","name":"상리테니스장 다목적운동시설","lat":35.862535,"lng":128.533743,"roadAddr":"대구광역시 서구 평리로17길 41 (중리동)","jibunAddr":"대구광역시 서구 중리동 산 198-10","openHours":"상시","maleToilets":4,"femaleToilets":2,"disabled":true,"diaperTable":false,"emergencyBell":true,"cctv":false,"managerTel":"0536632171","source":"public","category":"public"},{"id":"202434300000100115","name":"미리내주유소","lat":35.865701,"lng":128.527237,"roadAddr":"대구광역시 서구 새방로 101 (상리동)","jibunAddr":"대구광역시 서구 상리동 640","openHours":"정시","maleToilets":3,"femaleToilets":2,"disabled":false,"diaperTable":false,"emergencyBell":true,"cctv":true,"managerTel":"0535255185","source":"public","category":"public"},{"id":"202434300000100128","name":"새방골주유소","lat":35.868813,"lng":128.535851,"roadAddr":"대구광역시 서구 국채보상로 43 (이현동)","jibunAddr":"대구광역시 서구 이현동  42번지 505호","openHours":"정시","maleToilets":4,"femaleToilets":2,"disabled":false,"diaperTable":false,"emergencyBell":false,"cctv":false,"managerTel":"0535735511","source":"public","category":"public"},{"id":"202434300000100134","name":"서대구터미널주유소","lat":35.878784,"lng":128.538347,"roadAddr":"대구광역시 서구 북비산로 49 (이현동)","jibunAddr":"대구광역시 서구 이현동  286번지 1호","openHours":"정시","maleToilets":2,"femaleToilets":1,"disabled":false,"diaperTable":false,"emergencyBell":false,"cctv":false,"managerTel":"0535275181","source":"public","category":"public"},{"id":"202434300000100126","name":"서대구IC주유소","lat":35.878192,"lng":128.538109,"roadAddr":"대구광역시 서구 북비산로 48 (이현동)","jibunAddr":"대구광역시 서구 이현동  42번지 34호","openHours":"정시","maleToilets":4,"femaleToilets":2,"disabled":false,"diaperTable":false,"emergencyBell":false,"cctv":false,"managerTel":"0535660009","source":"public","category":"public"},{"id":"202434300000100045","name":"비산(금호강변) 제1파크골프장","lat":35.88944,"lng":128.539607,"roadAddr":"대구광역시 서구 금호강자전거길 1762","jibunAddr":"대구광역시 서구 중리동 2920번지","openHours":"상시","maleToilets":4,"femaleToilets":4,"disabled":false,"diaperTable":false,"emergencyBell":true,"cctv":false,"managerTel":"0538038334","source":"public","category":"public"},{"id":"202434300000100135","name":"서대구주유소","lat":35.878876,"lng":128.537351,"roadAddr":"대구광역시 서구 북비산로 41 (이현동)","jibunAddr":"대구광역시 서구 이현동  288번지 2호","openHours":"정시","maleToilets":3,"femaleToilets":1,"disabled":false,"diaperTable":false,"emergencyBell":false,"cctv":false,"managerTel":"0535257277","source":"public","category":"public"},{"id":"202434300000100046","name":"비산(금호강변) 제2파크골프장","lat":35.888811,"lng":128.538314,"roadAddr":"대구광역시 서구 금호강자전거길 1752","jibunAddr":"대구광역시 서구 비산동 2920번지","openHours":"상시","maleToilets":4,"femaleToilets":4,"disabled":false,"diaperTable":false,"emergencyBell":true,"cctv":false,"managerTel":"0536632171","source":"public","category":"public"},{"id":"202534300000100002","name":"상리공원 남편 주차장","lat":35.86181,"lng":128.528944,"jibunAddr":"대구광역시 서구 중리동 1183-1","openHours":"상시","maleToilets":1,"femaleToilets":2,"disabled":true,"diaperTable":false,"emergencyBell":false,"cctv":false,"source":"public","category":"public"},{"id":"202434300000100129","name":"㈜기분좋은주유소","lat":35.870137,"lng":128.538331,"roadAddr":"대구광역시 서구 와룡로 420 (이현동)","jibunAddr":"대구광역시 서구 이현동  44번지 106호","openHours":"정시","maleToilets":0,"femaleToilets":0,"disabled":false,"diaperTable":false,"emergencyBell":false,"cctv":false,"managerTel":"0535632222","source":"public","category":"public"},{"id":"202434500000102255","name":"한강근린공원","lat":35.899182,"lng":128.513592,"jibunAddr":"대구광역시 북구 사수동 811","openHours":"상시","maleToilets":5,"femaleToilets":6,"disabled":true,"diaperTable":true,"emergencyBell":true,"cctv":false,"managerTel":"0536652865","source":"public","category":"public"},{"id":"202434500000102333","name":"천일에너지 천일주유소","lat":35.895371,"lng":128.525634,"roadAddr":"대구광역시 북구 사수로 436","jibunAddr":"대구광역시 북구 금호동 451-4","openHours":"정시","maleToilets":2,"femaleToilets":2,"disabled":false,"diaperTable":false,"emergencyBell":false,"cctv":true,"managerTel":"0533127667","source":"public","category":"public"},{"id":"202434500000102291","name":"남경LPG충전소","lat":35.897504,"lng":128.525195,"roadAddr":"대구광역시 북구 사수로 406","jibunAddr":"대구광역시 북구 금호동 219","openHours":"정시","maleToilets":3,"femaleToilets":1,"disabled":false,"diaperTable":false,"emergencyBell":false,"cctv":false,"managerTel":"0533110311","source":"public","category":"public"},{"id":"202434500000102360","name":"천지주유소","lat":35.896335,"lng":128.521514,"roadAddr":"대구광역시 북구 사수로 369","jibunAddr":"대구광역시 북구 금호동 727","openHours":"정시","maleToilets":0,"femaleToilets":2,"disabled":false,"diaperTable":false,"emergencyBell":false,"cctv":true,"source":"public","category":"public"},{"id":"202434500000102330","name":"대성산업㈜대성화물터미널2주유소","lat":35.886256,"lng":128.530265,"roadAddr":"대구광역시 북구 서재로 540","jibunAddr":"대구광역시 북구 금호동 609-5","openHours":"정시","maleToilets":2,"femaleToilets":1,"disabled":false,"diaperTable":false,"emergencyBell":false,"cctv":false,"managerTel":"0533145158","source":"public","category":"public"},{"id":"202434500000102279","name":"금호 유수지 족구장(신규)","lat":35.896204,"lng":128.51368,"jibunAddr":"대구광역시 북구 사수동 898","openHours":"상시","maleToilets":3,"femaleToilets":3,"disabled":false,"diaperTable":false,"emergencyBell":true,"cctv":false,"managerTel":"0536653936","source":"public","category":"public"},{"id":"202434500000102332","name":"화성제2주유소","lat":35.894753,"lng":128.533975,"roadAddr":"대구광역시 북구 사수로 523","jibunAddr":"대구광역시 북구 팔달동 413","openHours":"정시","maleToilets":2,"femaleToilets":2,"disabled":false,"diaperTable":false,"emergencyBell":false,"cctv":false,"managerTel":"0533235155","source":"public","category":"public"},{"id":"202434500000102247","name":"금호근린공원","lat":35.895393,"lng":128.520475,"roadAddr":"대구광역시 북구 사수로 351","jibunAddr":"대구광역시 북구 금호동 815","openHours":"상시","maleToilets":8,"femaleToilets":6,"disabled":true,"diaperTable":true,"emergencyBell":true,"cctv":false,"managerTel":"0536652865","source":"public","category":"public"},{"id":"202434500000102285","name":"㈜금호지구충전소","lat":35.895523,"lng":128.525607,"roadAddr":"대구광역시 북구 사수로 432","jibunAddr":"대구광역시 북구 금호동 451-1","openHours":"정시","maleToilets":2,"femaleToilets":2,"disabled":false,"diaperTable":false,"emergencyBell":false,"cctv":true,"managerTel":"0533122662","source":"public","category":"public"},{"id":"202534700000100082","name":"성서국민체육센터","lat":35.861564,"lng":128.505853,"roadAddr":"대구광역시 달서구 선원로 133","jibunAddr":"대구광역시 달서구 이곡동 1325","openHours":"정시","maleToilets":10,"femaleToilets":8,"disabled":true,"diaperTable":false,"emergencyBell":true,"cctv":false,"managerTel":"0535557330","source":"public","category":"public"},{"id":"202534700000100122","name":"성서노인종합복지관","lat":35.859509,"lng":128.514923,"roadAddr":"대구광역시 달서구 선원로 203","jibunAddr":"대구광역시 달서구 용산동 505-4","openHours":"정시","maleToilets":20,"femaleToilets":20,"disabled":true,"diaperTable":false,"emergencyBell":true,"cctv":false,"managerTel":"0537218081","source":"public","category":"public"},{"id":"202534700000100020","name":"에버그린주유소","lat":35.865108,"lng":128.526277,"roadAddr":"대구광역시 달서구 새방로 87","openHours":"정시","maleToilets":3,"femaleToilets":1,"disabled":false,"diaperTable":false,"emergencyBell":false,"cctv":false,"managerTel":"0535735656","source":"public","category":"public"},{"id":"202534700000100084","name":"성서운동장","lat":35.861564,"lng":128.505853,"roadAddr":"대구광역시 달서구 선원로 133","jibunAddr":"대구광역시 달서구 이곡동 1325","openHours":"상시","maleToilets":8,"femaleToilets":8,"disabled":true,"diaperTable":true,"emergencyBell":true,"cctv":false,"managerTel":"0535557330","source":"public","category":"public"},{"id":"202534700000100590","name":"선원공원","lat":35.859509,"lng":128.514923,"roadAddr":"대구광역시 달서구 선원로 203","jibunAddr":"대구광역시 달서구 용산2동 505-2","openHours":"상시","maleToilets":3,"femaleToilets":3,"disabled":true,"diaperTable":false,"emergencyBell":true,"cctv":false,"managerTel":"0536672855","source":"public","category":"public"},{"id":"202534700000100619","name":"와룡산(서)","lat":35.862817,"lng":128.501919,"jibunAddr":"대구광역시 달서구 이곡동 산28","openHours":"상시","maleToilets":1,"femaleToilets":1,"disabled":false,"diaperTable":false,"emergencyBell":false,"cctv":false,"managerTel":"0536673755","source":"public","category":"public"},{"id":"202534700000100618","name":"와룡산(동)","lat":35.864262,"lng":128.506906,"jibunAddr":"대구광역시 달서구 이곡동 산11-1","openHours":"상시","maleToilets":1,"femaleToilets":1,"disabled":false,"diaperTable":false,"emergencyBell":false,"cctv":false,"managerTel":"0536673755","source":"public","category":"public"},{"id":"202534700000100617","name":"와룡산(정상)","lat":35.866778,"lng":128.514342,"jibunAddr":"대구광역시 달서구 이곡동 산1","openHours":"상시","maleToilets":2,"femaleToilets":1,"disabled":false,"diaperTable":false,"emergencyBell":false,"cctv":false,"managerTel":"0536673755","source":"public","category":"public"},{"id":"202534700000100083","name":"성서실내게이트볼장","lat":35.861564,"lng":128.505853,"roadAddr":"대구광역시 달서구 선원로 133","jibunAddr":"대구광역시 달서구 이곡동 1325","openHours":"정시","maleToilets":9,"femaleToilets":8,"disabled":true,"diaperTable":false,"emergencyBell":true,"cctv":false,"managerTel":"0535557330","source":"public","category":"public"},{"id":"202534700000100591","name":"불미골공원","lat":35.861156,"lng":128.509414,"jibunAddr":"대구광역시 달서구 이곡1동 1327","openHours":"상시","maleToilets":2,"femaleToilets":2,"disabled":false,"diaperTable":false,"emergencyBell":true,"cctv":false,"managerTel":"0536672855","source":"public","category":"public"},{"id":"202534700000100608","name":"계골산공원","lat":35.861511,"lng":128.498927,"roadAddr":"대구광역시 달서구 선원로15길 71","jibunAddr":"대구광역시 달서구 신당동 1683","openHours":"상시","maleToilets":2,"femaleToilets":1,"disabled":false,"diaperTable":true,"emergencyBell":true,"cctv":false,"managerTel":"0536672855","source":"public","category":"public"},{"id":"202534700000100600","name":"배실웨딩공원","lat":35.862364,"lng":128.505298,"jibunAddr":"대구광역시 달서구 이곡2동 260","openHours":"상시","maleToilets":3,"femaleToilets":2,"disabled":false,"diaperTable":false,"emergencyBell":true,"cctv":false,"managerTel":"0536672855","source":"public","category":"public"},{"id":"202534700000100604","name":"배꽃공원","lat":35.860058,"lng":128.501854,"roadAddr":"대구광역시 달서구 선원로23남길 56-15(이곡동)","jibunAddr":"대구광역시 달서구 이곡2동 1184-5","openHours":"상시","maleToilets":2,"femaleToilets":1,"disabled":false,"diaperTable":false,"emergencyBell":true,"cctv":false,"managerTel":"0536672855","source":"public","category":"public"},{"id":"202434800000100247","name":"환경자원사업소 목교화장실","lat":35.885946,"lng":128.505686,"roadAddr":"대구광역시 달성군 다사읍 다사로 749","jibunAddr":"대구광역시 달성군 다사읍 방천리 142","openHours":"정시","maleToilets":7,"femaleToilets":8,"disabled":true,"diaperTable":true,"emergencyBell":false,"cctv":false,"managerTel":"0536056960","source":"public","category":"public"},{"id":"202434800000100246","name":"환경자원사업소 테니스장","lat":35.886801,"lng":128.510151,"roadAddr":"대구광역시 달성군 다사읍 다사로 781","jibunAddr":"대구광역시 달성군 다사읍 방천리 산 36-3","openHours":"정시","maleToilets":7,"femaleToilets":8,"disabled":true,"diaperTable":true,"emergencyBell":false,"cctv":false,"managerTel":"0536056960","source":"public","category":"public"},{"id":"202334800000100642","name":"환경자원사업소 축구장","lat":35.882533,"lng":128.509346,"roadAddr":"대구광역시 달성군 다사읍 다사로820","jibunAddr":"대구광역시 달성군 다사읍 방천리 421","openHours":"정시","maleToilets":1,"femaleToilets":1,"disabled":true,"diaperTable":false,"emergencyBell":false,"cctv":false,"managerTel":"0536056960","source":"public","category":"public"},{"id":"202434800000100103","name":"서재문화체육센터","lat":35.884288,"lng":128.503201,"roadAddr":"대구광역시 달성군 다사읍 다사로 750","jibunAddr":"대구광역시 달성군 다사읍 방천리 419-26","openHours":"불규칙","maleToilets":16,"femaleToilets":17,"disabled":true,"diaperTable":true,"emergencyBell":true,"cctv":false,"managerTel":"0535842155","source":"public","category":"public"},{"id":"202434800000100174","name":"다사농협클린주유소","lat":35.87102,"lng":128.496482,"roadAddr":"대구광역시 달성군 다사읍 서재로 83","jibunAddr":"대구광역시 달성군 다사읍 서재리 128","openHours":"정시","maleToilets":3,"femaleToilets":1,"disabled":true,"diaperTable":false,"emergencyBell":true,"cctv":false,"managerTel":"0535817799","source":"public","category":"public"},{"id":"202434800000100244","name":"(주)미니이주유소","lat":35.877138,"lng":128.496271,"roadAddr":"대구광역시 달성군 다사읍 서재로31길 2","jibunAddr":"대구광역시 달성군 다사읍 서재리 70-1","openHours":"정시","maleToilets":2,"femaleToilets":0,"disabled":false,"diaperTable":false,"emergencyBell":false,"cctv":false,"source":"public","category":"public"}]