[{"id":"202450800000101633","name":"동락공원 궁도장 외부 남자화장실","lat":36.102337,"lng":128.401183,"roadAddr":"경상북도 구미시 3공단1로 219(진평동)","jibunAddr":"경상북도 구미시 진평동 704","openHours":"정시","maleToilets":5,"femaleToilets":0,"disabled":true,"diaperTable":false,"emergencyBell":false,"cctv":true,"managerTel":"0544802290","source":"public","category":"public"},{"id":"202450800000101520","name":"구미과학관화장실","lat":36.110479,"lng":128.402575,"roadAddr":"경상북도 구미시 3공단1로 319-1(임수동)","jibunAddr":"경상북도 구미시 임수동 92-1","openHours":"정시","maleToilets":10,"femaleToilets":6,"disabled":true,"diaperTable":true,"emergencyBell":false,"cctv":false,"managerTel":"0544806808","source":"public","category":"public"},{"id":"202450800000101689","name":"상하수도사업소 정수과 화장실","lat":36.122394,"lng":128.368659,"roadAddr":"경상북도 구미시 신비로 47(공단동)","jibunAddr":"경상북도 구미시 공단동 3","openHours":"정시","maleToilets":4,"femaleToilets":1,"disabled":false,"diaperTable":false,"emergencyBell":false,"cctv":false,"managerTel":"0544804475","source":"public","category":"public"},{"id":"202450800000101632","name":"동락공원 궁도장 건물 내부 화장실","lat":36.102337,"lng":128.401183,"roadAddr":"경상북도 구미시 3공단1로 219(진평동)","jibunAddr":"경상북도 구미시 진평동 704","openHours":"정시","maleToilets":3,"femaleToilets":2,"disabled":true,"diaperTable":false,"emergencyBell":true,"cctv":true,"managerTel":"0544802290","source":"public","category":"public"},{"id":"202450800000101516","name":"구미공단동우체국 화장실","lat":36.109887,"lng":128.379534,"roadAddr":"경상북도 구미시 1공단로7길 86-19(공단동)","jibunAddr":"경상북도 구미시 공단동 198-1","openHours":"정시","maleToilets":3,"femaleToilets":1,"disabled":false,"diaperTable":false,"emergencyBell":false,"cctv":false,"managerTel":"0544632268","source":"public","category":"public"},{"id":"202450800000101515","name":"공단동행정복지센터화장실","lat":36.101393,"lng":128.384473,"roadAddr":"경상북도 구미시 1공단로 198-8(공단동)","jibunAddr":"경상북도 구미시 공단동 265-27","openHours":"정시","maleToilets":5,"femaleToilets":3,"disabled":true,"diaperTable":false,"emergencyBell":false,"cctv":true,"managerTel":"0544807662","source":"public","category":"public"},{"id":"202450800000101631","name":"동락공원 고려촌 화장실","lat":36.099453,"lng":128.401751,"roadAddr":"경상북도 구미시 3공단1로 191(진평동)","jibunAddr":"경상북도 구미시 진평동 766","openHours":"상시","maleToilets":4,"femaleToilets":2,"disabled":false,"diaperTable":false,"emergencyBell":true,"cctv":false,"managerTel":"0544804615","source":"public","category":"public"},{"id":"202450800000101743","name":"왕산기념관 화장실","lat":36.083435,"lng":128.364304,"roadAddr":"경상북도 구미시 왕산로 28-33(임은동)","jibunAddr":"경상북도 구미시 임은동 228-1","openHours":"정시","maleToilets":16,"femaleToilets":10,"disabled":true,"diaperTable":false,"emergencyBell":false,"cctv":false,"managerTel":"0544805133","source":"public","category":"public"},{"id":"202450800000101643","name":"동락파크골프장 화장실(C코스 앞)","lat":36.09319,"lng":128.40196,"jibunAddr":"경상북도 구미시 진평동 947-31","openHours":"정시","maleToilets":4,"femaleToilets":4,"disabled":false,"diaperTable":false,"emergencyBell":false,"cctv":false,"managerTel":"0544804924","source":"public","category":"public"},{"id":"202450800000101642","name":"동락파크골프장 화장실(B코스 앞, 수세식)","lat":36.09319,"lng":128.40196,"jibunAddr":"경상북도 구미시 진평동 947-31","openHours":"정시","maleToilets":4,"femaleToilets":4,"disabled":false,"diaperTable":false,"emergencyBell":false,"cctv":false,"managerTel":"0544804924","source":"public","category":"public"},{"id":"202450800000101635","name":"동락공원 반려동물 놀이터","lat":36.099453,"lng":128.401751,"roadAddr":"경상북도 구미시 3공단1로 191(진평동)","jibunAddr":"경상북도 구미시 진평동 766","openHours":"상시","maleToilets":4,"femaleToilets":2,"disabled":false,"diaperTable":false,"emergencyBell":false,"cctv":false,"managerTel":"0544804615","source":"public","category":"public"},{"id":"202450800000101555","name":"근로자종합복지회관 화장실","lat":36.105068,"lng":128.384018,"roadAddr":"경상북도 구미시 산호대로 239(공단동)","jibunAddr":"경상북도 구미시 공단동 256-18","openHours":"정시","maleToilets":15,"femaleToilets":7,"disabled":true,"diaperTable":false,"emergencyBell":false,"cctv":false,"managerTel":"0544802065","source":"public","category":"public"},{"id":"202450800000101639","name":"동락공원 축구장(=7번광장) 화장실","lat":36.099453,"lng":128.401751,"roadAddr":"경상북도 구미시 3공단1로 191(진평동)","jibunAddr":"경상북도 구미시 진평동 766","openHours":"상시","maleToilets":5,"femaleToilets":4,"disabled":false,"diaperTable":false,"emergencyBell":false,"cctv":false,"managerTel":"0544804615","source":"public","category":"public"},{"id":"202450800000101641","name":"동락공원관리사무소(=동락공원1사무실) 화장실","lat":36.099453,"lng":128.401751,"roadAddr":"경상북도 구미시 3공단1로 191(진평동)","jibunAddr":"경상북도 구미시 진평동 766","openHours":"상시","maleToilets":4,"femaleToilets":2,"disabled":false,"diaperTable":false,"emergencyBell":false,"cctv":false,"managerTel":"0544804615","source":"public","category":"public"},{"id":"202450800000101756","name":"임오동행정복지센터 화장실","lat":36.089281,"lng":128.36927,"roadAddr":"경상북도 구미시 임은길 61(임은동)","jibunAddr":"경상북도 구미시 임은동 371-4","openHours":"정시","maleToilets":4,"femaleToilets":2,"disabled":true,"diaperTable":false,"emergencyBell":false,"cctv":false,"managerTel":"0544807742","source":"public","category":"public"},{"id":"202650800000100027","name":"당산공원 화장실","lat":36.079742,"lng":128.3747,"jibunAddr":"경상북도 구미시 오태동 80-3","openHours":"상시","maleToilets":1,"femaleToilets":2,"disabled":true,"diaperTable":true,"emergencyBell":false,"cctv":false,"managerTel":"0544805574","source":"public","category":"public"},{"id":"202650800000100031","name":"거점공원 화장실","lat":36.109349,"lng":128.378163,"jibunAddr":"경상북도 구미시 공단동 196","openHours":"상시","maleToilets":1,"femaleToilets":1,"disabled":true,"diaperTable":false,"emergencyBell":true,"cctv":false,"managerTel":"0544805574","source":"public","category":"public"},{"id":"202450800000101580","name":"낙동강둔치 드론시험장 화장실(반수세식)","lat":36.083785,"lng":128.38685,"roadAddr":"경상북도 구미시 남구미로 103(공단동), 하천하-드론시험장옆","jibunAddr":"경상북도 구미시 공단동 437","openHours":"상시","maleToilets":3,"femaleToilets":2,"disabled":false,"diaperTable":false,"emergencyBell":false,"cctv":false,"managerTel":"0544805385","source":"public","category":"public"},{"id":"202450800000101579","name":"낙동강둔치 남구미전망대화장실 (수세식)","lat":36.083785,"lng":128.38685,"roadAddr":"경상북도 구미시 남구미로 103(공단동), 하천하-전망대옆","jibunAddr":"경상북도 구미시 공단동 437","openHours":"상시","maleToilets":2,"femaleToilets":3,"disabled":true,"diaperTable":false,"emergencyBell":false,"cctv":false,"managerTel":"0544805385","source":"public","category":"public"},{"id":"202450800000101640","name":"동락공원 화합의숲(족구장,모임광장,5번광장)화장실","lat":36.099453,"lng":128.401751,"roadAddr":"경상북도 구미시 3공단1로 191(진평동)","jibunAddr":"경상북도 구미시 진평동 766","openHours":"상시","maleToilets":6,"femaleToilets":4,"disabled":true,"diaperTable":false,"emergencyBell":true,"cctv":false,"managerTel":"0544804615","source":"public","category":"public"},{"id":"202450800000101784","name":"평생학습원 화장실","lat":36.10556,"lng":128.383901,"roadAddr":"경상북도 구미시 산호대로 243(공단동)","jibunAddr":"경상북도 구미시 공단동 256-17","openHours":"정시","maleToilets":26,"femaleToilets":16,"disabled":false,"diaperTable":false,"emergencyBell":false,"cctv":false,"managerTel":"0544804324","source":"public","category":"public"},{"id":"202450800000101634","name":"동락공원 민속정원 화장실","lat":36.099453,"lng":128.401751,"roadAddr":"경상북도 구미시 3공단1로 191(진평동)","jibunAddr":"경상북도 구미시 진평동 766","openHours":"상시","maleToilets":4,"femaleToilets":2,"disabled":false,"diaperTable":false,"emergencyBell":true,"cctv":false,"managerTel":"0544804615","source":"public","category":"public"},{"id":"202450800000101637","name":"동락공원 어린이놀이터 태양광친환경화장실","lat":36.099453,"lng":128.401751,"roadAddr":"경상북도 구미시 3공단1로 191(진평동)","jibunAddr":"경상북도 구미시 진평동 766","openHours":"상시","maleToilets":5,"femaleToilets":8,"disabled":false,"diaperTable":false,"emergencyBell":true,"cctv":false,"managerTel":"0544804615","source":"public","category":"public"},{"id":"202450800000101644","name":"동락파크골프장 화장실(A코스 앞)","lat":36.09319,"lng":128.40196,"jibunAddr":"경상북도 구미시 진평동 947-31","openHours":"정시","maleToilets":4,"femaleToilets":4,"disabled":false,"diaperTable":false,"emergencyBell":false,"cctv":false,"managerTel":"0544804924","source":"public","category":"public"},{"id":"202450800000101636","name":"동락공원 방범초소 화장실","lat":36.099453,"lng":128.401751,"roadAddr":"경상북도 구미시 3공단1로 191(진평동)","jibunAddr":"경상북도 구미시 진평동 766","openHours":"상시","maleToilets":4,"femaleToilets":2,"disabled":false,"diaperTable":false,"emergencyBell":true,"cctv":false,"managerTel":"0544804615","source":"public","category":"public"},{"id":"202450800000101638","name":"동락공원 유소년체육시설 화장실(수거식)","lat":36.099421,"lng":128.400017,"jibunAddr":"경상북도 구미시 진평동 823-2","openHours":"정시","maleToilets":4,"femaleToilets":4,"disabled":false,"diaperTable":false,"emergencyBell":false,"cctv":false,"managerTel":"0544804924","source":"public","category":"public"},{"id":"202450800000101517","name":"광평동행정복지센터 화장실","lat":36.1047,"lng":128.366071,"roadAddr":"경상북도 구미시 광평길 55(광평동)","jibunAddr":"경상북도 구미시 광평동 532-7","openHours":"정시","maleToilets":10,"femaleToilets":1,"disabled":true,"diaperTable":false,"emergencyBell":false,"cctv":false,"managerTel":"0544807692","source":"public","category":"public"},{"id":"202650800000100007","name":"낙동강둔치조정면제교육장화장실","lat":36.083785,"lng":128.38685,"roadAddr":"경상북도 구미시 남구미로 103 (공단동)","jibunAddr":"경상북도 구미시 공단동 437","openHours":"상시","maleToilets":4,"femaleToilets":3,"disabled":true,"diaperTable":false,"emergencyBell":false,"cctv":false,"managerTel":"0544805385","source":"public","category":"public"},{"id":"202450800000101576","name":"낙동강둔치 강변체육공원 하류화장실","lat":36.109007,"lng":128.393267,"jibunAddr":"경상북도 구미시 공단동 380","openHours":"상시","maleToilets":5,"femaleToilets":5,"disabled":true,"diaperTable":false,"emergencyBell":false,"cctv":false,"managerTel":"0544805385","source":"public","category":"public"},{"id":"202450800000101575","name":"낙동강둔치 강변체육공원 상류화장실","lat":36.113784,"lng":128.393524,"jibunAddr":"경상북도 구미시 공단동 산5","openHours":"상시","maleToilets":5,"femaleToilets":5,"disabled":true,"diaperTable":false,"emergencyBell":false,"cctv":false,"managerTel":"0544805385","source":"public","category":"public"},{"id":"202052200000100062","name":"석적10 섬내공원 화장실","lat":36.080379,"lng":128.399714,"roadAddr":"경상북도 칠곡군 석적읍 강변대로 2363-21","jibunAddr":"경상북도 칠곡군 석적읍 중리 884-122","openHours":"상시","maleToilets":2,"femaleToilets":2,"disabled":true,"diaperTable":true,"emergencyBell":true,"cctv":true,"managerTel":"0549795317","source":"public","category":"public"}]