[{"id":"202351200000100269","name":"이목리 야구장","lat":36.553817,"lng":128.290063,"jibunAddr":"경상북도 문경시 영순면 이목리 42","openHours":"상시","maleToilets":4,"femaleToilets":2,"disabled":false,"diaperTable":false,"emergencyBell":true,"cctv":false,"managerTel":"0545508586","source":"public","category":"public"},{"id":"202351200000100115","name":"문경야구장","lat":36.554223,"lng":128.28998,"jibunAddr":"경상북도 문경시 영순면 이목리 38","openHours":"불규칙","maleToilets":12,"femaleToilets":6,"disabled":false,"diaperTable":false,"emergencyBell":false,"cctv":false,"managerTel":"0545506418","source":"public","category":"public"},{"id":"202351200000100268","name":"이목리 제방","lat":36.55479,"lng":128.284294,"jibunAddr":"경상북도 문경시 영순면 이목리 181","openHours":"상시","maleToilets":2,"femaleToilets":1,"disabled":true,"diaperTable":false,"emergencyBell":false,"cctv":false,"managerTel":"0545508586","source":"public","category":"public"},{"id":"202351200000100275","name":"이목주차장","lat":36.553978,"lng":128.29183,"jibunAddr":"경상북도 문경시 영순면 이목리 36","openHours":"상시","maleToilets":5,"femaleToilets":5,"disabled":true,"diaperTable":false,"emergencyBell":true,"cctv":false,"managerTel":"0545508586","source":"public","category":"public"},{"id":"202351200000100270","name":"이목리 야구장 입구","lat":36.554871,"lng":128.288535,"jibunAddr":"경상북도 문경시 영순면 이목리 468-1","openHours":"상시","maleToilets":2,"femaleToilets":1,"disabled":false,"diaperTable":false,"emergencyBell":false,"cctv":false,"managerTel":"0545508586","source":"public","category":"public"}]