[{"id":"202351100000100284","name":"외서농협","lat":36.478034,"lng":128.108519,"roadAddr":"경상북도 상주시 외서면 우산로 579","jibunAddr":"경상북도 상주시 외서면 가곡리 207-2","openHours":"정시","maleToilets":3,"femaleToilets":2,"disabled":false,"diaperTable":false,"emergencyBell":false,"cctv":false,"managerTel":"0545327005","source":"public","category":"public"},{"id":"202351100000100121","name":"용머리 간이화장실","lat":36.492682,"lng":128.115879,"roadAddr":"경상북도 상주시 공검면 오태리 918-1","openHours":"상시","maleToilets":1,"femaleToilets":1,"disabled":false,"diaperTable":false,"emergencyBell":false,"cctv":false,"managerTel":"0545378472","source":"public","category":"public"},{"id":"202351100000100285","name":"외서농협 경제사업소","lat":36.478034,"lng":128.108519,"roadAddr":"경상북도 상주시 외서면 우산로 579","jibunAddr":"경상북도 상주시 외서면 가곡리 207-2","openHours":"정시","maleToilets":2,"femaleToilets":1,"disabled":false,"diaperTable":false,"emergencyBell":false,"cctv":false,"managerTel":"0545327005","source":"public","category":"public"},{"id":"202351100000100317","name":"외서면보건지소","lat":36.480686,"lng":128.107783,"roadAddr":"경상북도 상주시 외서면 용머리로 23","jibunAddr":"경상북도 상주시 외서면 가곡리 57","openHours":"정시","maleToilets":2,"femaleToilets":1,"disabled":false,"diaperTable":false,"emergencyBell":false,"cctv":false,"managerTel":"0545326935","source":"public","category":"public"},{"id":"202351100000100118","name":"염소목 간이화장실","lat":36.511236,"lng":128.102878,"roadAddr":"경상북도 상주시 공검면 중소리 804-2","openHours":"상시","maleToilets":1,"femaleToilets":1,"disabled":false,"diaperTable":false,"emergencyBell":false,"cctv":false,"managerTel":"0545378472","source":"public","category":"public"},{"id":"202351100000100287","name":"외서면행정복지센터","lat":36.479066,"lng":128.107911,"roadAddr":"경상북도 상주시 외서면 가곡1길 2, 외서면사무소","jibunAddr":"경상북도 상주시 외서면 가곡리 101-1 , 203-12","openHours":"정시","maleToilets":3,"femaleToilets":1,"disabled":true,"diaperTable":false,"emergencyBell":false,"cctv":false,"managerTel":"0545378914","source":"public","category":"public"},{"id":"202351100000100123","name":"오태2리삼거리 간이화장실","lat":36.488656,"lng":128.133486,"roadAddr":"경상북도 상주시 공검면 오태리 56-4","openHours":"상시","maleToilets":1,"femaleToilets":1,"disabled":false,"diaperTable":false,"emergencyBell":false,"cctv":false,"managerTel":"0545378472","source":"public","category":"public"},{"id":"202351100000100113","name":"동막게이트볼장 간이화장실","lat":36.506487,"lng":128.139897,"roadAddr":"경상북도 상주시 공검면 비재로 1087","jibunAddr":"경상북도 상주시 공검면 동막리 74","openHours":"상시","maleToilets":2,"femaleToilets":1,"disabled":false,"diaperTable":false,"emergencyBell":false,"cctv":false,"managerTel":"0545378472","source":"public","category":"public"},{"id":"202351100000100122","name":"중소리 간이화장실","lat":36.509887,"lng":128.110487,"roadAddr":"경상북도 상주시 공검면 중소리 269-1","openHours":"상시","maleToilets":1,"femaleToilets":1,"disabled":false,"diaperTable":false,"emergencyBell":false,"cctv":false,"managerTel":"0545378472","source":"public","category":"public"}]