[{"id":"202351100000100281","name":"천마산휴게소","lat":36.493674,"lng":128.176335,"roadAddr":"경상북도 상주시 외서면 경상대로 3915","jibunAddr":"경상북도 상주시 외서면 연봉리 556-8","openHours":"09:00~18:00","maleToilets":4,"femaleToilets":2,"disabled":false,"diaperTable":false,"emergencyBell":false,"cctv":false,"managerTel":"0545410890","source":"public","category":"public"},{"id":"202351100000100134","name":"공검면행정복지센터 화장실","lat":36.512005,"lng":128.158938,"roadAddr":"경상북도 상주시  공검면 비재로 1308","openHours":"13시간","maleToilets":4,"femaleToilets":2,"disabled":true,"diaperTable":false,"emergencyBell":false,"cctv":false,"managerTel":"0545378472","source":"public","category":"public"},{"id":"202351100000100132","name":"공검면보건지소 화장실","lat":36.510551,"lng":128.159414,"roadAddr":"경상북도 상주시  공검면 양정2길 17-6","openHours":"9시간","maleToilets":2,"femaleToilets":1,"disabled":true,"diaperTable":false,"emergencyBell":false,"cctv":false,"managerTel":"0545378492","source":"public","category":"public"},{"id":"202351100000100364","name":"공검파출소","lat":36.512778,"lng":128.156451,"roadAddr":"경상북도 상주시 비재로 1288","jibunAddr":"경상북도 상주시 공검면 양정리 886-9","openHours":"(평일)09:00-18:00, 주말×","maleToilets":2,"femaleToilets":1,"disabled":true,"diaperTable":false,"emergencyBell":false,"cctv":false,"managerTel":"0545412112","source":"public","category":"public"},{"id":"202351100000100129","name":"공검지 간이화장실","lat":36.512096,"lng":128.16288,"roadAddr":"경상북도 상주시 공검면 양정리 196","openHours":"상시","maleToilets":2,"femaleToilets":1,"disabled":false,"diaperTable":false,"emergencyBell":false,"cctv":false,"managerTel":"0545378472","source":"public","category":"public"},{"id":"202351100000100282","name":"천마산주유소","lat":36.493441,"lng":128.176234,"roadAddr":"경상북도 상주시 외서면 경상대로 3913","jibunAddr":"경상북도 상주시 외서면 연봉리 556-4","openHours":"09:00~18:00","maleToilets":4,"femaleToilets":0,"disabled":false,"diaperTable":false,"emergencyBell":false,"cctv":false,"managerTel":"0545410890","source":"public","category":"public"},{"id":"202351100000100133","name":"공검농업협동조합 화장실","lat":36.512838,"lng":128.1583,"roadAddr":"경상북도 상주시 공검면 비재로 1301","jibunAddr":"경상북도 상주시 공검면 양정리 199-173 , 199-38","openHours":"(평일)09:00~18:00","maleToilets":4,"femaleToilets":2,"disabled":false,"diaperTable":false,"emergencyBell":false,"cctv":false,"managerTel":"0545413447","source":"public","category":"public"}]