[{"id":"202651100000100011","name":"상주 낙동강변 파크골프장(대광장)","lat":36.411746,"lng":128.242927,"jibunAddr":"경상북도 상주시 중동면 죽암리 1446","openHours":"상시","maleToilets":3,"femaleToilets":3,"disabled":false,"diaperTable":false,"emergencyBell":false,"cctv":false,"managerTel":"0545377651","source":"public","category":"public"},{"id":"202651100000100012","name":"상주 낙동강변 파크골프장(소광장)","lat":36.411746,"lng":128.242927,"jibunAddr":"경상북도 상주시 중동면 죽암리 1446","openHours":"상시","maleToilets":4,"femaleToilets":4,"disabled":false,"diaperTable":false,"emergencyBell":false,"cctv":false,"managerTel":"0545377651","source":"public","category":"public"},{"id":"202351100000100029","name":"중동면보건지소 화장실","lat":36.426846,"lng":128.268987,"roadAddr":"경상북도 상주시 중동면 오상1길 22-2","jibunAddr":"경상북도 상주시 중동면 오상리 409-2","openHours":"09:00~18:00","maleToilets":2,"femaleToilets":0,"disabled":true,"diaperTable":false,"emergencyBell":false,"cctv":false,"managerTel":"0545338400","source":"public","category":"public"},{"id":"202351100000100028","name":"중동농협 화장실","lat":36.42722,"lng":128.269678,"roadAddr":"경상북도 상주시 중동면 오상1길 25","jibunAddr":"경상북도 상주시 중동면 오상리 416-1","openHours":"09:00~18:00","maleToilets":3,"femaleToilets":0,"disabled":true,"diaperTable":false,"emergencyBell":false,"cctv":false,"managerTel":"0545348011","source":"public","category":"public"},{"id":"202351100000100136","name":"국궁장 화장실","lat":36.412257,"lng":128.263867,"roadAddr":"경상북도 상주시  중동면 죽암리 333-2","openHours":"상시","maleToilets":2,"femaleToilets":1,"disabled":false,"diaperTable":false,"emergencyBell":false,"cctv":false,"managerTel":"0545377543","source":"public","category":"public"},{"id":"202351100000100138","name":"강창나루공원 화장실","lat":36.413471,"lng":128.246291,"roadAddr":"경상북도 상주시  중동면 죽암리 1417-6","openHours":"상시","maleToilets":3,"femaleToilets":2,"disabled":true,"diaperTable":false,"emergencyBell":true,"cctv":false,"managerTel":"0545377543","source":"public","category":"public"},{"id":"202351100000100214","name":"농업기술센터 동부상담소","lat":36.404593,"lng":128.238117,"roadAddr":"경상북도 상주시 낙동면 신상1길 109","jibunAddr":"경상북도 상주시 낙동면 신상리 466","openHours":"09:00~18:00","maleToilets":4,"femaleToilets":2,"disabled":false,"diaperTable":false,"emergencyBell":false,"cctv":false,"managerTel":"0545375343","source":"public","category":"public"},{"id":"202451100000100043","name":"낙동야구장 2","lat":36.406831,"lng":128.262854,"roadAddr":"부여불가","jibunAddr":"경상북도 상주시 낙동면 분황리 산79-3","openHours":"상시","maleToilets":2,"femaleToilets":1,"disabled":false,"diaperTable":false,"emergencyBell":false,"cctv":false,"managerTel":"0545377651","source":"public","category":"public"},{"id":"202451100000100044","name":"낙동강변 궁도장","lat":36.411929,"lng":128.263455,"roadAddr":"부여불가","jibunAddr":"경상북도 상주시 중동면 죽암리 349-1번지","openHours":"상시","maleToilets":4,"femaleToilets":3,"disabled":false,"diaperTable":false,"emergencyBell":false,"cctv":false,"managerTel":"0545377651","source":"public","category":"public"},{"id":"202451100000100042","name":"낙동야구장 1","lat":36.406831,"lng":128.262854,"roadAddr":"부여불가","jibunAddr":"경상북도 상주시 낙동면 분황리 산79-3","openHours":"상시","maleToilets":4,"femaleToilets":3,"disabled":false,"diaperTable":false,"emergencyBell":false,"cctv":false,"managerTel":"0545377651","source":"public","category":"public"},{"id":"202351100000100135","name":"중동제 화장실","lat":36.428457,"lng":128.240796,"roadAddr":"경상북도 상주시  중동면 오상리 1104","openHours":"상시","maleToilets":1,"femaleToilets":1,"disabled":false,"diaperTable":false,"emergencyBell":false,"cctv":false,"managerTel":"0545377543","source":"public","category":"public"},{"id":"202351100000100031","name":"중동면행정복지센터 화장실","lat":36.42631,"lng":128.271488,"roadAddr":"경상북도 상주시 중동면 공산로 9","jibunAddr":"경상북도 상주시 중동면 오상리 450","openHours":"09:00~18:00","maleToilets":4,"femaleToilets":0,"disabled":true,"diaperTable":false,"emergencyBell":false,"cctv":false,"managerTel":"0545378086","source":"public","category":"public"}]