[{"id":"202551500000101160","name":"의성다인우체국 공중화장실(1층)","lat":36.448362,"lng":128.356077,"roadAddr":"경상북도 의성군 다인면 서릉1길 6","jibunAddr":"경상북도 의성군 다인면 서릉리 85-2","openHours":"09:00∼18:00","maleToilets":1,"femaleToilets":0,"disabled":false,"diaperTable":false,"emergencyBell":false,"cctv":true,"managerTel":"0548616000","source":"public","category":"public"},{"id":"202551500000101157","name":"다인전통시장 화장실","lat":36.450521,"lng":128.355338,"roadAddr":"경상북도 의성군 다인면 다인장길 31","jibunAddr":"경상북도 의성군 다인면 서릉리 159-5","openHours":"상시","maleToilets":5,"femaleToilets":2,"disabled":false,"diaperTable":false,"emergencyBell":false,"cctv":false,"managerTel":"0548305332","source":"public","category":"public"},{"id":"202551500000101168","name":"다인농협주유소 화장실","lat":36.451389,"lng":128.351084,"roadAddr":"경상북도 의성군 다인면 서부로 2809","jibunAddr":"경상북도 의성군 다인면 서릉리 177-2","openHours":"07:30~19:30","maleToilets":3,"femaleToilets":2,"disabled":false,"diaperTable":false,"emergencyBell":false,"cctv":true,"managerTel":"0548302310","source":"public","category":"public"},{"id":"202551500000101166","name":"다인게이트볼장 화장실","lat":36.446824,"lng":128.357932,"roadAddr":"경상북도 의성군 다인면 서부로 2724","jibunAddr":"경상북도 의성군 다인면 서릉리 22","openHours":"상시","maleToilets":1,"femaleToilets":0,"disabled":false,"diaperTable":false,"emergencyBell":false,"cctv":false,"managerTel":"0548305337","source":"public","category":"public"},{"id":"202551500000101167","name":"다인버스정류장","lat":36.44775,"lng":128.355819,"roadAddr":"경상북도 의성군 다인면 서부로 2748","jibunAddr":"경상북도 의성군 다인면 서릉리 57-7","openHours":"상시","maleToilets":2,"femaleToilets":1,"disabled":false,"diaperTable":false,"emergencyBell":false,"cctv":false,"managerTel":"0548614232","source":"public","category":"public"},{"id":"202551500000101170","name":"도암 졸음쉼터 화장실","lat":36.460979,"lng":128.341962,"roadAddr":"경상북도 의성군 다인면 서부로 2935","jibunAddr":"경상북도 의성군 다인면 도암리 1096-10","openHours":"상시","maleToilets":3,"femaleToilets":3,"disabled":false,"diaperTable":false,"emergencyBell":true,"cctv":false,"managerTel":"0545323127","source":"public","category":"public"},{"id":"202551500000101165","name":"형제주유소 화장실","lat":36.4489,"lng":128.355681,"roadAddr":"경상북도 의성군 다인면 서릉길 59","jibunAddr":"경상북도 의성군 다인면 서릉리 147-13","openHours":"07:00~22:00","maleToilets":1,"femaleToilets":0,"disabled":false,"diaperTable":false,"emergencyBell":false,"cctv":false,"managerTel":"0548615085","source":"public","category":"public"},{"id":"202551500000101164","name":"다인면사무소 화장실","lat":36.450328,"lng":128.353564,"roadAddr":"경상북도 의성군 다인면 서릉길 37","jibunAddr":"경상북도 의성군 다인면 서릉리 201","openHours":"09:00∼18:00","maleToilets":5,"femaleToilets":3,"disabled":true,"diaperTable":false,"emergencyBell":false,"cctv":true,"managerTel":"0548305335","source":"public","category":"public"}]