[{"id":"202551500000101399","name":"의성 펫월드 관리동 화장실","lat":36.392185,"lng":128.427291,"roadAddr":"경상북도 의성군 단북면 안계길 255-13","jibunAddr":"경상북도 의성군 단북면 노연리 380","openHours":"09:00∼18:00","maleToilets":5,"femaleToilets":6,"disabled":true,"diaperTable":true,"emergencyBell":false,"cctv":false,"managerTel":"0548611414","source":"public","category":"public"},{"id":"202551500000101397","name":"의성 펫월드 방문자센터동 화장실","lat":36.392185,"lng":128.427291,"roadAddr":"경상북도 의성군 단북면 안계길 255-13","jibunAddr":"경상북도 의성군 단북면 노연리 1110","openHours":"09:00∼18:00","maleToilets":3,"femaleToilets":3,"disabled":true,"diaperTable":false,"emergencyBell":false,"cctv":false,"managerTel":"0548611414","source":"public","category":"public"},{"id":"202551500000101183","name":"국민체육센터(수영장) 화장실","lat":36.39218,"lng":128.42871,"roadAddr":"경상북도 의성군 단북면 안계길 251","jibunAddr":"경상북도 의성군 단북면 노연리 1114","openHours":"09:00∼18:00","maleToilets":6,"femaleToilets":6,"disabled":true,"diaperTable":false,"emergencyBell":false,"cctv":true,"managerTel":"0548306235","source":"public","category":"public"},{"id":"202551500000101234","name":"의성(영덕)휴게소 화장실","lat":36.410927,"lng":128.444553,"roadAddr":"경상북도 의성군 안계면 새못안길 45-49","jibunAddr":"경상북도 의성군 안계면 양곡리 산101-1","openHours":"상시","maleToilets":15,"femaleToilets":22,"disabled":true,"diaperTable":true,"emergencyBell":true,"cctv":true,"managerTel":"0548629076","source":"public","category":"public"},{"id":"202551500000101253","name":"영남제일병원 화장실","lat":36.389077,"lng":128.434259,"roadAddr":"경상북도 의성군 안계면 용기4길 36","jibunAddr":"경상북도 의성군 안계면 용기리 924-3","openHours":"08:00~18:00","maleToilets":4,"femaleToilets":2,"disabled":true,"diaperTable":false,"emergencyBell":false,"cctv":false,"managerTel":"0548619111","source":"public","category":"public"},{"id":"202551500000101239","name":"공단주유소, 공단충전소 공용화장실","lat":36.391318,"lng":128.431879,"roadAddr":"경상북도 의성군 안계면 서부로 1783","jibunAddr":"경상북도 의성군 안계면 용기리 924-1","openHours":"08:00~21:00","maleToilets":6,"femaleToilets":5,"disabled":false,"diaperTable":false,"emergencyBell":false,"cctv":false,"managerTel":"0548614001","source":"public","category":"public"},{"id":"202551500000101396","name":"의성 펫월드 펫레스토랑동 화장실","lat":36.392185,"lng":128.427291,"roadAddr":"경상북도 의성군 단북면 안계길 255-13","jibunAddr":"경상북도 의성군 단북면 노연리 1110","openHours":"09:00∼18:00","maleToilets":2,"femaleToilets":2,"disabled":true,"diaperTable":true,"emergencyBell":false,"cctv":false,"managerTel":"0548611414","source":"public","category":"public"},{"id":"202551500000101263","name":"안계노인복지관 화장실","lat":36.388088,"lng":128.430542,"roadAddr":"경상북도 의성군 안계면 용기5길 42","jibunAddr":"경상북도 의성군 안계면 용기리 988","openHours":"09:00~18:00","maleToilets":8,"femaleToilets":5,"disabled":true,"diaperTable":false,"emergencyBell":false,"cctv":false,"managerTel":"0548611377","source":"public","category":"public"},{"id":"202551500000101233","name":"의성(청주)휴게소 화장실","lat":36.409676,"lng":128.446945,"roadAddr":"경상북도 의성군 안계면 새못안길 45-47","jibunAddr":"경상북도 의성군 안계면 양곡리 산104","openHours":"상시","maleToilets":15,"femaleToilets":22,"disabled":true,"diaperTable":true,"emergencyBell":true,"cctv":true,"managerTel":"0548629252","source":"public","category":"public"},{"id":"202551500000101184","name":"국민체육센터(체육관) 화장실","lat":36.39218,"lng":128.42871,"roadAddr":"경상북도 의성군 단북면 안계길 251","jibunAddr":"경상북도 의성군 단북면 노연리 1114","openHours":"09:00∼18:00","maleToilets":4,"femaleToilets":4,"disabled":true,"diaperTable":false,"emergencyBell":false,"cctv":true,"managerTel":"0548306235","source":"public","category":"public"},{"id":"202551500000101398","name":"의성 펫월드 미용동 화장실","lat":36.392185,"lng":128.427291,"roadAddr":"경상북도 의성군 단북면 안계길 255-13","jibunAddr":"경상북도 의성군 단북면 노연리 1110","openHours":"09:00∼18:00","maleToilets":2,"femaleToilets":2,"disabled":true,"diaperTable":true,"emergencyBell":false,"cctv":false,"managerTel":"0548611414","source":"public","category":"public"},{"id":"202551500000101237","name":"안계현대주유소 화장실","lat":36.390106,"lng":128.435023,"roadAddr":"경상북도 의성군 안계면 서부로 1750","jibunAddr":"경상북도 의성군 안계면 용기리 924-1","openHours":"상시","maleToilets":2,"femaleToilets":1,"disabled":false,"diaperTable":false,"emergencyBell":false,"cctv":false,"managerTel":"0548614001","source":"public","category":"public"},{"id":"202551500000101181","name":"일월주유소 화장실","lat":36.405928,"lng":128.415224,"roadAddr":"경상북도 의성군 단북면 서부로 2004","jibunAddr":"경상북도 의성군 단북면 정안리 663-2","openHours":"09:00∼18:00","maleToilets":3,"femaleToilets":2,"disabled":false,"diaperTable":false,"emergencyBell":false,"cctv":false,"managerTel":"0548626200","source":"public","category":"public"},{"id":"202551500000101409","name":"서의성 I.C 영업소","lat":36.403712,"lng":128.413575,"roadAddr":"경상북도 의성군 단북면 서부로 1997-19","jibunAddr":"경상북도 의성군 단북면 정안리 673-7","openHours":"상시","maleToilets":1,"femaleToilets":1,"disabled":true,"diaperTable":true,"emergencyBell":false,"cctv":false,"managerTel":"0548112812","source":"public","category":"public"},{"id":"202551500000101182","name":"의성생활체육공원 화장실","lat":36.391238,"lng":128.429795,"roadAddr":"경상북도 의성군 단북면 안계길 237","jibunAddr":"경상북도 의성군 단북면 노연리 390-2","openHours":"상시","maleToilets":8,"femaleToilets":4,"disabled":true,"diaperTable":true,"emergencyBell":true,"cctv":false,"managerTel":"0548306235","source":"public","category":"public"},{"id":"202551500000101244","name":"성제요양병원 화장실","lat":36.388598,"lng":128.433079,"roadAddr":"경상북도 의성군 안계면 안계길 200","jibunAddr":"경상북도 의성군 안계면 용기리 916-40","openHours":"08:30~17:30","maleToilets":0,"femaleToilets":2,"disabled":true,"diaperTable":false,"emergencyBell":false,"cctv":true,"managerTel":"0548613388","source":"public","category":"public"},{"id":"202551500000101252","name":"안계시외버스터미널","lat":36.389544,"lng":128.433954,"roadAddr":"경상북도 의성군 안계면 용기4길 18","jibunAddr":"경상북도 의성군 안계면 용기리 916-17","openHours":"상시","maleToilets":4,"femaleToilets":4,"disabled":false,"diaperTable":false,"emergencyBell":true,"cctv":false,"managerTel":"0548625691","source":"public","category":"public"}]