[{"id":"202434200000100901","name":"동호유적근린공원","lat":35.884438,"lng":128.740316,"jibunAddr":"대구광역시 동구 동내동 1139","openHours":"상시","maleToilets":2,"femaleToilets":1,"disabled":true,"diaperTable":false,"emergencyBell":true,"cctv":false,"managerTel":"0536624132","source":"public","category":"public"},{"id":"202434200000100917","name":"대구선반야월공원(괴전동)","lat":35.872516,"lng":128.734708,"jibunAddr":"대구광역시 동구 괴전동119-2","openHours":"상시","maleToilets":3,"femaleToilets":2,"disabled":true,"diaperTable":true,"emergencyBell":true,"cctv":false,"managerTel":"0536624020","source":"public","category":"public"},{"id":"202434200000100929","name":"나불지공영주차장","lat":35.879333,"lng":128.718183,"jibunAddr":"대구광역시 동구 각산동 1131","openHours":"상시","maleToilets":1,"femaleToilets":1,"disabled":true,"diaperTable":false,"emergencyBell":true,"cctv":false,"managerTel":"0536622867","source":"public","category":"public"},{"id":"202434200000100837","name":"신서근린공원","lat":35.866716,"lng":128.727713,"roadAddr":"대구광역시 동구 동호로 98 (신서동)","jibunAddr":"대구광역시 동구 신서동 539","openHours":"상시","maleToilets":3,"femaleToilets":2,"disabled":true,"diaperTable":true,"emergencyBell":true,"cctv":false,"managerTel":"0536624020","source":"public","category":"public"},{"id":"202434200000100904","name":"동내향수근린공원","lat":35.877837,"lng":128.737275,"roadAddr":"대구광역시 동구 동내로 66-22 (동내동)","jibunAddr":"대구광역시 동구 동내동 1119-3","openHours":"상시","maleToilets":5,"femaleToilets":6,"disabled":true,"diaperTable":true,"emergencyBell":true,"cctv":false,"managerTel":"0536624132","source":"public","category":"public"},{"id":"202434200000100857","name":"숙천꿈마루공원","lat":35.875999,"lng":128.753818,"jibunAddr":"대구광역시 동구 숙천동 391","openHours":"상시","maleToilets":2,"femaleToilets":2,"disabled":true,"diaperTable":false,"emergencyBell":true,"cctv":true,"managerTel":"0536622867","source":"public","category":"public"},{"id":"202434200000100840","name":"신서중앙공원","lat":35.880952,"lng":128.734125,"roadAddr":"대구광역시 동구 동내로 117 (신서동)","jibunAddr":"대구광역시 동구 신서동 1185","openHours":"상시","maleToilets":4,"femaleToilets":5,"disabled":true,"diaperTable":true,"emergencyBell":true,"cctv":false,"managerTel":"0536624132","source":"public","category":"public"},{"id":"202434200000100862","name":"사복노을근린공원","lat":35.877249,"lng":128.749058,"roadAddr":"대구광역시 동구 메디밸리로 52 (사복동)","jibunAddr":"대구광역시 동구 사복동 836","openHours":"상시","maleToilets":4,"femaleToilets":5,"disabled":true,"diaperTable":true,"emergencyBell":true,"cctv":false,"managerTel":"0536624132","source":"public","category":"public"}]