[{"id":"202451000000100057","name":"냉천강변 공중화장실","lat":35.931127,"lng":128.872675,"roadAddr":"경상북도 영천시 금호읍 금호로 102-64, 냉천강변공중화장실","jibunAddr":"경상북도 영천시 금호읍 냉천리 687-2 냉천강변공중화장실","openHours":"상시","maleToilets":4,"femaleToilets":2,"disabled":false,"diaperTable":false,"emergencyBell":true,"cctv":false,"source":"public","category":"public"},{"id":"202451000000100086","name":"최무선과학관","lat":35.907739,"lng":128.881024,"roadAddr":"경상북도 영천시 금호읍 창산길 100-29","jibunAddr":"경상북도 영천시 금호읍 원기리 277","openHours":"정시","maleToilets":17,"femaleToilets":9,"disabled":false,"diaperTable":true,"emergencyBell":false,"cctv":false,"source":"public","category":"public"},{"id":"202451000000100073","name":"어린이소공원 화장실","lat":35.931853,"lng":128.870925,"jibunAddr":"경상북도 영천시 금호읍 교대리 211-7","openHours":"상시","maleToilets":3,"femaleToilets":3,"disabled":true,"diaperTable":false,"emergencyBell":true,"cctv":false,"source":"public","category":"public"},{"id":"202451000000100115","name":"금호강변공원 화장실","lat":35.927182,"lng":128.861579,"jibunAddr":"경상북도 영천시 금호읍 덕성리 278","openHours":"상시","maleToilets":5,"femaleToilets":5,"disabled":true,"diaperTable":false,"emergencyBell":true,"cctv":false,"managerTel":"0543306892","source":"public","category":"public"},{"id":"202451000000100058","name":"금호소공원 공중화장실(2)","lat":35.931853,"lng":128.870925,"roadAddr":"경상북도 영천시 금호읍 교대리 211-7","jibunAddr":"경상북도 영천시 금호읍 교대리 211-7","openHours":"상시","maleToilets":3,"femaleToilets":3,"disabled":false,"diaperTable":false,"emergencyBell":false,"cctv":false,"source":"public","category":"public"},{"id":"202451000000100085","name":"최무선영상체험관","lat":35.907739,"lng":128.881024,"roadAddr":"경상북도 영천시 금호읍 창산길 100-29","jibunAddr":"경상북도 영천시 금호읍 원기리 277","openHours":"정시","maleToilets":3,"femaleToilets":2,"disabled":false,"diaperTable":true,"emergencyBell":false,"cctv":false,"source":"public","category":"public"},{"id":"202451000000100060","name":"금호공설시장 공중화장실","lat":35.931669,"lng":128.873358,"roadAddr":"경상북도 영천시 금호읍 금호로 101","jibunAddr":"경상북도 영천시 금호읍 교대리 167-35","openHours":"상시","maleToilets":8,"femaleToilets":8,"disabled":true,"diaperTable":false,"emergencyBell":true,"cctv":false,"source":"public","category":"public"},{"id":"202451000000100111","name":"금호체육관","lat":35.933905,"lng":128.879801,"roadAddr":"경상북도 영천시 금호읍 금호로 171","jibunAddr":"경상북도 영천시 금호읍 교대리 130-3","openHours":"상시","maleToilets":12,"femaleToilets":5,"disabled":false,"diaperTable":false,"emergencyBell":false,"cctv":false,"source":"public","category":"public"},{"id":"202451000000100113","name":"금호읍행정복지센터","lat":35.933337,"lng":128.877643,"roadAddr":"경상북도 영천시 금호읍 금호로 153","jibunAddr":"경상북도 영천시 금호읍 교대리 149-2","openHours":"정시","maleToilets":22,"femaleToilets":12,"disabled":true,"diaperTable":false,"emergencyBell":false,"cctv":false,"source":"public","category":"public"},{"id":"202451000000100059","name":"금호소공원 공중화장실(1)","lat":35.932825,"lng":128.874808,"roadAddr":"경상북도 영천시 금호읍 교대1길 24, 금호소공원공중화장실","jibunAddr":"경상북도 영천시 금호읍 교대리 173-6 금호소공원공중화장실","openHours":"상시","maleToilets":4,"femaleToilets":4,"disabled":false,"diaperTable":false,"emergencyBell":true,"cctv":false,"source":"public","category":"public"},{"id":"202451000000100112","name":"금호도서관","lat":35.934356,"lng":128.879853,"roadAddr":"경상북도 영천시 금호읍 금호로 173, 금호공공도서관","jibunAddr":"경상북도 영천시 금호읍 교대리 130-2 금호공공도서관","openHours":"상시","maleToilets":15,"femaleToilets":7,"disabled":false,"diaperTable":false,"emergencyBell":false,"cctv":false,"source":"public","category":"public"}]