[{"id":"202451000000100099","name":"충효관","lat":36.016913,"lng":128.973359,"roadAddr":"경상북도 영천시 임고면 포은로 447","jibunAddr":"경상북도 영천시 양항리 493","openHours":"상시","maleToilets":3,"femaleToilets":2,"disabled":false,"diaperTable":false,"emergencyBell":false,"cctv":false,"source":"public","category":"public"},{"id":"202451000000100100","name":"포은유물관","lat":36.016913,"lng":128.973359,"roadAddr":"경상북도 영천시 임고면 포은로 447","jibunAddr":"경상북도 영천시 양항리 493","openHours":"상시","maleToilets":4,"femaleToilets":3,"disabled":true,"diaperTable":true,"emergencyBell":false,"cctv":false,"source":"public","category":"public"},{"id":"202451000000100036","name":"임고서원 공중화장실(1)","lat":36.017111,"lng":128.972923,"roadAddr":"경상북도 영천시 임고면 포은로 453-13","jibunAddr":"경상북도 영천시 임고면 양항리 503","openHours":"상시","maleToilets":4,"femaleToilets":3,"disabled":false,"diaperTable":false,"emergencyBell":true,"cctv":false,"source":"public","category":"public"},{"id":"202451000000100035","name":"임고서원 공중화장실(2)","lat":36.015494,"lng":128.973996,"jibunAddr":"경상북도 영천시 임고면 양항리 461","openHours":"상시","maleToilets":5,"femaleToilets":6,"disabled":false,"diaperTable":false,"emergencyBell":true,"cctv":false,"source":"public","category":"public"},{"id":"202451000000100037","name":"곰들덤공원 공중화장실","lat":36.028329,"lng":128.974005,"jibunAddr":"경상북도 영천시 임고면 선원리 909-159","openHours":"상시","maleToilets":5,"femaleToilets":4,"disabled":true,"diaperTable":true,"emergencyBell":true,"cctv":false,"source":"public","category":"public"},{"id":"202451000000100101","name":"포은연수관","lat":36.016913,"lng":128.973359,"roadAddr":"경상북도 영천시 임고면 포은로 447","jibunAddr":"경상북도 영천시 양항리 493","openHours":"상시","maleToilets":5,"femaleToilets":4,"disabled":true,"diaperTable":true,"emergencyBell":false,"cctv":false,"source":"public","category":"public"},{"id":"202053800000100226","name":"신기등산로","lat":36.00206,"lng":128.956271,"roadAddr":"신기동 산 9","openHours":"상시","maleToilets":6,"femaleToilets":2,"disabled":false,"diaperTable":false,"emergencyBell":false,"cctv":false,"managerTel":"0553925473","source":"public","category":"public"}]