[{"id":"202551300000100203","name":"금호강변(창신무학앞)","lat":35.906318,"lng":128.819697,"roadAddr":"경상북도 경산시 진량읍 금호강변로 813, 공중화장실","jibunAddr":"경상북도 경산시 진량읍 부기리 624-173 공중화장실","openHours":"상시","maleToilets":2,"femaleToilets":2,"disabled":false,"diaperTable":false,"emergencyBell":true,"cctv":false,"managerTel":"0538105588","source":"public","category":"public"},{"id":"202551300000100007","name":"경산시립도서관","lat":35.913245,"lng":128.812973,"roadAddr":"경상북도 경산시 하양읍 문화로10길 15, 경산시립도서관","jibunAddr":"경상북도 경산시 하양읍 금락리 97 경산시립도서관","openHours":"08:00~22:00","maleToilets":17,"femaleToilets":17,"disabled":true,"diaperTable":false,"emergencyBell":false,"cctv":false,"managerTel":"0538047304","source":"public","category":"public"},{"id":"202551300000100084","name":"와촌파출소","lat":35.946678,"lng":128.835942,"roadAddr":"경상북도 경산시 와촌면 금송로 419, 와촌 파출소","jibunAddr":"경상북도 경산시 와촌면 소월리 22 와촌 파출소","openHours":"상시","maleToilets":3,"femaleToilets":2,"disabled":true,"diaperTable":false,"emergencyBell":false,"cctv":true,"managerTel":"0537700856","source":"public","category":"public"},{"id":"202551300000100034","name":"와촌면행정복지센터","lat":35.946245,"lng":128.836851,"roadAddr":"경상북도 경산시 와촌면 금송로 416, 와촌면 행정복지센터, 와촌보건지소","jibunAddr":"경상북도 경산시 와촌면 덕촌리 57-1 와촌면 행정복지센터, 와촌보건지소","openHours":"09:00~18:00","maleToilets":8,"femaleToilets":4,"disabled":false,"diaperTable":false,"emergencyBell":false,"cctv":false,"managerTel":"0538047474","source":"public","category":"public"},{"id":"202551300000100260","name":"하양공설시장(현대화)","lat":35.915632,"lng":128.819253,"roadAddr":"경상북도 경산시 하양읍 대학로 1543","jibunAddr":"경상북도 경산시 하양읍 금락리 35-6","openHours":"08:00~21:00","maleToilets":16,"femaleToilets":16,"disabled":true,"diaperTable":false,"emergencyBell":false,"cctv":false,"managerTel":"0538105120","source":"public","category":"public"},{"id":"202551300000100087","name":"하양파출소","lat":35.927338,"lng":128.825343,"roadAddr":"경상북도 경산시 하양읍 금송로 179, 하양파출소","jibunAddr":"경상북도 경산시 하양읍 한사리 497-8 하양파출소","openHours":"상시","maleToilets":9,"femaleToilets":2,"disabled":false,"diaperTable":false,"emergencyBell":false,"cctv":false,"managerTel":"0538532112","source":"public","category":"public"},{"id":"202551300000100261","name":"하양공설시장","lat":35.915327,"lng":128.820489,"roadAddr":"경상북도 경산시 하양읍 대학로 1544","jibunAddr":"경상북도 경산시 하양읍 금락리 35-89","openHours":"08:00~21:00","maleToilets":10,"femaleToilets":7,"disabled":false,"diaperTable":false,"emergencyBell":false,"cctv":false,"managerTel":"0538105120","source":"public","category":"public"},{"id":"202551300000100236","name":"3호 근린공원(서사근린공원)","lat":35.918282,"lng":128.805943,"roadAddr":"경상북도 경산시 하양읍 서사도리로 53","jibunAddr":"경상북도 경산시 하양읍 서사리 283","openHours":"상시","maleToilets":6,"femaleToilets":6,"disabled":true,"diaperTable":false,"emergencyBell":false,"cctv":false,"managerTel":"0538106158","source":"public","category":"public"},{"id":"202551300000100224","name":"금락5어린이공원","lat":35.908693,"lng":128.817761,"roadAddr":"경상북도 경산시 하양읍 대학로295길 52","openHours":"상시","maleToilets":4,"femaleToilets":4,"disabled":true,"diaperTable":false,"emergencyBell":true,"cctv":false,"managerTel":"0538106158","source":"public","category":"public"},{"id":"202551300000100056","name":"하양119안전센터","lat":35.915138,"lng":128.825772,"roadAddr":"경상북도 경산시 하양읍 대경로 793 (동서리 752번지 2호)","openHours":"09:00~18:00","maleToilets":4,"femaleToilets":1,"disabled":false,"diaperTable":false,"emergencyBell":false,"cctv":false,"managerTel":"0538196224","source":"public","category":"public"},{"id":"202551300000100187","name":"하양역","lat":35.91007,"lng":128.818369,"roadAddr":"경상북도 경산시 하양읍 하양역길 1, 하양역","jibunAddr":"경상북도 경산시 하양읍 금락리 133-43 하양역","openHours":"05:50-23:00","maleToilets":7,"femaleToilets":9,"disabled":true,"diaperTable":true,"emergencyBell":true,"cctv":true,"managerTel":"0538511130","source":"public","category":"public"},{"id":"202551300000100060","name":"경산와촌우체국","lat":35.945629,"lng":128.836078,"roadAddr":"경상북도 경산시 와촌면 금송로 410","jibunAddr":"경상북도 경산시 와촌면 덕촌리 63-2","openHours":"09:00~18:00","maleToilets":2,"femaleToilets":1,"disabled":false,"diaperTable":false,"emergencyBell":false,"cctv":false,"managerTel":"0538520001","source":"public","category":"public"},{"id":"202551300000100244","name":"동서3어린이공원","lat":35.918891,"lng":128.828117,"roadAddr":"경상북도 경산시 하양읍 하양로37길 18","jibunAddr":"경상북도 경산시 하양읍 동서리 1054-7","openHours":"상시","maleToilets":1,"femaleToilets":1,"disabled":true,"diaperTable":true,"emergencyBell":false,"cctv":false,"managerTel":"0538106158","source":"public","category":"public"},{"id":"202551300000100013","name":"경산시문화회관","lat":35.911523,"lng":128.812804,"roadAddr":"경상북도 경산시 하양읍 문화로 24, 경산시문화회관","jibunAddr":"경상북도 경산시 하양읍 금락리 123-8 경산시문화회관","openHours":"09:00~18:00","maleToilets":11,"femaleToilets":11,"disabled":false,"diaperTable":false,"emergencyBell":false,"cctv":true,"managerTel":"0538047282","source":"public","category":"public"},{"id":"202551300000100070","name":"경산하양우체국","lat":35.913067,"lng":128.818586,"roadAddr":"경상북도 경산시 하양읍 하양로 100","jibunAddr":"경상북도 경산시 하양읍 금락리 133-8","openHours":"09:00~18:00","maleToilets":3,"femaleToilets":2,"disabled":false,"diaperTable":false,"emergencyBell":false,"cctv":false,"managerTel":"0538530001","source":"public","category":"public"},{"id":"202551300000100049","name":"하양읍행정복지센터","lat":35.912373,"lng":128.812387,"roadAddr":"경상북도 경산시 하양읍 문화로 36, 하양읍 행정복지센터","jibunAddr":"경상북도 경산시 하양읍 금락리 123-10 하양읍 행정복지센터","openHours":"09:00~18:00","maleToilets":10,"femaleToilets":10,"disabled":false,"diaperTable":true,"emergencyBell":false,"cctv":false,"managerTel":"0538047354","source":"public","category":"public"},{"id":"202551300000100272","name":"경산시어르신종합복지관","lat":35.911804,"lng":128.813804,"roadAddr":"경상북도 경산시 하양읍 문화로 32, 경산시 제2노인복지관","jibunAddr":"경상북도 경산시 하양읍 금락리 124 경산시 제2노인복지관","openHours":"08:00~18:00","maleToilets":15,"femaleToilets":16,"disabled":true,"diaperTable":true,"emergencyBell":true,"cctv":false,"managerTel":"0538541666","source":"public","category":"public"},{"id":"202551300000100235","name":"1호 근린공원(도리근린공원)","lat":35.918035,"lng":128.810907,"roadAddr":"경상북도 경산시 하양읍 서사도리5로 10","jibunAddr":"경상북도 경산시 하양읍 서사리 348","openHours":"상시","maleToilets":3,"femaleToilets":3,"disabled":true,"diaperTable":false,"emergencyBell":false,"cctv":false,"managerTel":"0538106158","source":"public","category":"public"}]