[{"id":"202434200000100730","name":"갓바위주차장","lat":35.970204,"lng":128.726566,"jibunAddr":"대구광역시 동구 진인동 123-12","openHours":"상시","maleToilets":5,"femaleToilets":4,"disabled":true,"diaperTable":false,"emergencyBell":false,"cctv":false,"managerTel":"0536622867","source":"public","category":"public"},{"id":"202434200000100731","name":"갓바위지구 광장","lat":35.97226,"lng":128.728082,"roadAddr":"대구광역시 동구 갓바위로 267(진인동)","jibunAddr":"대구광역시 동구 진인동 123-1","openHours":"상시","maleToilets":3,"femaleToilets":7,"disabled":true,"diaperTable":false,"emergencyBell":true,"cctv":true,"managerTel":"0538037111","source":"public","category":"public"},{"id":"202551300000100252","name":"갓바위2지구화장실1","lat":35.977977,"lng":128.752257,"roadAddr":"경상북도 경산시 와촌면 대한리 산 44번지","openHours":"상시","maleToilets":7,"femaleToilets":5,"disabled":false,"diaperTable":false,"emergencyBell":false,"cctv":false,"managerTel":"0549708300","source":"public","category":"public"},{"id":"202551300000100267","name":"갓바위주차장(하)","lat":35.985013,"lng":128.749581,"roadAddr":"경상북도 경산시 와촌면 대한리 537번지","openHours":"상시","maleToilets":7,"femaleToilets":11,"disabled":true,"diaperTable":true,"emergencyBell":false,"cctv":false,"managerTel":"0538105521","source":"public","category":"public"},{"id":"202551300000100250","name":"갓바위2지구화장실2","lat":35.978029,"lng":128.743429,"roadAddr":"경상북도 경산시 와촌면 갓바위로81길 169, 공중화장실","jibunAddr":"경상북도 경산시 와촌면 대한리 산 44-10 공중화장실","openHours":"상시","maleToilets":4,"femaleToilets":3,"disabled":false,"diaperTable":false,"emergencyBell":false,"cctv":false,"managerTel":"0549708300","source":"public","category":"public"},{"id":"202551300000100251","name":"갓바위1지구 화장실","lat":35.986312,"lng":128.740266,"roadAddr":"경상북도 경산시 와촌면 갓바위로 679, 공중화장실","jibunAddr":"경상북도 경산시 와촌면 대한리 586-1 공중화장실","openHours":"상시","maleToilets":6,"femaleToilets":9,"disabled":false,"diaperTable":false,"emergencyBell":false,"cctv":false,"managerTel":"0549708300","source":"public","category":"public"}]