[{"id":"202450200000101299","name":"구도일주유소","lat":35.984474,"lng":129.361375,"roadAddr":"경상북도 포항시 남구 대송면 대송로 23","openHours":"상시","maleToilets":4,"femaleToilets":2,"disabled":false,"diaperTable":false,"emergencyBell":false,"cctv":false,"managerTel":"0542745189","source":"public","category":"public"},{"id":"202450200000101008","name":"홍계숲 화장실","lat":35.95266,"lng":129.338573,"roadAddr":"경상북도 포항시 남구 대송면 장동홍계길 321-15","jibunAddr":"경상북도 포항시 남구 대송면 홍계리 462-2","openHours":"상시","maleToilets":2,"femaleToilets":1,"disabled":false,"diaperTable":false,"emergencyBell":false,"cctv":false,"managerTel":"0542706627","source":"public","category":"public"},{"id":"202450200000101320","name":"대성산업(주)연일공단주유소","lat":35.989659,"lng":129.354119,"roadAddr":"경상북도 포항시 남구 연일읍 철강로 105","openHours":"정시","maleToilets":4,"femaleToilets":1,"disabled":false,"diaperTable":false,"emergencyBell":false,"cctv":false,"managerTel":"0542852012","source":"public","category":"public"},{"id":"202450200000101329","name":"대송IC주유소","lat":35.980423,"lng":129.368735,"roadAddr":"경상북도 포항시 남구 대송면 장흥로 14","openHours":"상시","maleToilets":4,"femaleToilets":2,"disabled":false,"diaperTable":false,"emergencyBell":false,"cctv":true,"managerTel":"0542755145","source":"public","category":"public"},{"id":"202450200000101389","name":"현대오일뱅크","lat":35.987829,"lng":129.359794,"roadAddr":"경상북도 포항시 남구 대송면 철강로 158","openHours":"상시","maleToilets":2,"femaleToilets":1,"disabled":false,"diaperTable":false,"emergencyBell":false,"cctv":true,"managerTel":"0542723937","source":"public","category":"public"},{"id":"202450200000101330","name":"대송주유소(SK엔크린)","lat":35.982862,"lng":129.368303,"roadAddr":"경상북도 포항시 남구 대송면 철강로 254","openHours":"상시","maleToilets":4,"femaleToilets":2,"disabled":false,"diaperTable":false,"emergencyBell":false,"cctv":false,"managerTel":"0542850223","source":"public","category":"public"},{"id":"202250300000100046","name":"대송면 용암사","lat":35.949875,"lng":129.339545,"jibunAddr":"경상북도 포항시 남구 대송면 홍계리 산 161","openHours":"00:00 ~ 24:00","maleToilets":2,"femaleToilets":2,"disabled":false,"diaperTable":false,"emergencyBell":false,"cctv":false,"source":"public","category":"public"},{"id":"202250300000100047","name":"대송면 운제산등산로","lat":35.949526,"lng":129.358723,"roadAddr":"경상북도 포항시 남구 대송면 운제로386번길 69","jibunAddr":"경상북도 포항시 남구 대송면 대각리 583-1","openHours":"00:00 ~ 24:00","maleToilets":2,"femaleToilets":2,"disabled":false,"diaperTable":false,"emergencyBell":false,"cctv":false,"source":"public","category":"public"},{"id":"202450200000101010","name":"운제산등산로 화장실","lat":35.949526,"lng":129.358723,"roadAddr":"경상북도 포항시 남구 대송면 운제로386번길69","jibunAddr":"경상북도 포항시 남구 대송면 대각리 583-1","openHours":"상시","maleToilets":2,"femaleToilets":2,"disabled":false,"diaperTable":false,"emergencyBell":false,"cctv":false,"managerTel":"0542706627","source":"public","category":"public"},{"id":"202450200000101304","name":"그린주유소","lat":35.990067,"lng":129.351976,"roadAddr":"경상북도 포항시 남구 연일읍 철강로 81","openHours":"정시","maleToilets":5,"femaleToilets":1,"disabled":false,"diaperTable":false,"emergencyBell":false,"cctv":false,"managerTel":"0542865101","source":"public","category":"public"},{"id":"202450200000101009","name":"용암사 화장실","lat":35.95005,"lng":129.339434,"roadAddr":"경상북도 포항시 남구 대송면 장동홍계길 321-64","jibunAddr":"경상북도 포항시 남구 대송면 홍계리 산161","openHours":"상시","maleToilets":2,"femaleToilets":2,"disabled":false,"diaperTable":false,"emergencyBell":false,"cctv":false,"managerTel":"0542706627","source":"public","category":"public"},{"id":"202250300000100045","name":"대송면 홍계숲","lat":35.952322,"lng":129.338555,"jibunAddr":"경상북도 포항시 남구 대송면 홍계리 462-2","openHours":"00:00 ~ 24:00","maleToilets":2,"femaleToilets":1,"disabled":false,"diaperTable":false,"emergencyBell":false,"cctv":false,"source":"public","category":"public"},{"id":"202450200000101364","name":"명가주유소","lat":35.983088,"lng":129.367603,"roadAddr":"경상북도 포항시 남구 대송면 철강로 246(제내리 362-1)","openHours":"상시","maleToilets":4,"femaleToilets":2,"disabled":false,"diaperTable":false,"emergencyBell":false,"cctv":false,"managerTel":"0542855191","source":"public","category":"public"}]