[{"id":"202450200000101246","name":"자연발생유원지해수욕장 화장실","lat":36.207978,"lng":129.372839,"roadAddr":"경상북도 포항시 북구 청하면 해안로 2452","jibunAddr":"경상북도 포항시 북구 청하면 월포리 3-21","openHours":"상시","maleToilets":2,"femaleToilets":2,"disabled":false,"diaperTable":false,"emergencyBell":false,"cctv":false,"managerTel":"0542407625","source":"public","category":"public"},{"id":"202450200000101357","name":"한일주유소 화장실","lat":36.20151,"lng":129.35274,"roadAddr":"경상북도 포항시 북구 청하면 동해대로 2630","openHours":"상시","maleToilets":5,"femaleToilets":2,"disabled":false,"diaperTable":false,"emergencyBell":false,"cctv":false,"managerTel":"0542324466","source":"public","category":"public"},{"id":"202450200000101220","name":"월포역","lat":36.204109,"lng":129.366943,"roadAddr":"경상북도 포항시 북구 청하면 월포로 137","jibunAddr":"경상북도 포항시 북구 청하면 월포리 404-3","openHours":"07:00~21:00","maleToilets":5,"femaleToilets":6,"disabled":true,"diaperTable":true,"emergencyBell":true,"cctv":true,"managerTel":"15447788","source":"public","category":"public"},{"id":"202450200000101270","name":"월포주유소 화장실","lat":36.191621,"lng":129.350407,"roadAddr":"경상북도 포항시 북구 청하면 동해대로 2520","openHours":"상시","maleToilets":4,"femaleToilets":1,"disabled":false,"diaperTable":false,"emergencyBell":false,"cctv":false,"managerTel":"0542558822","source":"public","category":"public"},{"id":"202450200000101240","name":"청하재래시장 화장실","lat":36.197075,"lng":129.339661,"roadAddr":"경상북도 포항시 북구 청하면 청하로200번길 4","jibunAddr":"경상북도 포항시 북구 청하면 미남리 382-3","openHours":"상시","maleToilets":5,"femaleToilets":4,"disabled":false,"diaperTable":false,"emergencyBell":false,"cctv":false,"managerTel":"0542407622","source":"public","category":"public"},{"id":"202450200000101242","name":"월포2리 화장실","lat":36.205404,"lng":129.370347,"roadAddr":"경상북도 포항시 북구 청하면 해안로2394번길","jibunAddr":"경상북도 포항시 북구 청하면 월포리 월포해수욕장 내","openHours":"상시","maleToilets":12,"femaleToilets":2,"disabled":false,"diaperTable":false,"emergencyBell":true,"cctv":false,"managerTel":"0542407614","source":"public","category":"public"},{"id":"202450200000101379","name":"성화주유소 화장실","lat":36.181439,"lng":129.340408,"roadAddr":"경상북도 포항시 북구 청하면 청하로 14","openHours":"상시","maleToilets":3,"femaleToilets":1,"disabled":false,"diaperTable":false,"emergencyBell":false,"cctv":false,"managerTel":"0542324242","source":"public","category":"public"},{"id":"202450200000101244","name":"월포해수욕장 중앙화장실","lat":36.205404,"lng":129.370347,"roadAddr":"경상북도 포항시 북구 청하면 해안로2394번길","jibunAddr":"경상북도 포항시 북구 청하면 월포리 월포해수욕장 내","openHours":"상시","maleToilets":9,"femaleToilets":6,"disabled":true,"diaperTable":true,"emergencyBell":true,"cctv":false,"managerTel":"0542407614","source":"public","category":"public"},{"id":"202450200000101298","name":"(주)공단주유소 화장실","lat":36.177068,"lng":129.339403,"roadAddr":"경상북도 포항시 북구 청하면 동해대로 2333","openHours":"상시","maleToilets":5,"femaleToilets":2,"disabled":false,"diaperTable":false,"emergencyBell":false,"cctv":false,"managerTel":"0542323232","source":"public","category":"public"},{"id":"202450200000101058","name":"월포 공영주차장 화장실","lat":36.200597,"lng":129.368621,"jibunAddr":"경상북도 포항시 북구 청하면 용두리 158-2","openHours":"상시","maleToilets":0,"femaleToilets":0,"disabled":false,"diaperTable":false,"emergencyBell":false,"cctv":false,"managerTel":"0542703639","source":"public","category":"public"},{"id":"202450200000101245","name":"자연발생유원지해수욕장화장실","lat":36.19485,"lng":129.372711,"roadAddr":"경상북도 포항시 북구 청하면 해안로 2260","jibunAddr":"경상북도 포항시 북구 청하면 용두1리 (용두1리 마을회관 뒷)","openHours":"상시","maleToilets":7,"femaleToilets":4,"disabled":true,"diaperTable":false,"emergencyBell":false,"cctv":false,"managerTel":"0542407625","source":"public","category":"public"},{"id":"202450200000101243","name":"월포해수욕장 북부화장실","lat":36.205404,"lng":129.370347,"roadAddr":"경상북도 포항시 북구 청하면 해안로2394번길","jibunAddr":"경상북도 포항시 북구 청하면 월포리 월포해수욕장 내","openHours":"상시","maleToilets":12,"femaleToilets":2,"disabled":false,"diaperTable":false,"emergencyBell":true,"cctv":false,"managerTel":"0542407614","source":"public","category":"public"},{"id":"202450200000101350","name":"포항청하주유소 화장실","lat":36.182716,"lng":129.342533,"roadAddr":"경상북도 포항시 북구 청하면 동해대로 2400","openHours":"상시","maleToilets":3,"femaleToilets":1,"disabled":false,"diaperTable":false,"emergencyBell":false,"cctv":false,"managerTel":"0542624440","source":"public","category":"public"},{"id":"202450200000101349","name":"청하셀프주유소 화장실","lat":36.183454,"lng":129.342093,"roadAddr":"경상북도 포항시 북구 청하면 동해대로 2405","openHours":"상시","maleToilets":3,"femaleToilets":3,"disabled":false,"diaperTable":false,"emergencyBell":false,"cctv":false,"managerTel":"0542545100","source":"public","category":"public"},{"id":"202450200000101241","name":"미남리환승정류장 화장실","lat":36.19455,"lng":129.338736,"roadAddr":"경상북도 포항시 북구 청하로 169","jibunAddr":"경상북도 포항시 북구 청하면 미남리 446-5","openHours":"상시","maleToilets":2,"femaleToilets":0,"disabled":false,"diaperTable":false,"emergencyBell":false,"cctv":false,"managerTel":"0542508500","source":"public","category":"public"},{"id":"202450200000101239","name":"청하면행정복지센터","lat":36.199562,"lng":129.337947,"roadAddr":"경상북도 포항시 북구 청하면 청하로217번길22","jibunAddr":"경상북도 포항시 북구 청하면 덕성리 276-3","openHours":"09:00~18:00","maleToilets":6,"femaleToilets":2,"disabled":true,"diaperTable":false,"emergencyBell":false,"cctv":false,"managerTel":"0542407625","source":"public","category":"public"},{"id":"202450200000101382","name":"(주)클라베 소동주유소 화장실","lat":36.170761,"lng":129.340035,"roadAddr":"경상북도 포항시 북구 청하면 동해대로 2262","openHours":"상시","maleToilets":3,"femaleToilets":2,"disabled":false,"diaperTable":false,"emergencyBell":false,"cctv":false,"managerTel":"0542325665","source":"public","category":"public"}]