[{"id":"202450200000101371","name":"비학산주유소 화장실","lat":36.129782,"lng":129.276794,"roadAddr":"경상북도 포항시 북구 신흥로 221","openHours":"상시","maleToilets":3,"femaleToilets":1,"disabled":false,"diaperTable":false,"emergencyBell":false,"cctv":false,"managerTel":"0542436064","source":"public","category":"public"},{"id":"202450200000101054","name":"신포항농협주유소 화장실","lat":36.124749,"lng":129.258281,"roadAddr":"경상북도 포항시 북구 신광면 비학로 803","jibunAddr":"경상북도 포항시 북구 신광면 죽성리 69-1","openHours":"상시","maleToilets":2,"femaleToilets":1,"disabled":false,"diaperTable":false,"emergencyBell":false,"cctv":false,"managerTel":"0542430951","source":"public","category":"public"},{"id":"202450200000101049","name":"용호교 옆 화장실","lat":36.130009,"lng":129.281952,"jibunAddr":"경상북도 포항시 북구 신광면 사정리 4-1","openHours":"상시","maleToilets":4,"femaleToilets":1,"disabled":false,"diaperTable":false,"emergencyBell":false,"cctv":false,"managerTel":"0542407591","source":"public","category":"public"},{"id":"202450200000101052","name":"법광사입구 주차장 내 화장실","lat":36.141869,"lng":129.251507,"roadAddr":"경상북도 포항시 북구 신광면 상읍길 165","jibunAddr":"경상북도 포항시 북구 신광면 상읍리 949","openHours":"상시","maleToilets":4,"femaleToilets":2,"disabled":false,"diaperTable":false,"emergencyBell":false,"cctv":false,"managerTel":"0542407591","source":"public","category":"public"},{"id":"202450200000101055","name":"SK엔크린비학산주유소 화장실","lat":36.129782,"lng":129.276794,"roadAddr":"경상북도 포항시 북구 신흥로 221","jibunAddr":"경상북도 포항시 북구 사정리 133","openHours":"상시","maleToilets":3,"femaleToilets":1,"disabled":false,"diaperTable":false,"emergencyBell":false,"cctv":false,"managerTel":"0542436064","source":"public","category":"public"},{"id":"202450200000101053","name":"신광면행정복지센터 화장실","lat":36.130145,"lng":129.262972,"roadAddr":"경상북도 포항시 북구 신광면 토성길37번길 13","jibunAddr":"경상북도 포항시 북구 신광면 토성리 340-3","openHours":"정시","maleToilets":3,"femaleToilets":1,"disabled":true,"diaperTable":false,"emergencyBell":false,"cctv":false,"managerTel":"0542407591","source":"public","category":"public"}]