[{"id":"202450700000100916","name":"대사1리 대사1교 전 우측","lat":36.371151,"lng":128.940739,"jibunAddr":"경상북도 안동시 길안면 대사리 785","openHours":"상시","maleToilets":0,"femaleToilets":0,"disabled":false,"diaperTable":false,"emergencyBell":false,"cctv":false,"source":"public","category":"public"},{"id":"202450700000100921","name":"대사1리 대사2교 전 우측","lat":36.367995,"lng":128.958028,"jibunAddr":"경상북도 안동시 길안면 대사리 산163-1","openHours":"상시","maleToilets":0,"femaleToilets":0,"disabled":false,"diaperTable":false,"emergencyBell":false,"cctv":false,"source":"public","category":"public"},{"id":"202450700000100919","name":"대사1리 중사교 전 우측","lat":36.366672,"lng":128.960398,"jibunAddr":"경상북도 안동시 길안면 대사리 239","openHours":"상시","maleToilets":0,"femaleToilets":0,"disabled":false,"diaperTable":false,"emergencyBell":false,"cctv":false,"source":"public","category":"public"},{"id":"202450700000100920","name":"대사1리 토일마을회관 앞","lat":36.371151,"lng":128.940739,"jibunAddr":"경상북도 안동시 길안면 대사리 785","openHours":"상시","maleToilets":0,"femaleToilets":0,"disabled":false,"diaperTable":false,"emergencyBell":false,"cctv":false,"source":"public","category":"public"},{"id":"202450700000100913","name":"대사1리 토일마을 입구","lat":36.370221,"lng":128.940357,"jibunAddr":"경상북도 안동시 길안면 대사리 600-2","openHours":"상시","maleToilets":1,"femaleToilets":0,"disabled":false,"diaperTable":false,"emergencyBell":false,"cctv":false,"source":"public","category":"public"},{"id":"202450700000100917","name":"대사1리 대사1교 건너우측","lat":36.371151,"lng":128.940739,"jibunAddr":"경상북도 안동시 길안면 대사리 785","openHours":"상시","maleToilets":0,"femaleToilets":0,"disabled":false,"diaperTable":false,"emergencyBell":false,"cctv":false,"source":"public","category":"public"},{"id":"202450700000100915","name":"대사1리 한밤보 입구(2)","lat":36.362385,"lng":128.950087,"jibunAddr":"경상북도 안동시 길안면 대사리 447-2","openHours":"상시","maleToilets":0,"femaleToilets":0,"disabled":false,"diaperTable":false,"emergencyBell":false,"cctv":false,"source":"public","category":"public"},{"id":"202450700000100922","name":"대사1리 대사3교 건너 좌측","lat":36.365998,"lng":128.95983,"jibunAddr":"경상북도 안동시 길안면 대사리 301","openHours":"상시","maleToilets":0,"femaleToilets":0,"disabled":false,"diaperTable":false,"emergencyBell":false,"cctv":false,"source":"public","category":"public"},{"id":"202450700000100918","name":"대사1리 대사1교 건너좌측","lat":36.366987,"lng":128.954342,"roadAddr":"경상북도 안동시 길안면 대사로 595","jibunAddr":"경상북도 안동시 길안면 대사리 785","openHours":"상시","maleToilets":0,"femaleToilets":0,"disabled":false,"diaperTable":false,"emergencyBell":false,"cctv":false,"source":"public","category":"public"},{"id":"202450700000100914","name":"대사1리 한밤보 입구","lat":36.362385,"lng":128.950087,"jibunAddr":"경상북도 안동시 길안면 대사리 447-2","openHours":"상시","maleToilets":0,"femaleToilets":0,"disabled":false,"diaperTable":false,"emergencyBell":false,"cctv":false,"source":"public","category":"public"},{"id":"202651600000100116","name":"고와1교","lat":36.368484,"lng":128.972137,"jibunAddr":"경상북도 청송군 안덕면 고와리 528-2","openHours":"상시","maleToilets":2,"femaleToilets":1,"disabled":false,"diaperTable":false,"emergencyBell":false,"cctv":false,"source":"public","category":"public"},{"id":"202651600000100117","name":"고와2교","lat":36.368484,"lng":128.972137,"jibunAddr":"경상북도 청송군 안덕면 고와리 528-2","openHours":"상시","maleToilets":2,"femaleToilets":1,"disabled":false,"diaperTable":false,"emergencyBell":false,"cctv":false,"source":"public","category":"public"},{"id":"202651600000100118","name":"안동경계(중사교 가기전)","lat":36.366402,"lng":128.963283,"jibunAddr":"경상북도 청송군 안덕면 고와리 565","openHours":"상시","maleToilets":2,"femaleToilets":2,"disabled":false,"diaperTable":false,"emergencyBell":false,"cctv":false,"source":"public","category":"public"}]