[{"id":"202651600000100197","name":"주산지공용버스터미널","lat":36.356849,"lng":129.158937,"roadAddr":"경상북도 청송군 주왕산면 부동로 1013","jibunAddr":"경상북도 청송군 주왕산면 주산지리 828-1","openHours":"상시","maleToilets":2,"femaleToilets":2,"disabled":false,"diaperTable":false,"emergencyBell":true,"cctv":false,"source":"public","category":"public"},{"id":"202651600000100161","name":"주왕산면사무소","lat":36.356889,"lng":129.159398,"roadAddr":"경상북도 청송군 주왕산면 이전앞길 1, 주왕산면사무소","jibunAddr":"경상북도 청송군 주왕산면 주산지리 829-5 주왕산면사무소","openHours":"상시","maleToilets":3,"femaleToilets":1,"disabled":false,"diaperTable":false,"emergencyBell":false,"cctv":false,"source":"public","category":"public"},{"id":"202651600000100162","name":"청송농협부동주유소","lat":36.357895,"lng":129.16242,"roadAddr":"경상북도 청송군 주왕산면 주왕산로 1264","jibunAddr":"경상북도 청송군 주왕산면 주산지리 576-4","openHours":"정시","maleToilets":2,"femaleToilets":2,"disabled":false,"diaperTable":false,"emergencyBell":false,"cctv":false,"source":"public","category":"public"},{"id":"202651600000100163","name":"청송중부동분교","lat":36.358002,"lng":129.157434,"roadAddr":"경상북도 청송군 주왕산면 부동로 1011-28 (청송중학교부동분교장)","jibunAddr":"경상북도 청송군 주왕산면 주산지리 916 청송중학교부동분교장","openHours":"정시","maleToilets":9,"femaleToilets":6,"disabled":false,"diaperTable":false,"emergencyBell":false,"cctv":false,"source":"public","category":"public"},{"id":"202651600000100069","name":"주산지 주차장","lat":36.363281,"lng":129.179679,"roadAddr":"경상북도 청송군 주왕산면 주산지길 167","jibunAddr":"경상북도 청송군 주왕산면 주산지리 88","openHours":"상시","maleToilets":3,"femaleToilets":2,"disabled":false,"diaperTable":false,"emergencyBell":true,"cctv":false,"source":"public","category":"public"},{"id":"202651600000100071","name":"피나무골 주차장","lat":36.348024,"lng":129.182258,"jibunAddr":"경상북도 청송군 주왕산면 주산지리 산 35-4","openHours":"상시","maleToilets":2,"femaleToilets":1,"disabled":false,"diaperTable":false,"emergencyBell":false,"cctv":false,"source":"public","category":"public"}]