[{"id":"202450200000101200","name":"학생야영장 옆","lat":36.300678,"lng":129.24808,"roadAddr":"경상북도 포항시 북구 죽장면 죽장로 2784","jibunAddr":"경상북도 포항시 북구 죽장면 하옥리 599-1","openHours":"정시","maleToilets":4,"femaleToilets":2,"disabled":false,"diaperTable":false,"emergencyBell":false,"cctv":false,"managerTel":"0542707687","source":"public","category":"public"},{"id":"202250400000100065","name":"새태양지 마을","lat":36.303701,"lng":129.249303,"roadAddr":"경상북도 포항시 북구 죽장면 죽장로 2821","jibunAddr":"경상북도 포항시 북구 죽장면 하옥리 482-4","openHours":"09~18","maleToilets":1,"femaleToilets":1,"disabled":false,"diaperTable":false,"emergencyBell":false,"cctv":false,"source":"public","category":"public"},{"id":"202250400000100035","name":"기도원 맞은 편 화장실","lat":36.306908,"lng":129.250589,"roadAddr":"경상북도 포항시 북구 죽장면 죽장로 2868","jibunAddr":"경상북도 포항시 북구 죽장면 하옥리 548","openHours":"09~18","maleToilets":2,"femaleToilets":1,"disabled":false,"diaperTable":false,"emergencyBell":false,"cctv":true,"source":"public","category":"public"},{"id":"202250400000100037","name":"논골교(우)","lat":36.32135,"lng":129.267533,"roadAddr":"경상북도 포항시 북구 죽장면 죽장로 3160","jibunAddr":"경상북도 포항시 북구 죽장면 하옥리 238-2","openHours":"09~18","maleToilets":1,"femaleToilets":1,"disabled":false,"diaperTable":false,"emergencyBell":false,"cctv":true,"source":"public","category":"public"},{"id":"202450200000101179","name":"논골교(좌)","lat":36.32135,"lng":129.267533,"roadAddr":"경상북도 포항시 북구 죽장면 죽장로 3160","jibunAddr":"경상북도 포항시 북구 죽장면 지동리 829-46","openHours":"정시","maleToilets":3,"femaleToilets":2,"disabled":false,"diaperTable":false,"emergencyBell":false,"cctv":false,"managerTel":"0542707687","source":"public","category":"public"},{"id":"202450200000101186","name":"옥계경계지역","lat":36.322879,"lng":129.2673,"roadAddr":"경상북도 포항시 북구 죽장면 수석봉길 30","jibunAddr":"경상북도 포항시 북구 죽장면 하옥리 산224-19","openHours":"정시","maleToilets":3,"femaleToilets":2,"disabled":false,"diaperTable":false,"emergencyBell":false,"cctv":false,"managerTel":"0542707687","source":"public","category":"public"},{"id":"202450200000101177","name":"기도원 맞은편","lat":36.306908,"lng":129.250589,"roadAddr":"경상북도 포항시 북구 죽장면 죽장로 2868","jibunAddr":"경상북도 포항시 북구 죽장면 하옥리 549-3","openHours":"정시","maleToilets":5,"femaleToilets":2,"disabled":false,"diaperTable":false,"emergencyBell":false,"cctv":false,"managerTel":"0542707687","source":"public","category":"public"},{"id":"202450200000101207","name":"새태양지마을","lat":36.313153,"lng":129.252294,"roadAddr":"경상북도 포항시 북구 죽장면 하옥리 332-1","openHours":"정시","maleToilets":4,"femaleToilets":2,"disabled":false,"diaperTable":false,"emergencyBell":false,"cctv":false,"managerTel":"0542707687","source":"public","category":"public"},{"id":"202451800000100081","name":"옥산3리 마을 앞","lat":36.341057,"lng":129.273139,"jibunAddr":"경상북도 영덕군 달산면 옥산리 857","openHours":"상시","maleToilets":6,"femaleToilets":3,"disabled":false,"diaperTable":false,"emergencyBell":true,"cctv":false,"managerTel":"0547307404","source":"public","category":"public"},{"id":"202451800000100084","name":"옥계리 하천 건너편","lat":36.330718,"lng":129.267253,"jibunAddr":"경상북도 영덕군 달산면 옥계리 232","openHours":"상시","maleToilets":2,"femaleToilets":1,"disabled":false,"diaperTable":false,"emergencyBell":false,"cctv":false,"managerTel":"0547307404","source":"public","category":"public"},{"id":"202451800000100077","name":"옥계리 옥계1교 부근(침수정 뒤)","lat":36.331084,"lng":129.266668,"jibunAddr":"경상북도 영덕군 달산면 옥계리 27-3","openHours":"상시","maleToilets":2,"femaleToilets":1,"disabled":false,"diaperTable":false,"emergencyBell":true,"cctv":false,"managerTel":"0547307404","source":"public","category":"public"},{"id":"202451800000100090","name":"옥계민박(강근수 집) 앞","lat":36.329906,"lng":129.256856,"roadAddr":"경상북도 영덕군 달산면 팔각산로 638-16","openHours":"상시","maleToilets":2,"femaleToilets":1,"disabled":false,"diaperTable":false,"emergencyBell":false,"cctv":false,"managerTel":"0547307404","source":"public","category":"public"},{"id":"202451800000100076","name":"옥계리 금황사","lat":36.334728,"lng":129.272057,"jibunAddr":"경상북도 영덕군 달산면 옥산리 686-6","openHours":"상시","maleToilets":4,"femaleToilets":2,"disabled":true,"diaperTable":false,"emergencyBell":true,"cctv":false,"managerTel":"0547307404","source":"public","category":"public"},{"id":"202451800000100071","name":"옥계리 팔각산장 앞","lat":36.330718,"lng":129.267253,"jibunAddr":"경상북도 영덕군 달산면 옥계리 232","openHours":"상시","maleToilets":6,"femaleToilets":3,"disabled":false,"diaperTable":false,"emergencyBell":true,"cctv":false,"managerTel":"0547307404","source":"public","category":"public"},{"id":"202451800000100072","name":"옥계유원지 승강장 옆","lat":36.330718,"lng":129.267253,"jibunAddr":"경상북도 영덕군 달산면 옥계리 232","openHours":"상시","maleToilets":18,"femaleToilets":5,"disabled":false,"diaperTable":false,"emergencyBell":true,"cctv":false,"managerTel":"0547307404","source":"public","category":"public"},{"id":"202451800000100087","name":"옥계리 옥련암 입구","lat":36.322831,"lng":129.266364,"jibunAddr":"경상북도 영덕군 달산면 옥계리 219","openHours":"상시","maleToilets":2,"femaleToilets":1,"disabled":false,"diaperTable":false,"emergencyBell":false,"cctv":false,"managerTel":"0547307404","source":"public","category":"public"},{"id":"202451800000100086","name":"옥계리 원감다리 옆","lat":36.330118,"lng":129.26388,"roadAddr":"경상북도 영덕군 달산면 팔각산로 740-35","openHours":"상시","maleToilets":2,"femaleToilets":1,"disabled":false,"diaperTable":false,"emergencyBell":false,"cctv":false,"managerTel":"0547307404","source":"public","category":"public"},{"id":"202451800000100075","name":"옥계리 팔각산 주차장","lat":36.333724,"lng":129.263841,"jibunAddr":"경상북도 영덕군 달산면 옥계리 41","openHours":"상시","maleToilets":4,"femaleToilets":3,"disabled":false,"diaperTable":false,"emergencyBell":true,"cctv":false,"managerTel":"0547307404","source":"public","category":"public"},{"id":"202451800000100085","name":"옥계리(최기원씨 집앞)","lat":36.336102,"lng":129.271615,"jibunAddr":"경상북도 영덕군 달산면 옥산리 691-1","openHours":"상시","maleToilets":2,"femaleToilets":1,"disabled":false,"diaperTable":false,"emergencyBell":false,"cctv":false,"managerTel":"0547307404","source":"public","category":"public"}]