[{"id":"202435800000100212","name":"지두리해변공중화장실","lat":37.820753,"lng":124.679466,"roadAddr":"인천광역시 옹진군 대청면 대청로530번길 130","jibunAddr":"인천광역시 옹진군 대청면 대청4리 산269-3","openHours":"상시","maleToilets":3,"femaleToilets":4,"disabled":true,"diaperTable":false,"emergencyBell":false,"cctv":false,"managerTel":"0328993642","source":"public","category":"public"},{"id":"202435800000100213","name":"모래울화장실","lat":37.813839,"lng":124.685966,"roadAddr":"인천광역시 옹진군 대청면 대청남로 519","jibunAddr":"인천광역시 옹진군 대청면 대청4리 산280","openHours":"상시","maleToilets":5,"femaleToilets":2,"disabled":false,"diaperTable":false,"emergencyBell":false,"cctv":false,"managerTel":"0328993642","source":"public","category":"public"},{"id":"202435800000100217","name":"농여 공중화장실","lat":37.825254,"lng":124.712309,"roadAddr":"인천광역시 옹진군 대청면","jibunAddr":"인천광역시 옹진군 대청면 대청리 469-25","openHours":"상시","maleToilets":2,"femaleToilets":3,"disabled":true,"diaperTable":false,"emergencyBell":true,"cctv":false,"managerTel":"0328993642","source":"public","category":"public"},{"id":"202435800000100208","name":"물량장공중화장실","lat":37.828032,"lng":124.714288,"roadAddr":"인천광역시 옹진군 대청면 대청로 46","jibunAddr":"인천광역시 옹진군 대청면 대청2리 377-29","openHours":"상시","maleToilets":4,"femaleToilets":2,"disabled":false,"diaperTable":false,"emergencyBell":true,"cctv":false,"managerTel":"0328993642","source":"public","category":"public"},{"id":"202435800000100202","name":"대청파출소","lat":37.824445,"lng":124.714922,"roadAddr":"인천광역시 옹진군 대청면 대청로7번길 9","jibunAddr":"인천광역시 옹진군 대청면 대청리 384-1","openHours":"09:00~18:00","maleToilets":2,"femaleToilets":0,"disabled":true,"diaperTable":false,"emergencyBell":false,"cctv":false,"managerTel":"0328362112","source":"public","category":"public"},{"id":"202435800000100216","name":"소청분바위공중화장실","lat":37.825254,"lng":124.712309,"roadAddr":"인천광역시 옹진군 대청면","jibunAddr":"인천광역시 옹진군 대청면 소청리 산53-2","openHours":"상시","maleToilets":2,"femaleToilets":2,"disabled":false,"diaperTable":false,"emergencyBell":true,"cctv":false,"managerTel":"0328993642","source":"public","category":"public"},{"id":"202435800000100203","name":"대청우체국","lat":37.823796,"lng":124.71457,"roadAddr":"인천광역시 옹진군 대청면 대청로7번길 31","jibunAddr":"인천광역시 옹진군 대청면 대청리 362-1","openHours":"09:00~18:00","maleToilets":2,"femaleToilets":0,"disabled":true,"diaperTable":false,"emergencyBell":false,"cctv":false,"managerTel":"0328362600","source":"public","category":"public"},{"id":"202435800000100206","name":"대청5리풋살장공중화장실","lat":37.820778,"lng":124.713987,"roadAddr":"인천광역시 옹진군 대청면 대청남로 53","jibunAddr":"인천광역시 옹진군 대청면 대청5리 295 외4필지","openHours":"상시","maleToilets":2,"femaleToilets":1,"disabled":false,"diaperTable":false,"emergencyBell":false,"cctv":false,"managerTel":"0328993642","source":"public","category":"public"},{"id":"202435800000100201","name":"대청파출소(해경)","lat":37.826005,"lng":124.715087,"roadAddr":"인천광역시 옹진군 대청면 대청로 22-1","jibunAddr":"인천광역시 옹진군 대청면 대청리 377-19","openHours":"09:00~18:00","maleToilets":2,"femaleToilets":0,"disabled":false,"diaperTable":false,"emergencyBell":false,"cctv":false,"managerTel":"0326502329","source":"public","category":"public"},{"id":"202435800000100211","name":"답동해변공중화장실","lat":37.833059,"lng":124.714127,"roadAddr":"인천광역시 옹진군 대청면 대청로 80","jibunAddr":"인천광역시 옹진군 대청면 대청2리 421-1","openHours":"상시","maleToilets":5,"femaleToilets":2,"disabled":false,"diaperTable":false,"emergencyBell":false,"cctv":false,"managerTel":"0328993642","source":"public","category":"public"},{"id":"202435800000100209","name":"구대합실공중화장실","lat":37.824533,"lng":124.716377,"roadAddr":"인천광역시 옹진군 대청면 대청남로 5","jibunAddr":"인천광역시 옹진군 대청면 대청2리 377-1","openHours":"상시","maleToilets":6,"femaleToilets":2,"disabled":true,"diaperTable":false,"emergencyBell":true,"cctv":false,"managerTel":"0328993642","source":"public","category":"public"},{"id":"202435800000100204","name":"대청면사무소","lat":37.82536,"lng":124.712251,"roadAddr":"인천광역시 옹진군 대청면 대청로19번길 59","jibunAddr":"인천광역시 옹진군 대청면 대청리 389-1","openHours":"09:00~18:00","maleToilets":7,"femaleToilets":5,"disabled":true,"diaperTable":false,"emergencyBell":false,"cctv":false,"managerTel":"0328993642","source":"public","category":"public"},{"id":"202435800000100210","name":"광난두동정자각공중화장실","lat":37.808126,"lng":124.685466,"roadAddr":"인천광역시 옹진군 대청면 대청남로 403","jibunAddr":"인천광역시 옹진군 대청면 대청4리 1322-1","openHours":"상시","maleToilets":3,"femaleToilets":2,"disabled":false,"diaperTable":false,"emergencyBell":true,"cctv":false,"managerTel":"0328993642","source":"public","category":"public"},{"id":"202435800000100215","name":"대청농협","lat":37.833677,"lng":124.704244,"roadAddr":"인천광역시 옹진군 대청면 대청로 213","jibunAddr":"인천광역시 옹진군 대청면 대청리 767","openHours":"09:00~18:00","maleToilets":4,"femaleToilets":2,"disabled":false,"diaperTable":false,"emergencyBell":false,"cctv":false,"managerTel":"0328362024","source":"public","category":"public"},{"id":"202435800000100214","name":"대청면농업인상담소","lat":37.833486,"lng":124.699365,"roadAddr":"인천광역시 옹진군 대청면 대청로244번길 37","jibunAddr":"인천광역시 옹진군 대청면 대청리 587-1","openHours":"09:00~18:00","maleToilets":2,"femaleToilets":0,"disabled":false,"diaperTable":false,"emergencyBell":false,"cctv":false,"managerTel":"0328993284","source":"public","category":"public"},{"id":"202435800000100276","name":"대청보건지소 화장실","lat":37.824434,"lng":124.715415,"roadAddr":"인천광역시 옹진군 대청면 대청로 3","jibunAddr":"인천광역시 옹진군 대청면 대청리 373","openHours":"09:00~18:00","maleToilets":3,"femaleToilets":2,"disabled":false,"diaperTable":false,"emergencyBell":false,"cctv":false,"managerTel":"0328993342","source":"public","category":"public"}]