[{"id":"202346200000100812","name":"학암포 첨단화장실","lat":36.899967,"lng":126.206068,"roadAddr":"충청남도 태안군 원북면 옥파로 1182","jibunAddr":"충청남도 태안군 원북면 방갈리 515-99","openHours":"상시","maleToilets":2,"femaleToilets":2,"disabled":false,"diaperTable":false,"emergencyBell":true,"cctv":false,"managerTel":"0416702617","source":"public","category":"public"},{"id":"202346200000100765","name":"구례포 야영장","lat":36.889466,"lng":126.202119,"roadAddr":"충청남도 태안군 원북면 옥파로 1025-28","jibunAddr":"충청남도 태안군 원북면 황촌리 800-113","openHours":"상시","maleToilets":7,"femaleToilets":8,"disabled":true,"diaperTable":true,"emergencyBell":false,"cctv":false,"managerTel":"0416743224","source":"public","category":"public"},{"id":"202346200000100776","name":"학암포 분점도","lat":36.898796,"lng":126.204113,"roadAddr":"충청남도 태안군 원북면 옥파로 1163-27, 공중화장실","jibunAddr":"충청남도 태안군 원북면 방갈리 515-121 공중화장실","openHours":"상시","maleToilets":7,"femaleToilets":6,"disabled":true,"diaperTable":false,"emergencyBell":true,"cctv":true,"managerTel":"0416743224","source":"public","category":"public"},{"id":"202346200000100537","name":"학암포항","lat":36.902039,"lng":126.206207,"roadAddr":"충청남도 태안군 원북면 옥파로 1212","jibunAddr":"충청남도 태안군 원북면 방갈리 515-178","openHours":"상시","maleToilets":2,"femaleToilets":3,"disabled":true,"diaperTable":true,"emergencyBell":true,"cctv":false,"managerTel":"0416702617","source":"public","category":"public"},{"id":"202346200000100529","name":"학암포 버스 종점","lat":36.898028,"lng":126.205148,"roadAddr":"충청남도 태안군 원북면 옥파로 1157-4","jibunAddr":"충청남도 태안군 원북면 방갈리 515-157","openHours":"상시","maleToilets":2,"femaleToilets":5,"disabled":true,"diaperTable":true,"emergencyBell":true,"cctv":false,"managerTel":"0416702617","source":"public","category":"public"},{"id":"202346200000100531","name":"구례포해수욕장(먼동)","lat":36.884308,"lng":126.186414,"roadAddr":"충청남도 태안군 원북면 구례포길 47-506","jibunAddr":"충청남도 태안군 원북면 황촌리 905-27","openHours":"상시","maleToilets":5,"femaleToilets":5,"disabled":true,"diaperTable":false,"emergencyBell":false,"cctv":false,"managerTel":"0416702617","source":"public","category":"public"},{"id":"202346200000100532","name":"구례포해수욕장(주차장)","lat":36.885824,"lng":126.198293,"roadAddr":"충청남도 태안군 원북면 구례포길 47-20","jibunAddr":"충청남도 태안군 원북면 황촌리 810-6","openHours":"상시","maleToilets":5,"femaleToilets":8,"disabled":true,"diaperTable":true,"emergencyBell":true,"cctv":false,"managerTel":"0416702617","source":"public","category":"public"},{"id":"202346200000100777","name":"학암포 주차장","lat":36.89664,"lng":126.207677,"roadAddr":"충청남도 태안군 원북면 학암포길 19, 공중화장실","jibunAddr":"충청남도 태안군 원북면 방갈리 515-194 공중화장실","openHours":"상시","maleToilets":7,"femaleToilets":6,"disabled":true,"diaperTable":true,"emergencyBell":false,"cctv":false,"managerTel":"0416743224","source":"public","category":"public"},{"id":"202346200000100533","name":"구례포해수욕장(중앙)","lat":36.884381,"lng":126.195051,"roadAddr":"충청남도 태안군 원북면 구례포길 47-86","jibunAddr":"충청남도 태안군 원북면 황촌리 810-7","openHours":"상시","maleToilets":5,"femaleToilets":8,"disabled":true,"diaperTable":false,"emergencyBell":true,"cctv":false,"managerTel":"0416702617","source":"public","category":"public"},{"id":"202346200000100778","name":"학암포 해당화","lat":36.898296,"lng":126.205362,"roadAddr":"충청남도 태안군 원북면 옥파로 1157-17, 공중화장실","jibunAddr":"충청남도 태안군 원북면 방갈리 산 37 공중화장실","openHours":"상시","maleToilets":7,"femaleToilets":7,"disabled":true,"diaperTable":false,"emergencyBell":true,"cctv":true,"managerTel":"0416743224","source":"public","category":"public"}]