[{"id":"202346200000100804","name":"모항항물양장","lat":36.776331,"lng":126.132326,"roadAddr":"충청남도 태안군 소원면 모항항길 122-36","jibunAddr":"충청남도 태안군 소원면 모항리 495-19","openHours":"상시","maleToilets":5,"femaleToilets":8,"disabled":true,"diaperTable":false,"emergencyBell":false,"cctv":false,"managerTel":"0416702616","source":"public","category":"public"},{"id":"202346200000100803","name":"모항등대쉼터","lat":36.780606,"lng":126.132054,"roadAddr":"충청남도 태안군 소원면 모항항길 106-74","jibunAddr":"충청남도 태안군 소원면 모항리 1335","openHours":"상시","maleToilets":2,"femaleToilets":1,"disabled":false,"diaperTable":false,"emergencyBell":false,"cctv":false,"managerTel":"0416702616","source":"public","category":"public"},{"id":"202346200000100543","name":"파도리 해수욕장","lat":36.741273,"lng":126.135391,"roadAddr":"충청남도 태안군 소원면 모항파도로 490-86","jibunAddr":"충청남도 태안군 소원면 파도리 산 202-1","openHours":"상시","maleToilets":4,"femaleToilets":4,"disabled":false,"diaperTable":false,"emergencyBell":true,"cctv":false,"managerTel":"0416702616","source":"public","category":"public"},{"id":"202346200000100805","name":"어은돌","lat":36.752988,"lng":126.127797,"roadAddr":"충청남도 태안군 소원면 연들길 109-14, 공중화장실","jibunAddr":"충청남도 태안군 소원면 모항리 1097-18 공중화장실","openHours":"상시","maleToilets":3,"femaleToilets":3,"disabled":true,"diaperTable":true,"emergencyBell":true,"cctv":false,"managerTel":"0416702616","source":"public","category":"public"},{"id":"202446200000100047","name":"모항1리 복지회관","lat":36.773098,"lng":126.142646,"roadAddr":"충청남도 태안군 소원면 모항파도로 91, 모항1리복지회관","jibunAddr":"충청남도 태안군 소원면 모항리 363-5 모항1리복지회관","openHours":"상시","maleToilets":3,"femaleToilets":2,"disabled":false,"diaperTable":false,"emergencyBell":false,"cctv":false,"managerTel":"0416702616","source":"public","category":"public"},{"id":"202346200000100820","name":"만리포주유소","lat":36.775103,"lng":126.152098,"roadAddr":"충청남도 태안군 소원면 서해로 156","jibunAddr":"충청남도 태안군 소원면 모항리 1-15","openHours":"정시","maleToilets":1,"femaleToilets":2,"disabled":false,"diaperTable":false,"emergencyBell":false,"cctv":false,"managerTel":"0416721121","source":"public","category":"public"}]