[{"id":"202145300000100170","name":"별마을","lat":36.718725,"lng":126.552674,"roadAddr":"충청남도 서산시 해미면 오학별마을길 20","jibunAddr":"충청남도 서산시 해미면 오학리 238-4","openHours":"상시","maleToilets":2,"femaleToilets":1,"disabled":false,"diaperTable":false,"emergencyBell":true,"cctv":false,"source":"public","category":"public"},{"id":"202445300000100006","name":"해미119안전센터 화장실","lat":36.709821,"lng":126.542803,"roadAddr":"충청남도 서산시 해미면 성지3길 29","jibunAddr":"충청남도 서산시 해미면 읍내리 221-35","openHours":"상시","maleToilets":4,"femaleToilets":4,"disabled":false,"diaperTable":false,"emergencyBell":false,"cctv":false,"source":"public","category":"public"},{"id":"202345300000100037","name":"해미상가 1-1","lat":36.711297,"lng":126.546494,"roadAddr":"충청남도 서산시 해미면 남문1로 47, 해미구시장재개발","jibunAddr":"충청남도 서산시 해미면 읍내리 184-1 해미구시장재개발","openHours":"상시","maleToilets":4,"femaleToilets":4,"disabled":true,"diaperTable":true,"emergencyBell":true,"cctv":false,"source":"public","category":"public"},{"id":"202345300000100034","name":"공중화장실(사무실 뒤)","lat":36.713557,"lng":126.550384,"roadAddr":"충청남도 서산시 해미면 남문2로 143, 해미읍성","jibunAddr":"충청남도 서산시 해미면 읍내리 491 해미읍성","openHours":"상시","maleToilets":10,"femaleToilets":6,"disabled":true,"diaperTable":true,"emergencyBell":true,"cctv":true,"source":"public","category":"public"},{"id":"202145300000100168","name":"해미상가2","lat":36.71092,"lng":126.54705,"roadAddr":"충청남도 서산시 해미면 남문1로 48","jibunAddr":"충청남도 서산시 해미면 읍내리 175-2","openHours":"상시","maleToilets":4,"femaleToilets":3,"disabled":false,"diaperTable":false,"emergencyBell":true,"cctv":false,"source":"public","category":"public"},{"id":"202145300000100167","name":"해미상가1","lat":36.711297,"lng":126.546494,"roadAddr":"충청남도 서산시 해미면 남문1로 47, 해미구시장재개발","jibunAddr":"충청남도 서산시 해미면 읍내리 184-1 해미구시장재개발","openHours":"상시","maleToilets":8,"femaleToilets":4,"disabled":false,"diaperTable":false,"emergencyBell":true,"cctv":false,"source":"public","category":"public"},{"id":"202145300000100169","name":"버스승강장","lat":36.711363,"lng":126.542992,"roadAddr":"충청남도 서산시 해미면 남문5로 30-8, 공중화장실","jibunAddr":"충청남도 서산시 해미면 읍내리 255-51 공중화장실","openHours":"상시","maleToilets":2,"femaleToilets":3,"disabled":true,"diaperTable":true,"emergencyBell":true,"cctv":false,"source":"public","category":"public"},{"id":"202345300000100041","name":"세계청년광장 내","lat":36.711559,"lng":126.539453,"roadAddr":"충청남도 서산시 해미면 성지1로 12-7","jibunAddr":"충청남도 서산시 해미면 읍내리 274-6","openHours":"상시","maleToilets":2,"femaleToilets":0,"disabled":true,"diaperTable":false,"emergencyBell":false,"cctv":false,"source":"public","category":"public"},{"id":"202445300000100008","name":"해미상가 1층","lat":36.711122,"lng":126.545729,"roadAddr":"충청남도 서산시 해미면 읍성마을4길 17-8, 1층","jibunAddr":"충청남도 서산시 해미면 읍내리 201","openHours":"상시","maleToilets":3,"femaleToilets":4,"disabled":true,"diaperTable":false,"emergencyBell":true,"cctv":false,"source":"public","category":"public"},{"id":"202345300000100035","name":"공중화장실(국궁장)","lat":36.713557,"lng":126.550384,"roadAddr":"충청남도 서산시 해미면 남문2로 143, 해미읍성","jibunAddr":"충청남도 서산시 해미면 읍내리 491 해미읍성","openHours":"상시","maleToilets":6,"femaleToilets":4,"disabled":true,"diaperTable":false,"emergencyBell":true,"cctv":true,"source":"public","category":"public"},{"id":"202345300000100036","name":"공중화장실(주차장)","lat":36.710595,"lng":126.54823,"roadAddr":"충청남도 서산시 해미면 남문2로 155","jibunAddr":"충청남도 서산시 해미면 읍내리 95-2","openHours":"상시","maleToilets":4,"femaleToilets":4,"disabled":true,"diaperTable":true,"emergencyBell":true,"cctv":true,"source":"public","category":"public"},{"id":"202345300000100043","name":"해미향교 화장실","lat":36.720986,"lng":126.550618,"roadAddr":"충청남도 서산시 해미면 해미향교길 2-16","jibunAddr":"충청남도 서산시 해미면 오학리 223-8","openHours":"상시","maleToilets":0,"femaleToilets":1,"disabled":true,"diaperTable":false,"emergencyBell":true,"cctv":false,"source":"public","category":"public"},{"id":"202345300000100039","name":"해미시장 1층","lat":36.711122,"lng":126.545729,"roadAddr":"충청남도 서산시 해미면 읍성마을4길 17-8, 1층","jibunAddr":"충청남도 서산시 해미면 읍내리 201","openHours":"상시","maleToilets":3,"femaleToilets":4,"disabled":true,"diaperTable":false,"emergencyBell":true,"cctv":false,"source":"public","category":"public"},{"id":"202345300000100040","name":"해미상가 2층","lat":36.711122,"lng":126.545729,"roadAddr":"충청남도 서산시 해미면 읍성마을4길 17-8, 2층","jibunAddr":"충청남도 서산시 해미면 읍내리 201","openHours":"상시","maleToilets":2,"femaleToilets":3,"disabled":true,"diaperTable":false,"emergencyBell":true,"cctv":false,"source":"public","category":"public"},{"id":"202345300000100038","name":"해미상가 2-1","lat":36.71092,"lng":126.54705,"roadAddr":"충청남도 서산시 해미면 남문1로 48","jibunAddr":"충청남도 서산시 해미면 읍내리 174-2","openHours":"상시","maleToilets":4,"femaleToilets":3,"disabled":false,"diaperTable":false,"emergencyBell":true,"cctv":true,"source":"public","category":"public"}]