[{"id":"202145300000100174","name":"문화마을","lat":36.659579,"lng":126.530473,"roadAddr":"충청남도 서산시 고북면 문화마을2로 7-12, 공중화장실","jibunAddr":"충청남도 서산시 고북면 양천리 487 공중화장실","openHours":"상시","maleToilets":1,"femaleToilets":1,"disabled":true,"diaperTable":false,"emergencyBell":true,"cctv":false,"source":"public","category":"public"},{"id":"202145300000100179","name":"신상천 인공습지","lat":36.69005,"lng":126.542624,"roadAddr":"충청남도 서산시 고북면 내포로 2234-28, 공중화장실","jibunAddr":"충청남도 서산시 고북면 용암리 330-2 공중화장실","openHours":"상시","maleToilets":0,"femaleToilets":0,"disabled":true,"diaperTable":true,"emergencyBell":true,"cctv":false,"source":"public","category":"public"},{"id":"202145300000100172","name":"재래시장","lat":36.666069,"lng":126.531963,"roadAddr":"서산시 고북면 기포리 318-4","openHours":"상시","maleToilets":3,"femaleToilets":4,"disabled":true,"diaperTable":false,"emergencyBell":true,"cctv":false,"source":"public","category":"public"},{"id":"202145300000100171","name":"신송저수지 입구","lat":36.656249,"lng":126.545081,"roadAddr":"서산시 고북면 신송리 산87-8","openHours":"상시","maleToilets":2,"femaleToilets":1,"disabled":true,"diaperTable":true,"emergencyBell":true,"cctv":false,"source":"public","category":"public"},{"id":"202145300000100177","name":"국화축제장 입구","lat":36.668953,"lng":126.532699,"roadAddr":"충청남도 서산시 고북면 복남골길 1-1","jibunAddr":"충청남도 서산시 고북면 가구리 624-1","openHours":"상시","maleToilets":2,"femaleToilets":1,"disabled":true,"diaperTable":false,"emergencyBell":true,"cctv":false,"source":"public","category":"public"},{"id":"202145300000100176","name":"시외버스정류장","lat":36.666775,"lng":126.533129,"roadAddr":"서산시 고북면 가구리 614-6","openHours":"상시","maleToilets":1,"femaleToilets":1,"disabled":true,"diaperTable":false,"emergencyBell":true,"cctv":false,"source":"public","category":"public"},{"id":"202145300000100178","name":"국화황토공원","lat":36.668624,"lng":126.534359,"roadAddr":"충청남도 서산시 고북면 복남골길 18","jibunAddr":"충청남도 서산시 고북면 가구리 622","openHours":"상시","maleToilets":3,"femaleToilets":5,"disabled":true,"diaperTable":true,"emergencyBell":true,"cctv":false,"source":"public","category":"public"}]