[{"id":"202545300000100005","name":"읍내동제2호 어린이공원 화장실","lat":36.78653,"lng":126.445965,"roadAddr":"충청남도 서산시 부춘7길 32 (읍내동)","jibunAddr":"충청남도 서산시 읍내동 415-1","openHours":"상시","maleToilets":2,"femaleToilets":2,"disabled":false,"diaperTable":false,"emergencyBell":false,"cctv":false,"source":"public","category":"public"},{"id":"202145300000100181","name":"성암공원","lat":36.782462,"lng":126.443417,"roadAddr":"충청남도 서산시 성암1로 47 (읍내동)","jibunAddr":"충청남도 서산시 읍내동 621-1","openHours":"상시","maleToilets":1,"femaleToilets":1,"disabled":true,"diaperTable":false,"emergencyBell":true,"cctv":false,"source":"public","category":"public"},{"id":"202345300000100049","name":"서산종합운동장 야외화장실2","lat":36.798445,"lng":126.435511,"roadAddr":"충청남도 서산시 안견로 661, 종합운동장 (갈산동)","jibunAddr":"충청남도 서산시 갈산동 90 종합운동장","openHours":"정시","maleToilets":11,"femaleToilets":6,"disabled":true,"diaperTable":true,"emergencyBell":true,"cctv":false,"source":"public","category":"public"},{"id":"202345300000100050","name":"대연상가","lat":36.782796,"lng":126.456527,"roadAddr":"충청남도 서산시 시장5로 27, 대연상가 2층 (동문동)","jibunAddr":"충청남도 서산시 동문동 900-1 대연상가","openHours":"상시","maleToilets":5,"femaleToilets":3,"disabled":false,"diaperTable":false,"emergencyBell":true,"cctv":false,"source":"public","category":"public"},{"id":"202445300000100003","name":"성연119안전센터 화장실","lat":36.826011,"lng":126.446918,"roadAddr":"충청남도 서산시 성연면 성연5로 92-31, 성연119안전센터","jibunAddr":"충청남도 서산시 성연면 일람리 1071 성연119안전센터","openHours":"상시","maleToilets":8,"femaleToilets":5,"disabled":true,"diaperTable":false,"emergencyBell":false,"cctv":false,"source":"public","category":"public"},{"id":"202145300000100194","name":"백약국옆","lat":36.783194,"lng":126.455465,"roadAddr":"충청남도 서산시 시장2로 5-3, 공중화장실 (동문동)","jibunAddr":"충청남도 서산시 동문동 885-11 공중화장실","openHours":"상시","maleToilets":4,"femaleToilets":3,"disabled":true,"diaperTable":false,"emergencyBell":true,"cctv":false,"source":"public","category":"public"},{"id":"202145300000100180","name":"서광사 등산로","lat":36.790443,"lng":126.445546,"roadAddr":"충청남도 서산시 부춘산1로 33, 공중화장실 (읍내동)","jibunAddr":"충청남도 서산시 읍내동 562-4 공중화장실","openHours":"상시","maleToilets":4,"femaleToilets":4,"disabled":true,"diaperTable":true,"emergencyBell":true,"cctv":false,"source":"public","category":"public"},{"id":"202145300000100140","name":"일남 정류장","lat":36.816171,"lng":126.43963,"roadAddr":"서산시 성연면 일람리 416-1","openHours":"상시","maleToilets":2,"femaleToilets":0,"disabled":false,"diaperTable":false,"emergencyBell":false,"cctv":false,"source":"public","category":"public"},{"id":"202145300000100187","name":"레포츠공원","lat":36.787087,"lng":126.450679,"roadAddr":"충청남도 서산시 부춘공원1로 39 (읍내동)","jibunAddr":"충청남도 서산시 읍내동 528-35","openHours":"상시","maleToilets":4,"femaleToilets":4,"disabled":true,"diaperTable":true,"emergencyBell":true,"cctv":false,"source":"public","category":"public"},{"id":"202145300000100193","name":"동부(야채)시장","lat":36.782797,"lng":126.455626,"roadAddr":"충청남도 서산시 시장3길 5-10 (동문동)","jibunAddr":"충청남도 서산시 동문동 900","openHours":"상시","maleToilets":3,"femaleToilets":3,"disabled":true,"diaperTable":false,"emergencyBell":true,"cctv":false,"source":"public","category":"public"},{"id":"202145300000100190","name":"옥천암","lat":36.790145,"lng":126.452159,"roadAddr":"충청남도 서산시 부춘공원1로 72 (동문동)","jibunAddr":"충청남도 서산시 동문동 산 38-1","openHours":"상시","maleToilets":2,"femaleToilets":2,"disabled":true,"diaperTable":false,"emergencyBell":true,"cctv":false,"source":"public","category":"public"},{"id":"202345300000100029","name":"서산시니어클럽","lat":36.818723,"lng":126.436531,"roadAddr":"충청남도 서산시 성연면 가재미길 38, 서산시니어클럽","jibunAddr":"충청남도 서산시 성연면 고남리 166 서산시니어클럽","openHours":"상시","maleToilets":1,"femaleToilets":2,"disabled":true,"diaperTable":false,"emergencyBell":true,"cctv":false,"source":"public","category":"public"},{"id":"202245300000100011","name":"온석저수지","lat":36.795047,"lng":126.47401,"roadAddr":"충청남도 서산시 잠온길 107, 공중화장실 (온석동)","jibunAddr":"충청남도 서산시 온석동 224 공중화장실","openHours":"상시","maleToilets":1,"femaleToilets":1,"disabled":true,"diaperTable":false,"emergencyBell":true,"cctv":false,"source":"public","category":"public"},{"id":"202145300000100145","name":"테크노밸리 배수지","lat":36.819272,"lng":126.456717,"roadAddr":"서산시 성연면 왕정리 520-31","openHours":"상시","maleToilets":4,"femaleToilets":3,"disabled":true,"diaperTable":false,"emergencyBell":true,"cctv":false,"source":"public","category":"public"},{"id":"202345300000100046","name":"서산시민 체육관","lat":36.798445,"lng":126.435511,"roadAddr":"충청남도 서산시 안견로 661, 종합운동장 (갈산동)","jibunAddr":"충청남도 서산시 갈산동 90 종합운동장","openHours":"정시","maleToilets":14,"femaleToilets":11,"disabled":true,"diaperTable":true,"emergencyBell":true,"cctv":false,"source":"public","category":"public"},{"id":"202345300000100048","name":"서산종합운동장 야외화장실1","lat":36.798445,"lng":126.435511,"roadAddr":"충청남도 서산시 안견로 661, 종합운동장 (갈산동)","jibunAddr":"충청남도 서산시 갈산동 90 종합운동장","openHours":"정시","maleToilets":10,"femaleToilets":6,"disabled":true,"diaperTable":true,"emergencyBell":true,"cctv":false,"source":"public","category":"public"},{"id":"202445300000100005","name":"동부119안전센터 화장실","lat":36.78991,"lng":126.459621,"roadAddr":"충청남도 서산시 학동3로 52, 동부119안전센터 (동문동)","jibunAddr":"충청남도 서산시 동문동 469-4 동부119안전센터","openHours":"상시","maleToilets":8,"femaleToilets":1,"disabled":false,"diaperTable":false,"emergencyBell":false,"cctv":false,"source":"public","category":"public"},{"id":"202245300000100010","name":"부춘산","lat":36.78503,"lng":126.440217,"roadAddr":"충청남도 서산시 문화로 146 (읍내동)","jibunAddr":"충청남도 서산시 읍내동 609-31","openHours":"상시","maleToilets":2,"femaleToilets":2,"disabled":false,"diaperTable":false,"emergencyBell":true,"cctv":false,"source":"public","category":"public"},{"id":"202145300000100183","name":"영구임대APT공원","lat":36.784341,"lng":126.444898,"roadAddr":"충청남도 서산시 부춘1로 27, 공중화장실 (읍내동)","jibunAddr":"충청남도 서산시 읍내동 624-3 공중화장실","openHours":"상시","maleToilets":4,"femaleToilets":1,"disabled":true,"diaperTable":false,"emergencyBell":true,"cctv":false,"source":"public","category":"public"},{"id":"202345300000100047","name":"국민체육센터","lat":36.798445,"lng":126.435511,"roadAddr":"충청남도 서산시 안견로 661, 종합운동장 (갈산동)","jibunAddr":"충청남도 서산시 갈산동 90 종합운동장","openHours":"정시","maleToilets":10,"femaleToilets":6,"disabled":true,"diaperTable":false,"emergencyBell":false,"cctv":false,"source":"public","category":"public"},{"id":"202145300000100189","name":"명륜공원","lat":36.78375,"lng":126.446361,"roadAddr":"충청남도 서산시 명륜1로 69, 공중화장실 (읍내동)","jibunAddr":"충청남도 서산시 읍내동 608-8 공중화장실","openHours":"상시","maleToilets":0,"femaleToilets":2,"disabled":true,"diaperTable":false,"emergencyBell":true,"cctv":false,"source":"public","category":"public"},{"id":"202145300000100143","name":"테크노밸리 3호공원","lat":36.822395,"lng":126.450302,"roadAddr":"충청남도 서산시 성연면 성연4로 27-15","jibunAddr":"충청남도 서산시 성연면 일람리 1119","openHours":"상시","maleToilets":5,"femaleToilets":5,"disabled":true,"diaperTable":true,"emergencyBell":true,"cctv":false,"source":"public","category":"public"},{"id":"202145300000100152","name":"성왕산등산로","lat":36.811517,"lng":126.472298,"roadAddr":"충청남도 서산시 음암면 부산은골길 115","jibunAddr":"충청남도 서산시 음암면 부산리 산 38","openHours":"상시","maleToilets":2,"femaleToilets":2,"disabled":false,"diaperTable":false,"emergencyBell":true,"cctv":false,"source":"public","category":"public"},{"id":"202145300000100192","name":"동부(수산물)시장","lat":36.782386,"lng":126.457147,"roadAddr":"충청남도 서산시 시장3길 21-5, 공중화장실 (동문동)","jibunAddr":"충청남도 서산시 동문동 893-1 공중화장실","openHours":"상시","maleToilets":4,"femaleToilets":4,"disabled":true,"diaperTable":false,"emergencyBell":true,"cctv":false,"source":"public","category":"public"},{"id":"202545300000100003","name":"잠홍셀프주유소 화장실","lat":36.782447,"lng":126.472389,"roadAddr":"충청남도 서산시 서해로 3602 (잠홍동)","jibunAddr":"충청남도 서산시 잠홍동 752-1","openHours":"상시","maleToilets":3,"femaleToilets":1,"disabled":false,"diaperTable":false,"emergencyBell":false,"cctv":false,"source":"public","category":"public"},{"id":"202345300000100045","name":"서산종합운동장 주경기장","lat":36.798445,"lng":126.435511,"roadAddr":"충청남도 서산시 안견로 661, 종합운동장 (갈산동)","jibunAddr":"충청남도 서산시 갈산동 90 종합운동장","openHours":"정시","maleToilets":24,"femaleToilets":10,"disabled":true,"diaperTable":false,"emergencyBell":false,"cctv":false,"source":"public","category":"public"},{"id":"202145300000100186","name":"서산시민공원","lat":36.784008,"lng":126.449575,"roadAddr":"충청남도 서산시 관아문길 1, 서산시청 (읍내동)","jibunAddr":"충청남도 서산시 읍내동 492 서산시청","openHours":"상시","maleToilets":4,"femaleToilets":3,"disabled":true,"diaperTable":true,"emergencyBell":true,"cctv":false,"source":"public","category":"public"},{"id":"202145300000100185","name":"솔빛공원","lat":36.784008,"lng":126.449575,"roadAddr":"충청남도 서산시 관아문길 1, 서산시청 (읍내동)","jibunAddr":"충청남도 서산시 읍내동 492 서산시청","openHours":"상시","maleToilets":2,"femaleToilets":1,"disabled":true,"diaperTable":true,"emergencyBell":true,"cctv":false,"source":"public","category":"public"}]