[{"id":"202145300000100155","name":"잠홍저수지 산책로","lat":36.789053,"lng":126.494915,"roadAddr":"서산시 음암면 상홍리 821","openHours":"상시","maleToilets":1,"femaleToilets":1,"disabled":true,"diaperTable":true,"emergencyBell":true,"cctv":false,"source":"public","category":"public"},{"id":"202345300000100055","name":"서해안 안전체험관","lat":36.790457,"lng":126.486118,"roadAddr":"충청남도 서산시 잠홍2길 65, 서해안 안전체험관 (잠홍동)","jibunAddr":"충청남도 서산시 잠홍동 335-19 서해안 안전체험관","openHours":"정시","maleToilets":1,"femaleToilets":1,"disabled":true,"diaperTable":false,"emergencyBell":true,"cctv":false,"source":"public","category":"public"},{"id":"202245300000100005","name":"도당7리","lat":36.788315,"lng":126.50747,"roadAddr":"충청남도 서산시 음암면 도당가금말길 36","jibunAddr":"충청남도 서산시 음암면 도당리 1550-102","openHours":"상시","maleToilets":0,"femaleToilets":1,"disabled":true,"diaperTable":true,"emergencyBell":true,"cctv":false,"source":"public","category":"public"},{"id":"202145300000100154","name":"잠홍저수지 주차장","lat":36.797926,"lng":126.488329,"roadAddr":"충청남도 서산시 음암면 진동길 156","jibunAddr":"충청남도 서산시 음암면 부산리 784-3","openHours":"상시","maleToilets":2,"femaleToilets":2,"disabled":false,"diaperTable":false,"emergencyBell":true,"cctv":false,"source":"public","category":"public"},{"id":"202145300000100146","name":"재래시장1","lat":36.80039,"lng":126.517013,"roadAddr":"충청남도 서산시 음암면 도당큰말길 9, 공중화장실","jibunAddr":"충청남도 서산시 음암면 도당리 1295 공중화장실","openHours":"상시","maleToilets":3,"femaleToilets":2,"disabled":true,"diaperTable":true,"emergencyBell":true,"cctv":false,"source":"public","category":"public"},{"id":"202345300000100056","name":"이마트","lat":36.788376,"lng":126.47878,"roadAddr":"충청남도 서산시 서해로 3685, 이마트 서산점 (잠홍동)","jibunAddr":"충청남도 서산시 잠홍동 463 이마트 서산점","openHours":"정시","maleToilets":22,"femaleToilets":24,"disabled":true,"diaperTable":true,"emergencyBell":false,"cctv":false,"source":"public","category":"public"},{"id":"202345300000100031","name":"상홍리공소","lat":36.793865,"lng":126.504279,"roadAddr":"충청남도 서산시 음암면 상홍2길 122","jibunAddr":"충청남도 서산시 음암면 상홍리 159-2","openHours":"상시","maleToilets":3,"femaleToilets":0,"disabled":true,"diaperTable":true,"emergencyBell":false,"cctv":false,"source":"public","category":"public"},{"id":"202145300000100147","name":"재래시장2","lat":36.800063,"lng":126.517539,"roadAddr":"충청남도 서산시 음암면 도당큰말길 6-10, 공중화장실","jibunAddr":"충청남도 서산시 음암면 도당리 1294-10 공중화장실","openHours":"상시","maleToilets":2,"femaleToilets":3,"disabled":false,"diaperTable":true,"emergencyBell":true,"cctv":false,"source":"public","category":"public"}]