[{"id":"202145300000100132","name":"구도","lat":36.827573,"lng":126.328302,"roadAddr":"충청남도 서산시 팔봉면 팔봉1로 749-7, 공중화장실","jibunAddr":"충청남도 서산시 팔봉면 호리 629-3 공중화장실","openHours":"상시","maleToilets":2,"femaleToilets":2,"disabled":false,"diaperTable":false,"emergencyBell":true,"cctv":false,"source":"public","category":"public"},{"id":"202345300000100022","name":"주벅배 전망대 화장실","lat":36.842018,"lng":126.323787,"roadAddr":"충청남도 서산시 팔봉면 호리중말길 27-48","jibunAddr":"충청남도 서산시 팔봉면 호리 319-18","openHours":"상시","maleToilets":3,"femaleToilets":2,"disabled":false,"diaperTable":false,"emergencyBell":false,"cctv":false,"source":"public","category":"public"},{"id":"202345300000100020","name":"덕골방조제 화장실","lat":36.851074,"lng":126.323587,"roadAddr":"충청남도 서산시 팔봉면 호리영살길 157","jibunAddr":"충청남도 서산시 팔봉면 호리 274-64","openHours":"상시","maleToilets":2,"femaleToilets":1,"disabled":false,"diaperTable":false,"emergencyBell":false,"cctv":false,"source":"public","category":"public"},{"id":"202345300000100021","name":"고부레, 옻샘 화장실","lat":36.842293,"lng":126.33304,"roadAddr":"충청남도 서산시 팔봉면 범머리길 186","jibunAddr":"충청남도 서산시 팔봉면 호리 350-2","openHours":"상시","maleToilets":3,"femaleToilets":2,"disabled":false,"diaperTable":false,"emergencyBell":false,"cctv":false,"source":"public","category":"public"},{"id":"202245300000100001","name":"구도 어민회관","lat":36.828117,"lng":126.326706,"roadAddr":"충청남도 서산시 팔봉면 팔봉1로 758, 구도항 도서민 편의시설","jibunAddr":"충청남도 서산시 팔봉면 호리 920 구도항 도서민 편의시설","openHours":"상시","maleToilets":3,"femaleToilets":4,"disabled":true,"diaperTable":true,"emergencyBell":true,"cctv":false,"source":"public","category":"public"},{"id":"202345300000100018","name":"팔봉 갯벌체험장 화장실","lat":36.85913,"lng":126.338058,"roadAddr":"충청남도 서산시 팔봉면 범머리길 402","jibunAddr":"충청남도 서산시 팔봉면 호리 46-1","openHours":"상시","maleToilets":4,"femaleToilets":3,"disabled":true,"diaperTable":false,"emergencyBell":false,"cctv":false,"source":"public","category":"public"},{"id":"202346200000100521","name":"사창어촌계 해변가","lat":36.840247,"lng":126.301376,"jibunAddr":"충청남도 태안군 이원면 사창리 1-13","openHours":"상시","maleToilets":2,"femaleToilets":1,"disabled":false,"diaperTable":false,"emergencyBell":false,"cctv":false,"managerTel":"0416702618","source":"public","category":"public"}]