[{"id":"202446200000100048","name":"태안경찰서","lat":36.757571,"lng":126.288786,"roadAddr":"충청남도 태안군 태안읍 동백로 112, 태안경찰서","jibunAddr":"충청남도 태안군 태안읍 남문리 407-4 태안경찰서","openHours":"09:00~18:00","maleToilets":37,"femaleToilets":24,"disabled":true,"diaperTable":false,"emergencyBell":false,"cctv":false,"managerTel":"0416713956","source":"public","category":"public"},{"id":"202346200000100842","name":"구터미널공영주차장","lat":36.755216,"lng":126.294268,"roadAddr":"충청남도 태안군 태안읍 중앙로 41","jibunAddr":"충청남도 태안군 태안읍 남문리 573-1","openHours":"상시","maleToilets":4,"femaleToilets":3,"disabled":true,"diaperTable":true,"emergencyBell":true,"cctv":true,"managerTel":"0416702611","source":"public","category":"public"},{"id":"202346200000100557","name":"동남지구 어린이6호공원","lat":36.749333,"lng":126.297411,"roadAddr":"충청남도 태안군 태안읍 군청2길 8","jibunAddr":"충청남도 태안군 태안읍 남문리 682-1","openHours":"상시","maleToilets":3,"femaleToilets":3,"disabled":false,"diaperTable":false,"emergencyBell":true,"cctv":true,"managerTel":"0416702611","source":"public","category":"public"},{"id":"202346200000100857","name":"대한주유소","lat":36.764719,"lng":126.28769,"roadAddr":"충청남도 태안군 태안읍 원이로 82, 대한주유소","jibunAddr":"충청남도 태안군 태안읍 삭선리 513-3 대한주유소","openHours":"06:00-22:00","maleToilets":2,"femaleToilets":1,"disabled":false,"diaperTable":false,"emergencyBell":false,"cctv":false,"managerTel":"0416749903","source":"public","category":"public"},{"id":"202346200000100852","name":"태양주유소","lat":36.756219,"lng":126.271446,"roadAddr":"충청남도 태안군 태안읍 근흥로 45","jibunAddr":"충청남도 태안군 태안읍 장산리 654-10","openHours":"07:00-19:30","maleToilets":3,"femaleToilets":2,"disabled":false,"diaperTable":false,"emergencyBell":false,"cctv":false,"managerTel":"0416740223","source":"public","category":"public"},{"id":"202346200000100841","name":"태안읍 행정복지센터","lat":36.757698,"lng":126.296357,"roadAddr":"충청남도 태안군 태안읍 백화로 54, 태안읍사무소","jibunAddr":"충청남도 태안군 태안읍 남문리 300-6 태안읍사무소","openHours":"(평일)09:00-18:00","maleToilets":14,"femaleToilets":6,"disabled":true,"diaperTable":true,"emergencyBell":false,"cctv":false,"managerTel":"0416702611","source":"public","category":"public"},{"id":"202346200000100566","name":"백화산입구(삭선리)","lat":36.763703,"lng":126.288616,"roadAddr":"충청남도 태안군 태안읍 원이로 70","jibunAddr":"충청남도 태안군 태안읍 삭선리 511-6","openHours":"상시","maleToilets":2,"femaleToilets":2,"disabled":false,"diaperTable":false,"emergencyBell":false,"cctv":false,"managerTel":"0416702611","source":"public","category":"public"},{"id":"202446200000100001","name":"태안군청","lat":36.745941,"lng":126.298363,"roadAddr":"충청남도 태안군 태안읍 군청로 1, 태안군청","jibunAddr":"충청남도 태안군 태안읍 남문리 90 태안군청","openHours":"09:00-18:00","maleToilets":5,"femaleToilets":2,"disabled":true,"diaperTable":true,"emergencyBell":true,"cctv":true,"managerTel":"0416702749","source":"public","category":"public"},{"id":"202446200000100031","name":"태안교육지원청","lat":36.760465,"lng":126.290878,"roadAddr":"충청남도 태안군 태안읍 원이로 28, 충청남도태안교육청","jibunAddr":"충청남도 태안군 태안읍 남문리 387-4 충청남도태안교육청","openHours":"09:00-18:00(휴일 제외)","maleToilets":18,"femaleToilets":8,"disabled":true,"diaperTable":false,"emergencyBell":false,"cctv":false,"managerTel":"0416708282","source":"public","category":"public"},{"id":"202346200000100564","name":"태안상설시장주차장","lat":36.751355,"lng":126.298469,"roadAddr":"충청남도 태안군 태안읍 시장4길 18","jibunAddr":"충청남도 태안군 태안읍 동문리 284-1","openHours":"상시","maleToilets":5,"femaleToilets":6,"disabled":true,"diaperTable":true,"emergencyBell":true,"cctv":true,"managerTel":"0416702611","source":"public","category":"public"},{"id":"202346200000100561","name":"남문3리마을회관(서부시장)","lat":36.752991,"lng":126.296833,"roadAddr":"충청남도 태안군 태안읍 시장2길 32-7","jibunAddr":"충청남도 태안군 태안읍 남문리 164","openHours":"상시","maleToilets":7,"femaleToilets":4,"disabled":true,"diaperTable":true,"emergencyBell":true,"cctv":true,"managerTel":"0416702611","source":"public","category":"public"},{"id":"202346200000100779","name":"구터미널 쉼터","lat":36.753971,"lng":126.294238,"roadAddr":"충청남도 태안군 태안읍 환동로 77","jibunAddr":"충청남도 태안군 태안읍 남문리 576-78","openHours":"07:00~19:00","maleToilets":8,"femaleToilets":7,"disabled":true,"diaperTable":false,"emergencyBell":false,"cctv":true,"managerTel":"0416702717","source":"public","category":"public"},{"id":"202346200000100562","name":"태안향교(태안초)","lat":36.758344,"lng":126.296181,"roadAddr":"충청남도 태안군 태안읍 백화로 53","jibunAddr":"충청남도 태안군 태안읍 남문리 300-48","openHours":"상시","maleToilets":2,"femaleToilets":1,"disabled":false,"diaperTable":false,"emergencyBell":false,"cctv":false,"managerTel":"0416702611","source":"public","category":"public"},{"id":"202346200000100846","name":"행운주유소","lat":36.766311,"lng":126.285649,"roadAddr":"충청남도 태안군 태안읍 원이로 111, 정안주유소","jibunAddr":"충청남도 태안군 태안읍 삭선리 478-4 정안주유소","openHours":"05:30-22:00","maleToilets":4,"femaleToilets":2,"disabled":false,"diaperTable":false,"emergencyBell":false,"cctv":false,"managerTel":"0416754455","source":"public","category":"public"},{"id":"202346200000100851","name":"장산가스충전소","lat":36.756438,"lng":126.27446,"roadAddr":"충청남도 태안군 태안읍 근흥로 19-1","jibunAddr":"충청남도 태안군 태안읍 장산리 615-3","openHours":"05:00-01:00","maleToilets":3,"femaleToilets":1,"disabled":false,"diaperTable":false,"emergencyBell":false,"cctv":false,"managerTel":"0416749364","source":"public","category":"public"},{"id":"202346200000100558","name":"해피론이불 옆","lat":36.75259,"lng":126.298119,"roadAddr":"충청남도 태안군 태안읍 독샘로 35","jibunAddr":"충청남도 태안군 태안읍 동문리 290","openHours":"상시","maleToilets":3,"femaleToilets":2,"disabled":false,"diaperTable":true,"emergencyBell":false,"cctv":false,"managerTel":"0416702611","source":"public","category":"public"},{"id":"202446200000100030","name":"태안도서관","lat":36.759477,"lng":126.290735,"roadAddr":"충청남도 태안군 태안읍 원이로 20, 태안도서관","jibunAddr":"충청남도 태안군 태안읍 남문리 417-2 태안도서관","openHours":"9:00-20:00(평일), 9:00-17:00(일), 토요일 휴무","maleToilets":11,"femaleToilets":6,"disabled":false,"diaperTable":false,"emergencyBell":true,"cctv":false,"managerTel":"0416741369","source":"public","category":"public"},{"id":"202346200000100563","name":"남문4리마을회관 옆","lat":36.757754,"lng":126.2949,"roadAddr":"충청남도 태안군 태안읍 백화로 40-1","jibunAddr":"충청남도 태안군 태안읍 남문리 300-97","openHours":"상시","maleToilets":4,"femaleToilets":2,"disabled":true,"diaperTable":false,"emergencyBell":true,"cctv":true,"managerTel":"0416702611","source":"public","category":"public"},{"id":"202346200000100844","name":"남문공영주차장","lat":36.752117,"lng":126.296305,"roadAddr":"충청남도 태안군 태안읍 시장2길 12, 남문공영주차장 관리사무소","jibunAddr":"충청남도 태안군 태안읍 남문리 156-3 남문공영주차장 관리사무소","openHours":"상시","maleToilets":4,"femaleToilets":4,"disabled":true,"diaperTable":false,"emergencyBell":true,"cctv":true,"managerTel":"0416702611","source":"public","category":"public"}]