[{"id":"202435800000100318","name":"당섬선착장 공중화장실","lat":37.655031,"lng":125.711112,"roadAddr":"인천광역시 옹진군 연평면 연평로 15","jibunAddr":"인천광역시 옹진군 연평면 연평리 산 16-1","openHours":"상시","maleToilets":7,"femaleToilets":4,"disabled":true,"diaperTable":false,"emergencyBell":false,"cctv":true,"managerTel":"0328993493","source":"public","category":"public"},{"id":"202435800000100316","name":"연평파출소","lat":37.660591,"lng":125.702073,"roadAddr":"인천광역시 옹진군 연평면 연평로 152","jibunAddr":"인천광역시광역시 옹진군 연평면 연평리 488-4","openHours":"09:00~18:00","maleToilets":1,"femaleToilets":1,"disabled":false,"diaperTable":false,"emergencyBell":false,"cctv":false,"managerTel":"0328323112","source":"public","category":"public"},{"id":"202435800000100326","name":"연평바다역","lat":37.654804,"lng":125.712568,"roadAddr":"인천광역시 옹진군 연평면 연평로 8","jibunAddr":"인천광역시 옹진군 연평면 연평리 산16-1","openHours":"상시","maleToilets":4,"femaleToilets":3,"disabled":true,"diaperTable":false,"emergencyBell":false,"cctv":false,"managerTel":"0328993493","source":"public","category":"public"},{"id":"202435800000100325","name":"등대공원","lat":37.65967,"lng":125.685254,"roadAddr":"인천광역시 옹진군 연평면 연평로682번길 75-5","jibunAddr":"인천광역시 옹진군 연평면 연평리 산10-115","openHours":"상시","maleToilets":5,"femaleToilets":3,"disabled":false,"diaperTable":false,"emergencyBell":false,"cctv":false,"managerTel":"0328993493","source":"public","category":"public"},{"id":"202435800000100317","name":"연평우체국","lat":37.660008,"lng":125.700128,"roadAddr":"인천광역시 옹진군 연평면 연평로137번길 13","jibunAddr":"인천광역시 옹진군 연평면 연평리 566-3","openHours":"09:00~18:00","maleToilets":1,"femaleToilets":1,"disabled":false,"diaperTable":false,"emergencyBell":false,"cctv":false,"managerTel":"0328310900","source":"public","category":"public"},{"id":"202435800000100333","name":"연평119지역대","lat":37.659173,"lng":125.697837,"roadAddr":"인천광역시 옹진군 연평면 연평로821번길 9-8","jibunAddr":"인천광역시 옹진군 연평면 연평리 560","openHours":"09:00~18:00","maleToilets":1,"femaleToilets":1,"disabled":false,"diaperTable":false,"emergencyBell":false,"cctv":false,"managerTel":"0328323119","source":"public","category":"public"},{"id":"202435800000100324","name":"가래칠기","lat":37.65967,"lng":125.685254,"roadAddr":"인천광역시 옹진군 연평면 연평로682번길 75-5","jibunAddr":"인천광역시 옹진군 연평면 연평리 산10-115","openHours":"상시","maleToilets":3,"femaleToilets":2,"disabled":true,"diaperTable":false,"emergencyBell":false,"cctv":false,"managerTel":"0328993493","source":"public","category":"public"}]