[{"id":"202434910000100684","name":"운서동우체국","lat":37.493156,"lng":126.488358,"roadAddr":"인천광역시 영종구 흰바위로27번길 6, 인천국제공항배후단지우체국 (운서동)","openHours":"9시~18시","maleToilets":3,"femaleToilets":1,"disabled":false,"diaperTable":false,"emergencyBell":false,"cctv":false,"source":"public","category":"public"},{"id":"202434910000100685","name":"운서동행정복지센터 1층","lat":37.493308,"lng":126.48835,"roadAddr":"인천광역시 영종구 흰바위로27번길 10, 운서동행정복지센터 (운서동)","openHours":"9시~18시","maleToilets":4,"femaleToilets":3,"disabled":true,"diaperTable":false,"emergencyBell":false,"cctv":false,"source":"public","category":"public"},{"id":"202434910000100686","name":"인천중부경찰서공항지구대","lat":37.493543,"lng":126.488355,"roadAddr":"인천광역시 영종구 흰바위로27번길 12 (운서동)","openHours":"상시","maleToilets":2,"femaleToilets":1,"disabled":false,"diaperTable":false,"emergencyBell":false,"cctv":false,"source":"public","category":"public"},{"id":"202434910000100687","name":"운서119안전센터 1층","lat":37.493543,"lng":126.488355,"roadAddr":"인천광역시 영종구 흰바위로27번길 12 (운서동)","openHours":"상시","maleToilets":5,"femaleToilets":1,"disabled":true,"diaperTable":false,"emergencyBell":false,"cctv":false,"source":"public","category":"public"},{"id":"202434910000100688","name":"인천공항지구대","lat":37.493744,"lng":126.488445,"roadAddr":"인천광역시 영종구 흰바위로27번길 16, 운서119안전센터 (운서동)","openHours":"상시","maleToilets":2,"femaleToilets":1,"disabled":false,"diaperTable":false,"emergencyBell":false,"cctv":false,"source":"public","category":"public"},{"id":"202434910000100821","name":"은골공원 화장실","lat":37.48947,"lng":126.50003,"roadAddr":"인천광역시 중구 영종대로 196번길 15-21","openHours":"상시","maleToilets":2,"femaleToilets":2,"disabled":true,"diaperTable":true,"emergencyBell":true,"cctv":true,"source":"public","category":"public"},{"id":"202434910000100689","name":"유수지공원주차장 화장실","lat":37.496438,"lng":126.480589,"roadAddr":"인천광역시 중구 영종대로 27번길 9","openHours":"상시","maleToilets":4,"femaleToilets":3,"disabled":false,"diaperTable":false,"emergencyBell":true,"cctv":false,"source":"public","category":"public"},{"id":"202434910000100691","name":"영종도서관 1층","lat":37.495601,"lng":126.488665,"roadAddr":"인천광역시 영종구 영종대로 85, 영종도서관 (운서동)","openHours":"7시~22시, 월요일 휴관","maleToilets":6,"femaleToilets":3,"disabled":true,"diaperTable":true,"emergencyBell":false,"cctv":true,"source":"public","category":"public"},{"id":"202434910000100692","name":"영마루공원운동장화장실","lat":37.495641,"lng":126.487543,"roadAddr":"인천광역시 중구 영종대로 77","openHours":"상시","maleToilets":5,"femaleToilets":2,"disabled":false,"diaperTable":true,"emergencyBell":true,"cctv":false,"source":"public","category":"public"},{"id":"202434910000100693","name":"영마루공원관리실화장실","lat":37.495641,"lng":126.487543,"roadAddr":"인천광역시 중구 영종대로 77","openHours":"상시","maleToilets":5,"femaleToilets":2,"disabled":false,"diaperTable":true,"emergencyBell":true,"cctv":false,"source":"public","category":"public"},{"id":"202434910000100694","name":"공항철도 운서역(개찰구 밖)","lat":37.492847,"lng":126.493595,"roadAddr":"인천광역시 영종구 흰바위로59번길 26, 운서역 (운서동)","openHours":"상시","maleToilets":14,"femaleToilets":10,"disabled":true,"diaperTable":false,"emergencyBell":true,"cctv":false,"source":"public","category":"public"},{"id":"202434910000100696","name":"미단씨티12호공원 화장실","lat":37.523657,"lng":126.509873,"roadAddr":"인천광역시 영종구 자연대로635번길 4(운북동)","openHours":"상시","maleToilets":4,"femaleToilets":2,"disabled":false,"diaperTable":false,"emergencyBell":false,"cctv":false,"source":"public","category":"public"},{"id":"202434910000100698","name":"미단씨티11호공원 화장실","lat":37.525824,"lng":126.501953,"roadAddr":"인천광역시 영종구 예단포2로 42(운북동)","openHours":"상시","maleToilets":4,"femaleToilets":4,"disabled":false,"diaperTable":false,"emergencyBell":false,"cctv":false,"source":"public","category":"public"},{"id":"202434910000100702","name":"미단씨티8호공원화장실","lat":37.528774,"lng":126.514433,"roadAddr":"인천광역시 중구 영종순환로 620","openHours":"09:00~18:00","maleToilets":5,"femaleToilets":5,"disabled":false,"diaperTable":true,"emergencyBell":true,"cctv":false,"source":"public","category":"public"},{"id":"202434910000100683","name":"현대오일뱅크㈜직영신공항주유소","lat":37.494255,"lng":126.489528,"roadAddr":"인천광역시 영종구 신도시남로141번길 6 (운서동)","openHours":"상시","maleToilets":4,"femaleToilets":2,"disabled":false,"diaperTable":false,"emergencyBell":false,"cctv":false,"source":"public","category":"public"},{"id":"202435010000100059","name":"젓개농장공원 화장실","lat":37.499385,"lng":126.501352,"roadAddr":"인천광역시 중구 화랑목로100번길 4-8","openHours":"상시","maleToilets":3,"femaleToilets":3,"disabled":false,"diaperTable":false,"emergencyBell":true,"cctv":false,"source":"public","category":"public"},{"id":"202435010000100062","name":"두드림생태학습관","lat":37.49965,"lng":126.480492,"roadAddr":"인천광역시 중구 신도시북로 31-35","openHours":"상시","maleToilets":5,"femaleToilets":5,"disabled":true,"diaperTable":false,"emergencyBell":true,"cctv":false,"source":"public","category":"public"}]