[{"id":"202434910000100829","name":"씨사이드파크 족구장 화장실","lat":37.47092,"lng":126.521521,"roadAddr":"인천광역시 영종구 큰말로 41, 씨사이드파크 족구장 화장실 (운남동)","openHours":"상시","maleToilets":3,"femaleToilets":3,"disabled":true,"diaperTable":false,"emergencyBell":true,"cctv":true,"source":"public","category":"public"},{"id":"202434910000100830","name":"씨사이드파크 제2염전화장실","lat":37.474567,"lng":126.528622,"roadAddr":"인천광역시 영종구 영종대로566번길 8, 씨사이드파크 염전2 화장실 (운남동)","openHours":"상시","maleToilets":4,"femaleToilets":3,"disabled":true,"diaperTable":true,"emergencyBell":true,"cctv":true,"source":"public","category":"public"},{"id":"202434910000100831","name":"씨사이드파크 제1염전화장실","lat":37.472576,"lng":126.523598,"roadAddr":"인천광역시 영종구 큰말로 23 (운남동)","openHours":"상시","maleToilets":5,"femaleToilets":4,"disabled":true,"diaperTable":false,"emergencyBell":true,"cctv":true,"source":"public","category":"public"},{"id":"202434910000100832","name":"씨사이드파크 송산 화장실","lat":37.478204,"lng":126.556767,"roadAddr":"인천광역시 중구 영종해안남로 1403","openHours":"상시","maleToilets":3,"femaleToilets":2,"disabled":true,"diaperTable":false,"emergencyBell":true,"cctv":true,"source":"public","category":"public"},{"id":"202434910000100834","name":"씨사이드파크 카라반캠핑장화장실","lat":37.478204,"lng":126.556767,"roadAddr":"인천광역시 중구 영종해안남로 1403","openHours":"상시","maleToilets":4,"femaleToilets":3,"disabled":true,"diaperTable":false,"emergencyBell":true,"cctv":true,"source":"public","category":"public"},{"id":"202434910000100836","name":"씨사이드파크 레일바이크 화장실","lat":37.472576,"lng":126.523598,"roadAddr":"인천광역시 영종구 큰말로 23 (운남동)","openHours":"상시","maleToilets":5,"femaleToilets":4,"disabled":true,"diaperTable":false,"emergencyBell":true,"cctv":true,"source":"public","category":"public"},{"id":"202434910000100827","name":"씨사이드파크 테니스장 화장실","lat":37.478605,"lng":126.557178,"roadAddr":"인천광역시 영종구 영종대로 842-58, 씨사이드파크 테니스장화장실 (운남동)","openHours":"상시","maleToilets":2,"femaleToilets":2,"disabled":true,"diaperTable":true,"emergencyBell":true,"cctv":true,"source":"public","category":"public"},{"id":"202434910000100828","name":"씨사이드파크 족욕장 화장실","lat":37.47042,"lng":126.519534,"roadAddr":"인천광역시 영종구 큰말로 71, 씨사이드파크 족욕장화장실 (운남동)","openHours":"상시","maleToilets":3,"femaleToilets":3,"disabled":true,"diaperTable":false,"emergencyBell":true,"cctv":true,"source":"public","category":"public"},{"id":"202434910000100713","name":"씨사이드파크카라반캠핑장화장실","lat":37.472576,"lng":126.523598,"roadAddr":"인천광역시 영종구 큰말로 23 (운남동)","openHours":"상시","maleToilets":5,"femaleToilets":4,"disabled":true,"diaperTable":false,"emergencyBell":true,"cctv":true,"source":"public","category":"public"},{"id":"202434910000100703","name":"하늘도시 5호 일반광장 화장실","lat":37.476937,"lng":126.523541,"roadAddr":"인천광역시 중구 쪽빛하늘로 21","openHours":"상시","maleToilets":2,"femaleToilets":2,"disabled":true,"diaperTable":true,"emergencyBell":true,"cctv":false,"source":"public","category":"public"},{"id":"202434910000100704","name":"하늘도시 11호 근린공원 화장실","lat":37.484738,"lng":126.533433,"roadAddr":"인천광역시 중구 운남로 78","openHours":"상시","maleToilets":2,"femaleToilets":2,"disabled":true,"diaperTable":true,"emergencyBell":true,"cctv":false,"source":"public","category":"public"},{"id":"202435010000100138","name":"씨사이드파크 텐트캠핑장화장실","lat":37.472369,"lng":126.523772,"roadAddr":"인천광역시 중구 큰말로 25","openHours":"상시","maleToilets":5,"femaleToilets":4,"disabled":true,"diaperTable":true,"emergencyBell":true,"cctv":true,"source":"public","category":"public"}]