[{"id":"202535700000100036","name":"해명주유소","lat":37.670229,"lng":126.342232,"roadAddr":"인천광역시 강화군 삼산면 삼산남로 536","jibunAddr":"인천광역시 강화군 삼산면 매음리 416","openHours":"상시","maleToilets":2,"femaleToilets":1,"disabled":false,"diaperTable":false,"emergencyBell":false,"cctv":true,"managerTel":"0329325225","source":"public","category":"public"},{"id":"202535700000100035","name":"삼산면사무소","lat":37.704946,"lng":126.320411,"roadAddr":"인천광역시 강화군 삼산면 삼산북로 475","jibunAddr":"인천광역시 강화군 삼산면 석모리 530-3","openHours":"09:00-18:00","maleToilets":15,"femaleToilets":15,"disabled":true,"diaperTable":false,"emergencyBell":true,"cctv":false,"managerTel":"0329304317","source":"public","category":"public"},{"id":"202535700000100040","name":"보문선착장","lat":37.686734,"lng":126.308561,"roadAddr":"인천광역시 강화군 삼산면 매음리 627-115","jibunAddr":"인천광역시 강화군 삼산면 매음리 627-115","openHours":"상시","maleToilets":2,"femaleToilets":1,"disabled":false,"diaperTable":false,"emergencyBell":false,"cctv":false,"managerTel":"0329304317","source":"public","category":"public"},{"id":"202535700000100037","name":"삼산주유소","lat":37.704437,"lng":126.322154,"roadAddr":"인천광역시 강화군 삼산면 삼산북로 462","jibunAddr":"인천광역시 강화군 삼산면 석모리 444-1","openHours":"상시","maleToilets":1,"femaleToilets":0,"disabled":false,"diaperTable":false,"emergencyBell":false,"cctv":false,"managerTel":"0329323027","source":"public","category":"public"},{"id":"202535700000100165","name":"석모도수목원","lat":37.691249,"lng":126.326438,"roadAddr":"인천광역시 강화군 삼산북로449번길161","jibunAddr":"인천광역시 강화군 석모리 산133-2","openHours":"09:00-18:00","maleToilets":6,"femaleToilets":4,"disabled":true,"diaperTable":true,"emergencyBell":false,"cctv":false,"managerTel":"0329325432","source":"public","category":"public"},{"id":"202535700000100049","name":"보문사주차장","lat":37.686595,"lng":126.318001,"roadAddr":"인천광역시 강화군 삼산면 매음리 636-23","jibunAddr":"인천광역시 강화군 삼산면 매음리 636-23","openHours":"상시","maleToilets":5,"femaleToilets":3,"disabled":true,"diaperTable":true,"emergencyBell":true,"cctv":false,"managerTel":"0329304317","source":"public","category":"public"},{"id":"202535700000100047","name":"보문사입구(일주문)","lat":37.686798,"lng":126.319906,"roadAddr":"인천광역시 강화군 삼산면 매음리 636-19","jibunAddr":"인천광역시 강화군 삼산면 매음리 636-19","openHours":"상시","maleToilets":4,"femaleToilets":3,"disabled":true,"diaperTable":false,"emergencyBell":true,"cctv":false,"managerTel":"0329304317","source":"public","category":"public"},{"id":"202535700000100042","name":"석모삼거리","lat":37.70507,"lng":126.320874,"roadAddr":"인천광역시 강화군 삼산면 석모리 410-1","jibunAddr":"인천광역시 강화군 삼산면 석모리 410-1","openHours":"상시","maleToilets":2,"femaleToilets":2,"disabled":false,"diaperTable":false,"emergencyBell":false,"cctv":false,"managerTel":"0329304317","source":"public","category":"public"}]