[{"id":"202535700000100176","name":"고능리 마을장터(화도돈대)","lat":37.688526,"lng":126.519329,"roadAddr":"인천광역시 강화군 불은면 고능리 211-7","jibunAddr":"인천광역시 강화군 불은면 고능리 211-7","openHours":"상시","maleToilets":1,"femaleToilets":1,"disabled":false,"diaperTable":false,"emergencyBell":false,"cctv":false,"managerTel":"0329304222","source":"public","category":"public"},{"id":"202535700000100056","name":"광성보주차장","lat":37.664634,"lng":126.52852,"roadAddr":"인천광역시 강화군 불은면 덕성리 32-5","jibunAddr":"인천광역시 강화군 불은면 덕성리 32-8","openHours":"상시","maleToilets":7,"femaleToilets":6,"disabled":true,"diaperTable":false,"emergencyBell":true,"cctv":false,"managerTel":"0329307077","source":"public","category":"public"},{"id":"202535700000100177","name":"해안순환도로(오두)","lat":37.682458,"lng":126.518645,"roadAddr":"인천광역시 강화군 불은면 오두리 6-2","jibunAddr":"인천광역시 강화군 불은면 오두리 6-2","openHours":"상시","maleToilets":6,"femaleToilets":6,"disabled":true,"diaperTable":false,"emergencyBell":true,"cctv":false,"managerTel":"0329304222","source":"public","category":"public"},{"id":"202640900000110061","name":"쇄암리","lat":37.682423,"lng":126.532409,"roadAddr":"경기도 김포시 대곶면 쇄암로 226-63, 김포시 쇄암리 공중화장실","jibunAddr":"경기도 김포시 대곶면 쇄암리 82-9 김포시 쇄암리 공중화장실","openHours":"상시","maleToilets":2,"femaleToilets":1,"disabled":true,"diaperTable":false,"emergencyBell":true,"cctv":false,"managerTel":"0319805108","source":"public","category":"public"},{"id":"202640900000110234","name":"교사동 화장실","lat":37.673654,"lng":126.554118,"roadAddr":"경기도 김포시 대곶면 대곶로331번길 10, 석정초등학교","jibunAddr":"경기도 김포시 대곶면 석정리 381 석정초등학교","openHours":"미개방","maleToilets":12,"femaleToilets":10,"disabled":true,"diaperTable":false,"emergencyBell":false,"cctv":false,"managerTel":"0319814476","source":"public","category":"public"},{"id":"202640900000110102","name":"농업기술센터","lat":37.694771,"lng":126.556001,"roadAddr":"경기도 김포시 월곶면 오리정로 13, 농업기술센터","jibunAddr":"경기도 김포시 월곶면 갈산리 536-15 농업기술센터","openHours":"09:00~18:00","maleToilets":18,"femaleToilets":10,"disabled":true,"diaperTable":false,"emergencyBell":false,"cctv":false,"managerTel":"03151864255","source":"public","category":"public"}]