[{"id":"202535700000100104","name":"오읍(북산)약수터","lat":37.757191,"lng":126.485707,"roadAddr":"인천광역시 강화군 강화읍 대산리 산134","jibunAddr":"인천광역시 강화군 강화읍 대산리 산134","openHours":"상시","maleToilets":5,"femaleToilets":4,"disabled":true,"diaperTable":false,"emergencyBell":true,"cctv":false,"managerTel":"0329304409","source":"public","category":"public"},{"id":"202535700000100103","name":"연미정","lat":37.771424,"lng":126.511239,"roadAddr":"인천광역시 강화군 강화읍 해안북로 452","jibunAddr":"인천광역시 강화군 강화읍 월곳리 226-1","openHours":"상시","maleToilets":5,"femaleToilets":5,"disabled":true,"diaperTable":true,"emergencyBell":true,"cctv":false,"managerTel":"0329304409","source":"public","category":"public"},{"id":"202535700000100157","name":"강화산단 체육공원","lat":37.763473,"lng":126.496118,"roadAddr":"인천광역시 강화군 강화읍 강화산단로 194","jibunAddr":"인천광역시 강화군 강화읍 월곳리 753-1","openHours":"상시","maleToilets":4,"femaleToilets":5,"disabled":true,"diaperTable":true,"emergencyBell":true,"cctv":false,"managerTel":"0329304409","source":"public","category":"public"},{"id":"202535700000100106","name":"북  문","lat":37.755665,"lng":126.482156,"roadAddr":"인천광역시 강화군 강화읍 북문길 105","jibunAddr":"인천광역시 강화군 강화읍 관청리 산41-2","openHours":"상시","maleToilets":5,"femaleToilets":3,"disabled":true,"diaperTable":true,"emergencyBell":true,"cctv":false,"managerTel":"0329304409","source":"public","category":"public"},{"id":"202535700000100108","name":"강화산업단지","lat":37.763473,"lng":126.496118,"roadAddr":"인천광역시 강화군 강화읍 강화산단로 194","jibunAddr":"인천광역시 강화군 강화읍 월곳리 753-1","openHours":"상시","maleToilets":6,"femaleToilets":6,"disabled":true,"diaperTable":false,"emergencyBell":true,"cctv":false,"managerTel":"0329304409","source":"public","category":"public"},{"id":"202535700000100054","name":"고려궁지","lat":37.750821,"lng":126.48539,"roadAddr":"인천광역시 강화군 강화읍 북문길42","jibunAddr":"인천광역시 강화군 강화읍 관청리 743-1","openHours":"09:00-18:00","maleToilets":4,"femaleToilets":2,"disabled":true,"diaperTable":false,"emergencyBell":true,"cctv":true,"managerTel":"0329307077","source":"public","category":"public"}]