[{"id":"202446100000100190","name":"광시감리교회화장실","lat":36.618959,"lng":126.786068,"roadAddr":"충청남도 예산군 광시면 예당로","jibunAddr":"충청남도 예산군 광시면 광시리 73-1","openHours":"상시","maleToilets":2,"femaleToilets":2,"disabled":true,"diaperTable":false,"emergencyBell":false,"cctv":false,"managerTel":"0413398615","source":"public","category":"public"},{"id":"202446100000100185","name":"옛고을마당 공중화장실","lat":36.608672,"lng":126.792108,"roadAddr":"충청남도 예산군 대흥면 동서리 185-3","jibunAddr":"충청남도 예산군 대흥면 동서리 185-3","openHours":"상시","maleToilets":2,"femaleToilets":3,"disabled":true,"diaperTable":true,"emergencyBell":false,"cctv":false,"managerTel":"0413398282","source":"public","category":"public"},{"id":"202446100000100204","name":"대흥 신속리 공중화장실","lat":36.628293,"lng":126.813634,"roadAddr":"충청남도 예산군 대흥면 신속대야로 356","jibunAddr":"충청남도 예산군 대흥면 신속리 6","openHours":"상시","maleToilets":4,"femaleToilets":4,"disabled":true,"diaperTable":false,"emergencyBell":false,"cctv":false,"managerTel":"0413398651","source":"public","category":"public"},{"id":"202446100000100249","name":"예당관광지 관리사무실 앞","lat":36.638162,"lng":126.799595,"roadAddr":"충청남도 예산군 응봉면 예당관광로 161","jibunAddr":"충청남도 예산군 응봉면 후사리 448","openHours":"상시","maleToilets":6,"femaleToilets":6,"disabled":true,"diaperTable":true,"emergencyBell":true,"cctv":true,"managerTel":"0413398282","source":"public","category":"public"},{"id":"202446100000100248","name":"예당관광지 B-야영장","lat":36.635101,"lng":126.799295,"roadAddr":"충청남도 예산군 응봉면 예당관광로 144","jibunAddr":"충청남도 예산군 응봉면 후사리 115-1","openHours":"상시","maleToilets":5,"femaleToilets":5,"disabled":true,"diaperTable":true,"emergencyBell":false,"cctv":false,"managerTel":"0413398282","source":"public","category":"public"},{"id":"202446100000100246","name":"출렁다리 공중화장실","lat":36.642779,"lng":126.808221,"roadAddr":"충청남도 예산군 응봉면 예당관광로 291","jibunAddr":"충청남도 예산군 응봉면 입침리 69-5","openHours":"상시","maleToilets":5,"femaleToilets":5,"disabled":true,"diaperTable":true,"emergencyBell":false,"cctv":false,"managerTel":"0413398285","source":"public","category":"public"},{"id":"202446100000100199","name":"대흥 노동리 공중화장실","lat":36.634426,"lng":126.814046,"roadAddr":"충청남도 예산군 대흥면 예당긍모로 341","jibunAddr":"충청남도 예산군 대흥면 노동리 46-3","openHours":"상시","maleToilets":4,"femaleToilets":4,"disabled":true,"diaperTable":false,"emergencyBell":false,"cctv":false,"managerTel":"0413398651","source":"public","category":"public"},{"id":"202446100000100251","name":"예당관광지 야외음악당","lat":36.636939,"lng":126.799713,"roadAddr":"충청남도 예산군 응봉면 예당관광로 148","jibunAddr":"충청남도 예산군 응봉면 후사리 산81","openHours":"상시","maleToilets":3,"femaleToilets":3,"disabled":true,"diaperTable":true,"emergencyBell":false,"cctv":false,"managerTel":"0413398282","source":"public","category":"public"},{"id":"202446100000100202","name":"의좋은형제 공원","lat":36.606528,"lng":126.792195,"roadAddr":"충청남도 예산군 대흥면 의좋은형제길 3","jibunAddr":"충청남도 예산군 대흥면 상중리 274-1","openHours":"상시","maleToilets":7,"femaleToilets":7,"disabled":true,"diaperTable":true,"emergencyBell":false,"cctv":false,"managerTel":"0413398282","source":"public","category":"public"},{"id":"202446100000100245","name":"예당관광지 휴게소","lat":36.633626,"lng":126.796914,"roadAddr":"충청남도 예산군 응봉면 예당관광로 104","jibunAddr":"충청남도 예산군 응봉면 등촌리 199-13","openHours":"상시","maleToilets":8,"femaleToilets":8,"disabled":true,"diaperTable":true,"emergencyBell":true,"cctv":false,"managerTel":"0413398282","source":"public","category":"public"},{"id":"202446100000100200","name":"대흥 대야리 공중화장실","lat":36.616928,"lng":126.807438,"roadAddr":"충청남도 예산군 대흥면 신속대야로 175","jibunAddr":"충청남도 예산군 대흥면 대야리 66-3","openHours":"상시","maleToilets":4,"femaleToilets":4,"disabled":true,"diaperTable":false,"emergencyBell":false,"cctv":false,"managerTel":"0413398691","source":"public","category":"public"},{"id":"202446100000100250","name":"예당관광지 문화광장","lat":36.637357,"lng":126.79931,"roadAddr":"충청남도 예산군 응봉면 예당관광로 162","jibunAddr":"충청남도 예산군 응봉면 후사리 88","openHours":"상시","maleToilets":5,"femaleToilets":5,"disabled":true,"diaperTable":true,"emergencyBell":true,"cctv":true,"managerTel":"0413398282","source":"public","category":"public"},{"id":"202446100000100169","name":"후사리 공중화장실","lat":36.640721,"lng":126.800224,"roadAddr":"충청남도 예산군 응봉면 예당관광로 198","jibunAddr":"충청남도 예산군 응봉면 후사리 24-4","openHours":"상시","maleToilets":3,"femaleToilets":3,"disabled":true,"diaperTable":false,"emergencyBell":false,"cctv":false,"managerTel":"0413398282","source":"public","category":"public"},{"id":"202446100000100171","name":"동서리 공중화장실","lat":36.611386,"lng":126.790454,"roadAddr":"충청남도 예산군 대흥면 예당로 921","jibunAddr":"충청남도 예산군 대흥면 동서리 238-2","openHours":"상시","maleToilets":3,"femaleToilets":3,"disabled":true,"diaperTable":false,"emergencyBell":false,"cctv":false,"managerTel":"0413398651","source":"public","category":"public"}]