[{"id":"202446000000100046","name":"내포출장소 1층","lat":36.648902,"lng":126.672007,"roadAddr":"충청남도 홍성군 홍북읍 홍학로 50","jibunAddr":"충청남도 홍성군 홍북읍 신경리 1364","openHours":"상시","maleToilets":5,"femaleToilets":6,"disabled":true,"diaperTable":false,"emergencyBell":true,"cctv":false,"managerTel":"0416309961","source":"public","category":"public"},{"id":"202446000000100052","name":"산림전시관위","lat":36.64409,"lng":126.656946,"roadAddr":"충청남도 홍성군 홍북읍 용봉산2길 79","jibunAddr":"충청남도 홍성군 홍북읍 상하리 107-117","openHours":"상시","maleToilets":5,"femaleToilets":0,"disabled":true,"diaperTable":false,"emergencyBell":true,"cctv":false,"managerTel":"0416301783","source":"public","category":"public"},{"id":"202446000000100023","name":"용봉산 주차장","lat":36.642962,"lng":126.662269,"jibunAddr":"충청남도 홍성군 홍북읍 상하리 88-25","openHours":"상시","maleToilets":7,"femaleToilets":4,"disabled":true,"diaperTable":false,"emergencyBell":true,"cctv":false,"managerTel":"026309418","source":"public","category":"public"},{"id":"202446000000100044","name":"홍북읍 행정복지센터 1층","lat":36.64963,"lng":126.692635,"roadAddr":"충청남도 홍성군 홍북읍 홍북로 450","jibunAddr":"충청남도 홍성군 홍북읍 대동리 193","openHours":"정시","maleToilets":3,"femaleToilets":3,"disabled":true,"diaperTable":false,"emergencyBell":false,"cctv":false,"managerTel":"0416309603","source":"public","category":"public"},{"id":"202446000000100005","name":"내포119안전센터 화장실","lat":36.647315,"lng":126.677031,"roadAddr":"충청남도 홍성군 홍북읍 의향로 133","jibunAddr":"충청남도 홍성군 홍북읍 신경리 1190","openHours":"상시","maleToilets":3,"femaleToilets":1,"disabled":true,"diaperTable":false,"emergencyBell":false,"cctv":false,"managerTel":"0416300421","source":"public","category":"public"},{"id":"202446000000100022","name":"용봉사 입구","lat":36.650123,"lng":126.655465,"roadAddr":"충청남도 홍성군 홍북읍 용봉산1길 109","jibunAddr":"충청남도 홍북읍 신경리 510-24","openHours":"상시","maleToilets":3,"femaleToilets":2,"disabled":false,"diaperTable":false,"emergencyBell":false,"cctv":false,"managerTel":"026309418","source":"public","category":"public"},{"id":"202446000000100045","name":"홍북읍 행정복지센터 2층","lat":36.64963,"lng":126.692635,"roadAddr":"충청남도 홍성군 홍북읍 홍북로 450","jibunAddr":"충청남도 홍성군 홍북읍 대동리 193","openHours":"정시","maleToilets":3,"femaleToilets":3,"disabled":true,"diaperTable":false,"emergencyBell":false,"cctv":false,"managerTel":"0416309603","source":"public","category":"public"},{"id":"202446000000100047","name":"내포출장소 2층","lat":36.648902,"lng":126.672007,"roadAddr":"충청남도 홍성군 홍북읍 홍학로 50","jibunAddr":"충청남도 홍성군 홍북읍 신경리 1364","openHours":"상시","maleToilets":6,"femaleToilets":6,"disabled":false,"diaperTable":false,"emergencyBell":true,"cctv":false,"managerTel":"0416309961","source":"public","category":"public"},{"id":"202446000000100024","name":"용봉산 공영주차장","lat":36.630396,"lng":126.65164,"jibunAddr":"충청남도 홍북읍 상하리 564-18","openHours":"상시","maleToilets":4,"femaleToilets":2,"disabled":true,"diaperTable":false,"emergencyBell":false,"cctv":false,"managerTel":"026309418","source":"public","category":"public"},{"id":"202446000000100048","name":"내포출장소 3층","lat":36.648902,"lng":126.672007,"roadAddr":"충청남도 홍성군 홍북읍 홍학로 50","jibunAddr":"충청남도 홍성군 홍북읍 신경리 1364","openHours":"상시","maleToilets":6,"femaleToilets":6,"disabled":false,"diaperTable":false,"emergencyBell":true,"cctv":false,"managerTel":"0416309961","source":"public","category":"public"},{"id":"202446000000100051","name":"구룡대매표소","lat":36.64573,"lng":126.659859,"roadAddr":"충청남도홍성군 홍북읍 용봉산1길 43","jibunAddr":"충청남도 홍성군 홍북읍 신경리 512-3","openHours":"상시","maleToilets":9,"femaleToilets":4,"disabled":true,"diaperTable":false,"emergencyBell":true,"cctv":false,"managerTel":"0416301783","source":"public","category":"public"}]