[{"id":"202556800000100278","name":"당진(목포)졸음쉼터","lat":36.900263,"lng":126.718299,"roadAddr":"충청남도 당진시 송악읍 서해안고속도로","jibunAddr":"충청남도 당진시 송악읍 영천리","openHours":"상시","maleToilets":2,"femaleToilets":3,"disabled":true,"diaperTable":false,"emergencyBell":true,"cctv":true,"managerTel":"0548112838","source":"public","category":"public"},{"id":"202556800000100196","name":"송악어린이공원","lat":36.903087,"lng":126.694808,"roadAddr":"충청남도 당진시 송악읍 반촌로 104-11","jibunAddr":"충청남도 당진시 송악읍 기지시리 457","openHours":"상시","maleToilets":4,"femaleToilets":2,"disabled":true,"diaperTable":true,"emergencyBell":true,"cctv":false,"managerTel":"0413504321","source":"public","category":"public"},{"id":"202556800000100267","name":"반촌주유소","lat":36.898677,"lng":126.703968,"roadAddr":"충청남도 당진시 송악읍 반촌로 233","jibunAddr":"충청남도 당진시 송악읍 반촌리 399-1","openHours":"정시","maleToilets":1,"femaleToilets":1,"disabled":true,"diaperTable":false,"emergencyBell":false,"cctv":false,"source":"public","category":"public"},{"id":"202556800000100257","name":"해바라기주유소","lat":36.89454,"lng":126.718656,"roadAddr":"충청남도 당진시 송악읍 서해로 6622","jibunAddr":"충청남도 당진시 송악읍 광명리 236-37","openHours":"정시","maleToilets":1,"femaleToilets":2,"disabled":true,"diaperTable":false,"emergencyBell":false,"cctv":false,"source":"public","category":"public"},{"id":"202556800000100164","name":"기지시버스정류장","lat":36.904334,"lng":126.694623,"jibunAddr":"충청남도 당진시 송악읍 기지시리 155-95","openHours":"상시","maleToilets":2,"femaleToilets":1,"disabled":false,"diaperTable":false,"emergencyBell":false,"cctv":false,"managerTel":"0413504321","source":"public","category":"public"},{"id":"202556800000100163","name":"송악오룡산","lat":36.907593,"lng":126.700535,"jibunAddr":"충청남도 당진시 송악읍 반촌리 853-15","openHours":"상시","maleToilets":2,"femaleToilets":2,"disabled":false,"diaperTable":false,"emergencyBell":false,"cctv":false,"managerTel":"0413504321","source":"public","category":"public"},{"id":"202556800000100070","name":"기지시근린공원","lat":36.902335,"lng":126.697364,"jibunAddr":"충청남도 당진시 송악읍 반촌리 861-34","openHours":"상시","maleToilets":1,"femaleToilets":1,"disabled":true,"diaperTable":false,"emergencyBell":true,"cctv":true,"managerTel":"0413504321","source":"public","category":"public"},{"id":"202556800000100253","name":"당진파크주유소","lat":36.894371,"lng":126.698079,"roadAddr":"충청남도 당진시 송악읍 틀모시로 666","jibunAddr":"충청남도 당진시 송악읍 기지시리 24-1","openHours":"정시","maleToilets":2,"femaleToilets":2,"disabled":true,"diaperTable":false,"emergencyBell":false,"cctv":false,"source":"public","category":"public"},{"id":"202556800000100277","name":"당진(서울)졸음쉼터","lat":36.900263,"lng":126.718299,"roadAddr":"충청남도 당진시 송악읍 서해안고속도로","jibunAddr":"충청남도 당진시 송악읍 영천리","openHours":"상시","maleToilets":2,"femaleToilets":4,"disabled":true,"diaperTable":false,"emergencyBell":true,"cctv":true,"managerTel":"0548112838","source":"public","category":"public"}]