[{"id":"202445200000100149","name":"인주면사무소","lat":36.868985,"lng":126.884587,"roadAddr":"충청남도 아산시 인주면 현대로1295","jibunAddr":"충청남도 아산시 인주면 밀두리 150-1번지","openHours":"(평일)09:00-18:00","maleToilets":3,"femaleToilets":2,"disabled":true,"diaperTable":true,"emergencyBell":false,"cctv":true,"managerTel":"0415373672","source":"public","category":"public"},{"id":"202445200000100148","name":"형제송입구","lat":36.835469,"lng":126.884991,"jibunAddr":"충청남도 아산시 인주면 해암리 308-1번지","openHours":"09:00-18:00","maleToilets":5,"femaleToilets":3,"disabled":false,"diaperTable":false,"emergencyBell":true,"cctv":false,"managerTel":"0415373674","source":"public","category":"public"},{"id":"202445200000100153","name":"대윤사","lat":36.835661,"lng":126.885049,"jibunAddr":"충청남도 아산시 인주면 해암리 308-2","openHours":"상시","maleToilets":5,"femaleToilets":3,"disabled":false,"diaperTable":false,"emergencyBell":true,"cctv":false,"source":"public","category":"public"},{"id":"202445200000100151","name":"현대조은주유소","lat":36.850851,"lng":126.881371,"roadAddr":"충청남도 아산시 인주면 현대로 1088","jibunAddr":"충청남도 아산시 인주면 문방리 40-4","openHours":"상시","maleToilets":2,"femaleToilets":1,"disabled":false,"diaperTable":false,"emergencyBell":false,"cctv":true,"managerTel":"0415338591","source":"public","category":"public"},{"id":"202445200000100152","name":"해암주유소","lat":36.831368,"lng":126.883693,"roadAddr":"충청남도 아산시 인주면 현대로 855","jibunAddr":"충청남도 아산시 인주면 해암리 281-8","openHours":"상시","maleToilets":2,"femaleToilets":1,"disabled":false,"diaperTable":false,"emergencyBell":false,"cctv":false,"managerTel":"0415337701","source":"public","category":"public"}]