[{"id":"202556800000100192","name":"당진천벚꽃길","lat":36.86257,"lng":126.678267,"roadAddr":"충청남도 당진시 순성면 버들길 12-7","jibunAddr":"충청남도 당진시 순성면 성북리 893-3","openHours":"상시","maleToilets":2,"femaleToilets":2,"disabled":false,"diaperTable":false,"emergencyBell":true,"cctv":false,"managerTel":"0413504321","source":"public","category":"public"},{"id":"202556800000100227","name":"아미산주차장","lat":36.847799,"lng":126.654992,"roadAddr":"충청남도 당진시 면천면 아미로 351","jibunAddr":"충청남도 당진시 면천면 죽동리 563-4","openHours":"상시","maleToilets":5,"femaleToilets":4,"disabled":true,"diaperTable":true,"emergencyBell":true,"cctv":false,"managerTel":"0413504321","source":"public","category":"public"},{"id":"202556800000100273","name":"구절산","lat":36.838123,"lng":126.687289,"jibunAddr":"충청남도 당진시 순성면 봉소리 1120","openHours":"상시","maleToilets":2,"femaleToilets":2,"disabled":true,"diaperTable":true,"emergencyBell":true,"cctv":false,"managerTel":"0413504321","source":"public","category":"public"},{"id":"202556800000100069","name":"청룡주유소","lat":36.858843,"lng":126.683177,"roadAddr":"충청남도 당진시 순성면 남부로 811","jibunAddr":"충청남도 당진시 순성면 성북리 26","openHours":"정시","maleToilets":2,"femaleToilets":1,"disabled":false,"diaperTable":false,"emergencyBell":false,"cctv":false,"source":"public","category":"public"},{"id":"202556800000100152","name":"(주)행나면천IC하나주유소","lat":36.827428,"lng":126.655327,"roadAddr":"충청남도 당진시 면천면 아미로 93","jibunAddr":"충청남도 당진시 면천면 송학리 469-4","openHours":"정시","maleToilets":1,"femaleToilets":3,"disabled":true,"diaperTable":false,"emergencyBell":false,"cctv":false,"source":"public","category":"public"}]