[{"id":"202444900000101905","name":"미죽보건진료소 화장실","lat":36.737728,"lng":127.150069,"roadAddr":"충청남도 천안시 동남구 풍세면 미죽2길 6","openHours":"정시","maleToilets":0,"femaleToilets":0,"disabled":false,"diaperTable":false,"emergencyBell":false,"cctv":false,"managerTel":"0415666881","source":"public","category":"public"},{"id":"202456900000101480","name":"소정면우체국","lat":36.714053,"lng":127.155257,"roadAddr":"세종특별자치시 소정면 소정구길 110, 소정우체국","jibunAddr":"세종특별자치시 소정면 소정리 267-6 소정우체국","openHours":"정시","maleToilets":4,"femaleToilets":2,"disabled":false,"diaperTable":false,"emergencyBell":false,"cctv":false,"managerTel":"0445666400","source":"public","category":"public"},{"id":"202456900000101478","name":"소정면보건지소","lat":36.722035,"lng":127.157237,"roadAddr":"세종특별자치시 소정면 소정구길 201","jibunAddr":"세종특별자치시 소정면 소정리 156-5","openHours":"정시","maleToilets":2,"femaleToilets":2,"disabled":true,"diaperTable":false,"emergencyBell":false,"cctv":false,"managerTel":"0443012292","source":"public","category":"public"},{"id":"202456900000101481","name":"소정면치안센터","lat":36.718194,"lng":127.156851,"roadAddr":"세종특별자치시 소정면 소정구길 160, 소정치안센터","jibunAddr":"세종특별자치시 소정면 소정리 175-2 소정치안센터","openHours":"정시","maleToilets":2,"femaleToilets":0,"disabled":false,"diaperTable":false,"emergencyBell":false,"cctv":false,"managerTel":"0445666112","source":"public","category":"public"},{"id":"202456900000101667","name":"태산주유소","lat":36.697542,"lng":127.153681,"roadAddr":"세종특별자치시 소정면 세종로 4274","jibunAddr":"세종특별자치시 소정면 운당리 32-12","openHours":"정시","maleToilets":2,"femaleToilets":1,"disabled":false,"diaperTable":false,"emergencyBell":false,"cctv":false,"managerTel":"0445236565","source":"public","category":"public"},{"id":"202456900000101479","name":"소정면사무소","lat":36.722309,"lng":127.158598,"roadAddr":"세종특별자치시 소정면 소정구길 204, 소정면사무소","jibunAddr":"세종특별자치시 소정면 소정리 48 소정면사무소","openHours":"정시","maleToilets":4,"femaleToilets":1,"disabled":true,"diaperTable":false,"emergencyBell":false,"cctv":false,"managerTel":"0443016013","source":"public","category":"public"},{"id":"202456900000101482","name":"소정쉼터","lat":36.718873,"lng":127.156302,"roadAddr":"세종특별자치시 소정면 소정구길 163","jibunAddr":"세종특별자치시 소정면 소정리 196-11","openHours":"상시","maleToilets":2,"femaleToilets":2,"disabled":false,"diaperTable":false,"emergencyBell":true,"cctv":false,"managerTel":"0443016031","source":"public","category":"public"},{"id":"202456900000101351","name":"범한주유소","lat":36.728124,"lng":127.163772,"roadAddr":"세종특별자치시 소정면 세종로 4679","jibunAddr":"세종특별자치시 소정면 대곡리 342","openHours":"정시","maleToilets":1,"femaleToilets":1,"disabled":false,"diaperTable":false,"emergencyBell":false,"cctv":false,"source":"public","category":"public"},{"id":"202456900000101284","name":"진영주유소","lat":36.731322,"lng":127.168311,"roadAddr":"세종특별자치시 소정면 세종로 4732","jibunAddr":"세종특별자치시 소정면 대곡리 371-4","openHours":"정시","maleToilets":3,"femaleToilets":1,"disabled":false,"diaperTable":false,"emergencyBell":false,"cctv":false,"managerTel":"0448660220","source":"public","category":"public"},{"id":"202456900000101843","name":"소정119지역대","lat":36.721664,"lng":127.15821,"roadAddr":"세종특별자치시 소정면 학교말길 17-3, 소정면119지역대","jibunAddr":"세종특별자치시 소정면 소정리 48-1 소정면119지역대","openHours":"정시","maleToilets":0,"femaleToilets":0,"disabled":false,"diaperTable":false,"emergencyBell":false,"cctv":false,"managerTel":"0443008534","source":"public","category":"public"}]