[{"id":"202444900000102020","name":"천안시립노인전문병원 1층 화장실","lat":36.82542,"lng":127.226195,"roadAddr":"충청남도 천안시 동남구 목천읍 삼방로 735","openHours":"09:00~18:00","maleToilets":4,"femaleToilets":3,"disabled":true,"diaperTable":false,"emergencyBell":true,"cctv":true,"managerTel":"0415215008","source":"public","category":"public"},{"id":"202444900000101828","name":"덕전보건진료소 화장실","lat":36.818319,"lng":127.224209,"roadAddr":"충청남도 천안시 동남구 목천읍 유왕골2길 10 (덕전리, 의무과목천덕전보건진료소)","openHours":"(평일)09:00~18:00","maleToilets":0,"femaleToilets":0,"disabled":false,"diaperTable":false,"emergencyBell":false,"cctv":false,"managerTel":"0415683393","source":"public","category":"public"},{"id":"202444900000101827","name":"목천보건지소 화장실","lat":36.785392,"lng":127.234799,"roadAddr":"충청남도 천안시 동남구 목천읍 서리1길41-9","openHours":"(평일)09:00~18:00","maleToilets":4,"femaleToilets":2,"disabled":false,"diaperTable":false,"emergencyBell":false,"cctv":false,"managerTel":"0415212680","source":"public","category":"public"},{"id":"202444900000101582","name":"간이화장실(용연저수지 주차장)","lat":36.801376,"lng":127.229608,"jibunAddr":"충청남도 천안시 동남구 목천읍 교촌리 111-1","openHours":"09:00~18:00","maleToilets":1,"femaleToilets":0,"disabled":false,"diaperTable":false,"emergencyBell":false,"cctv":false,"managerTel":"0415214672","source":"public","category":"public"},{"id":"202444900000101583","name":"간이화장실(용연저수지)","lat":36.811925,"lng":127.224654,"jibunAddr":"충청남도 천안시 동남구 목천읍 덕전리 344-3","openHours":"09:00~18:00","maleToilets":2,"femaleToilets":1,"disabled":false,"diaperTable":false,"emergencyBell":false,"cctv":false,"managerTel":"0415214672","source":"public","category":"public"},{"id":"202444900000102017","name":"이동녕선생기념관","lat":36.790715,"lng":127.239287,"roadAddr":"충청남도 천안시 동남구 목천읍 동리4길 38","openHours":"09:00~18:00","maleToilets":5,"femaleToilets":5,"disabled":true,"diaperTable":false,"emergencyBell":true,"cctv":false,"managerTel":"0415212825","source":"public","category":"public"},{"id":"202444900000101564","name":"용암리 자연휴양지 간이화장실","lat":36.785442,"lng":127.256819,"roadAddr":"충청남도 천안시 동남구 북면 용암리 339","openHours":"00:00~23:50","maleToilets":5,"femaleToilets":4,"disabled":false,"diaperTable":false,"emergencyBell":true,"cctv":false,"managerTel":"0415214733","source":"public","category":"public"},{"id":"202444900000101825","name":"목천읍 행정복지센터 1층 화장실","lat":36.785179,"lng":127.234609,"roadAddr":"충청남도 천안시 동남구 목천읍 서리1길 41-7","openHours":"(평일)09:00~18:00","maleToilets":2,"femaleToilets":3,"disabled":true,"diaperTable":false,"emergencyBell":true,"cctv":true,"managerTel":"0415214651","source":"public","category":"public"},{"id":"202444900000101554","name":"국민여가캠핑장 1","lat":36.801654,"lng":127.226785,"roadAddr":"충청남도 천안시 동남구 목천읍 교촌7길 46-13","openHours":"상시","maleToilets":4,"femaleToilets":4,"disabled":true,"diaperTable":false,"emergencyBell":true,"cctv":false,"managerTel":"0415295113","source":"public","category":"public"},{"id":"202444900000101555","name":"국민여가캠핑장 2","lat":36.801654,"lng":127.226785,"roadAddr":"충청남도 천안시 동남구 목천읍 교촌7길 46-13","openHours":"상시","maleToilets":1,"femaleToilets":4,"disabled":true,"diaperTable":false,"emergencyBell":true,"cctv":false,"managerTel":"0415295113","source":"public","category":"public"}]