[{"id":"202444900000101795","name":"한들문화센터 1(사무실옆 화장실)","lat":36.828034,"lng":127.104606,"roadAddr":"충청남도 천안시 서북구 음봉로861-50","openHours":"정시","maleToilets":4,"femaleToilets":4,"disabled":true,"diaperTable":false,"emergencyBell":true,"cctv":true,"managerTel":"0415095180","source":"public","category":"public"},{"id":"202556600000100003","name":"일등식자재마트 개방화장실","lat":36.827863,"lng":127.133507,"roadAddr":"충청남도 천안시 서북구 성정중4길 3, 천안일등식자재마트 (성정동)","jibunAddr":"충청남도 천안시 서북구 성정동 1230 천안일등식자재마트","openHours":"07:00~22:00","maleToilets":4,"femaleToilets":3,"disabled":true,"diaperTable":false,"emergencyBell":false,"cctv":false,"source":"public","category":"public"},{"id":"202556600000100008","name":"호수매운탕 개방화장실","lat":36.844851,"lng":127.130089,"roadAddr":"충청남도 천안시 서북구 성성2길 61 (성성동)","jibunAddr":"충청남도 천안시 서북구 성성동 90-5","openHours":"10:00~21:00","maleToilets":4,"femaleToilets":3,"disabled":false,"diaperTable":false,"emergencyBell":false,"cctv":false,"source":"public","category":"public"},{"id":"202556600000100002","name":"영웅마트 성성점 개방화장실","lat":36.841877,"lng":127.130967,"roadAddr":"충청남도 천안시 서북구 성성6로 97 (성성동)","jibunAddr":"충청남도 천안시 서북구 성성동 125-7","openHours":"08:00~22:30","maleToilets":3,"femaleToilets":2,"disabled":false,"diaperTable":false,"emergencyBell":false,"cctv":false,"source":"public","category":"public"},{"id":"202556600000100007","name":"마젠타 개방화장실","lat":36.846493,"lng":127.129597,"roadAddr":"충청남도 천안시 서북구 성성2길 81 (성성동)","jibunAddr":"충청남도 천안시 서북구 성성동 266-1","openHours":"09:00~21:00","maleToilets":4,"femaleToilets":3,"disabled":false,"diaperTable":false,"emergencyBell":false,"cctv":false,"source":"public","category":"public"},{"id":"202444900000101909","name":"부성2동 행정복지센터 1층 화장실","lat":36.838642,"lng":127.128146,"roadAddr":"충청남도 천안시 서북구 노태산로 133","openHours":"09:00~18:00","maleToilets":6,"femaleToilets":6,"disabled":true,"diaperTable":true,"emergencyBell":true,"cctv":true,"managerTel":"0415216691","source":"public","category":"public"},{"id":"202444900000101588","name":"천안고속버스터미널","lat":36.835698,"lng":127.125393,"jibunAddr":"충청남도 천안시 서북구 백석동 1218","openHours":"05:00~24:00","maleToilets":14,"femaleToilets":9,"disabled":true,"diaperTable":true,"emergencyBell":true,"cctv":false,"managerTel":"0416406160","source":"public","category":"public"},{"id":"202444900000101620","name":"성성호수공원 방문자센터 1층 화장실","lat":36.847604,"lng":127.128447,"roadAddr":"충청남도 천안시 서북구 성성2길 95","openHours":"09:00~18:00","maleToilets":5,"femaleToilets":6,"disabled":true,"diaperTable":true,"emergencyBell":true,"cctv":true,"managerTel":"0415215411","source":"public","category":"public"},{"id":"202444900000101614","name":"성성호수공원 공중화장실 2(장수촌)","lat":36.844835,"lng":127.126667,"roadAddr":"충청남도 천안시 서북구 공단로 68","openHours":"상시","maleToilets":2,"femaleToilets":2,"disabled":true,"diaperTable":false,"emergencyBell":true,"cctv":false,"managerTel":"0415215411","source":"public","category":"public"},{"id":"202444900000102178","name":"천안시장애인종합복지관 1층 화장실","lat":36.838694,"lng":127.131202,"roadAddr":"충청남도 천안시 서북구 두정고2길 51","openHours":"(평일)09:00-18:00","maleToilets":2,"femaleToilets":1,"disabled":true,"diaperTable":true,"emergencyBell":true,"cctv":true,"managerTel":"0415510420","source":"public","category":"public"},{"id":"202444900000101999","name":"두정지구대","lat":36.833216,"lng":127.131981,"roadAddr":"충청남도 천안시 서북구 오성9길 40","openHours":"상시","maleToilets":2,"femaleToilets":1,"disabled":true,"diaperTable":false,"emergencyBell":false,"cctv":false,"managerTel":"0415586112","source":"public","category":"public"},{"id":"202444900000101796","name":"한들문화센터 2(수영장옆 화장실)","lat":36.828034,"lng":127.104606,"roadAddr":"충청남도 천안시 서북구 음봉로861-50","openHours":"정시","maleToilets":6,"femaleToilets":4,"disabled":true,"diaperTable":false,"emergencyBell":true,"cctv":true,"managerTel":"0415095180","source":"public","category":"public"},{"id":"202444900000101621","name":"성성호수공원 방문자센터 2층 화장실","lat":36.847604,"lng":127.128447,"roadAddr":"충청남도 천안시 서북구 성성2길 95","openHours":"09:00~18:00","maleToilets":5,"femaleToilets":6,"disabled":true,"diaperTable":true,"emergencyBell":true,"cctv":true,"managerTel":"0415215411","source":"public","category":"public"},{"id":"202444900000101629","name":"노태공원 화장실","lat":36.835698,"lng":127.125393,"roadAddr":"충청남도 천안시 서북구 백석동 1218","openHours":"상시","maleToilets":5,"femaleToilets":6,"disabled":true,"diaperTable":false,"emergencyBell":true,"cctv":false,"managerTel":"0415212774","source":"public","category":"public"},{"id":"202444900000101797","name":"한들문화센터 3(경비실옆 화장실)","lat":36.828034,"lng":127.104606,"roadAddr":"충청남도 천안시 서북구 음봉로861-50","openHours":"정시","maleToilets":5,"femaleToilets":5,"disabled":true,"diaperTable":false,"emergencyBell":true,"cctv":true,"managerTel":"0415095180","source":"public","category":"public"},{"id":"202445200000100163","name":"GS산동주유소","lat":36.830019,"lng":127.094589,"jibunAddr":"충청남도 아산시 음봉면 산동리 445-3번지","openHours":"상시","maleToilets":3,"femaleToilets":1,"disabled":false,"diaperTable":false,"emergencyBell":false,"cctv":false,"source":"public","category":"public"},{"id":"202445200000100168","name":"음봉산동종합사회복지관","lat":36.830608,"lng":127.095994,"jibunAddr":"충청남도 아산시 음봉면 산동리 420-11번지","openHours":"상시","maleToilets":6,"femaleToilets":10,"disabled":true,"diaperTable":false,"emergencyBell":false,"cctv":false,"source":"public","category":"public"},{"id":"202445200000100170","name":"음봉농협주유소","lat":36.829624,"lng":127.093062,"roadAddr":"충청남도 아산시 음봉면 삼성로 561","jibunAddr":"충청남도 아산시 음봉면 덕지리 173번지 4호","openHours":"상시","maleToilets":3,"femaleToilets":2,"disabled":false,"diaperTable":false,"emergencyBell":false,"cctv":false,"source":"public","category":"public"}]