[{"id":"202445200000100189","name":"신항만주유소","lat":36.890922,"lng":126.958482,"jibunAddr":"충청남도 아산시 영인면 와우리 8-2","openHours":"상시","maleToilets":2,"femaleToilets":1,"disabled":false,"diaperTable":false,"emergencyBell":false,"cctv":false,"source":"public","category":"public"},{"id":"202445200000100197","name":"고룡산주유소","lat":36.89676,"lng":126.979036,"roadAddr":"충청남도 아산시 영인면 장영실로 619","openHours":"상시","maleToilets":2,"femaleToilets":1,"disabled":false,"diaperTable":false,"emergencyBell":false,"cctv":false,"source":"public","category":"public"},{"id":"202445200000100185","name":"구성주유소","lat":36.903233,"lng":126.962587,"jibunAddr":"충청남도 아산시 영인면 구성리 3-2","openHours":"상시","maleToilets":2,"femaleToilets":1,"disabled":false,"diaperTable":false,"emergencyBell":false,"cctv":false,"source":"public","category":"public"},{"id":"202445200000100090","name":"한성피씨건설 아산공장","lat":36.875216,"lng":126.972345,"roadAddr":"충청남도 아산시 영인면 토정샘로 66","jibunAddr":"충청남도 아산시 영인면 역리 60-3","openHours":"상시","maleToilets":43,"femaleToilets":14,"disabled":true,"diaperTable":false,"emergencyBell":false,"cctv":true,"managerTel":"0419128025","source":"public","category":"public"},{"id":"202445200000100198","name":"(주)디오티디 아산꿀꿀이주유소","lat":36.898099,"lng":126.985982,"roadAddr":"충청남도 아산시 영인면 장영실로 684","openHours":"상시","maleToilets":2,"femaleToilets":1,"disabled":false,"diaperTable":false,"emergencyBell":false,"cctv":false,"source":"public","category":"public"},{"id":"202445200000100200","name":"중부주유소","lat":36.898815,"lng":126.985896,"roadAddr":"충청남도 아산시 영인면 장영실로 687","openHours":"상시","maleToilets":2,"femaleToilets":1,"disabled":false,"diaperTable":false,"emergencyBell":false,"cctv":false,"source":"public","category":"public"}]