[{"id":"202445200000100227","name":"신달주유소","lat":36.799668,"lng":126.940126,"roadAddr":"충청남도 아산시 신창면 서부북로 691","jibunAddr":"충청남도 아산시 신창면 신달리 285-6번지","openHours":"정시","maleToilets":0,"femaleToilets":0,"disabled":false,"diaperTable":false,"emergencyBell":false,"cctv":false,"managerTel":"0415416667","source":"public","category":"public"},{"id":"202445200000100226","name":"서주프라자","lat":36.790884,"lng":126.955717,"roadAddr":"충청남도 아산시 신창면 남성길 134","jibunAddr":"충청남도 아산시 신창면 남성리 189-12번지","openHours":"정시","maleToilets":30,"femaleToilets":8,"disabled":true,"diaperTable":false,"emergencyBell":false,"cctv":false,"source":"public","category":"public"},{"id":"202445200000100230","name":"아산시 자전거도로(신창면)","lat":36.804453,"lng":126.920183,"roadAddr":"충청남도 신창면 오목리 113-2","jibunAddr":"충청남도 아산시 신창면 오목리 산 113-2번지","openHours":"정시","maleToilets":2,"femaleToilets":1,"disabled":false,"diaperTable":false,"emergencyBell":true,"cctv":false,"managerTel":"0415373701","source":"public","category":"public"},{"id":"202445200000100222","name":"대지주유소","lat":36.783073,"lng":126.94567,"roadAddr":"충청남도 아산시 신창면 온천대로 953","jibunAddr":"충청남도 아산시 신창면 남성리 539-1번지","openHours":"정시","maleToilets":2,"femaleToilets":1,"disabled":false,"diaperTable":false,"emergencyBell":false,"cctv":false,"managerTel":"0415342354","source":"public","category":"public"},{"id":"202445200000100219","name":"신창면사무소","lat":36.803551,"lng":126.935581,"roadAddr":"충청남도 아산시 신창면 서부북로 631","jibunAddr":"충청남도 아산시 신창면 오목리 2-1번지","openHours":"정시","maleToilets":3,"femaleToilets":2,"disabled":false,"diaperTable":false,"emergencyBell":false,"cctv":false,"managerTel":"0415373701","source":"public","category":"public"}]