[{"id":"202445200000100191","name":"아산종합사회복지관","lat":36.853865,"lng":126.958694,"jibunAddr":"충청남도 아산시 영인면 아산리 125-2","openHours":"09:00-18:00","maleToilets":6,"femaleToilets":10,"disabled":true,"diaperTable":false,"emergencyBell":false,"cctv":false,"source":"public","category":"public"},{"id":"202445200000100173","name":"미라클주유소","lat":36.852995,"lng":126.9831,"roadAddr":"충청남도 아산시 음봉면 아산온천로 240","jibunAddr":"충청남도 아산시 음봉면 신수리 291-4","openHours":"상시","maleToilets":4,"femaleToilets":2,"disabled":false,"diaperTable":false,"emergencyBell":false,"cctv":false,"source":"public","category":"public"},{"id":"202445200000100182","name":"나드리 휴게소","lat":36.850701,"lng":126.961479,"roadAddr":"충청남도 아산시 영인면 아산로 854","jibunAddr":"충청남도 아산시 영인면 아산리 44-8","openHours":"상시","maleToilets":1,"femaleToilets":0,"disabled":false,"diaperTable":false,"emergencyBell":false,"cctv":false,"source":"public","category":"public"},{"id":"202445200000100169","name":"아산스파비스","lat":36.855682,"lng":126.980707,"jibunAddr":"충청남도 아산시 음봉면 신수리 288-6번지","openHours":"상시","maleToilets":15,"femaleToilets":20,"disabled":true,"diaperTable":false,"emergencyBell":false,"cctv":false,"source":"public","category":"public"},{"id":"202445200000100188","name":"25LPG충전소","lat":36.850481,"lng":126.961657,"jibunAddr":"충청남도 아산시 영인면 아산리 44-8","openHours":"상시","maleToilets":3,"femaleToilets":1,"disabled":false,"diaperTable":false,"emergencyBell":false,"cctv":false,"source":"public","category":"public"},{"id":"202445200000100199","name":"명품주유소","lat":36.850701,"lng":126.961479,"roadAddr":"충청남도 아산시 영인면 아산로 854","openHours":"상시","maleToilets":2,"femaleToilets":1,"disabled":false,"diaperTable":false,"emergencyBell":false,"cctv":false,"source":"public","category":"public"}]