[{"id":"202556800000100042","name":"당진종합운동장","lat":36.922568,"lng":126.597183,"roadAddr":"충청남도 당진시 고대면 고대로 33","jibunAddr":"충청남도 당진시 고대면 진관리 349-20","openHours":"09:00∼22:00","maleToilets":48,"femaleToilets":48,"disabled":true,"diaperTable":false,"emergencyBell":false,"cctv":false,"managerTel":"0413504321","source":"public","category":"public"},{"id":"202556800000100041","name":"당진실내체육관","lat":36.922568,"lng":126.597183,"roadAddr":"충청남도 당진시 고대면 고대로 33","jibunAddr":"충청남도 당진시 고대면 진관리 349-20","openHours":"09:00∼22:00","maleToilets":29,"femaleToilets":33,"disabled":false,"diaperTable":false,"emergencyBell":false,"cctv":false,"managerTel":"0413504321","source":"public","category":"public"},{"id":"202556800000100040","name":"당진트레이닝센터","lat":36.922568,"lng":126.597183,"roadAddr":"충청남도 당진시 고대면 고대로 33","jibunAddr":"충청남도 당진시 고대면 진관리 349-20","openHours":"09:00∼21:00","maleToilets":10,"femaleToilets":6,"disabled":false,"diaperTable":false,"emergencyBell":false,"cctv":false,"managerTel":"0413504321","source":"public","category":"public"},{"id":"202556800000100128","name":"고대농협주유소","lat":36.924699,"lng":126.601075,"roadAddr":"충청남도 당진시 고대면 고대로 10-19","jibunAddr":"충청남도 당진시 고대면 용두리 644-72","openHours":"09:00∼18:00","maleToilets":2,"femaleToilets":1,"disabled":false,"diaperTable":false,"emergencyBell":false,"cctv":false,"source":"public","category":"public"},{"id":"202556800000100037","name":"당진종합운동장 버스정류장 인근","lat":36.922568,"lng":126.597183,"roadAddr":"충청남도 당진시 고대면 고대로 33","jibunAddr":"충청남도 당진시 고대면 진관리 349-20","openHours":"상시","maleToilets":3,"femaleToilets":8,"disabled":true,"diaperTable":false,"emergencyBell":true,"cctv":false,"managerTel":"0413504321","source":"public","category":"public"},{"id":"202556800000100124","name":"고대주유소","lat":36.929037,"lng":126.593209,"roadAddr":"충청남도 당진시 고대면 고대로 123","jibunAddr":"충청남도 당진시 고대면 진관리 685-4","openHours":"09:00∼18:00","maleToilets":2,"femaleToilets":1,"disabled":false,"diaperTable":false,"emergencyBell":false,"cctv":false,"source":"public","category":"public"},{"id":"202556800000100039","name":"당진종합운동장 생활체육공원 1","lat":36.922568,"lng":126.597183,"roadAddr":"충청남도 당진시 고대면 고대로 33","jibunAddr":"충청남도 당진시 고대면 진관리 349-20","openHours":"상시","maleToilets":8,"femaleToilets":8,"disabled":true,"diaperTable":false,"emergencyBell":false,"cctv":true,"managerTel":"0413504321","source":"public","category":"public"},{"id":"202556800000100004","name":"고대면행정복지센터화장실","lat":36.925922,"lng":126.59669,"roadAddr":"충청남도 당진시 고대면 구장터길 9","jibunAddr":"충청남도 당진시 고대면 용두리 664-1","openHours":"09:00∼18:00","maleToilets":9,"femaleToilets":3,"disabled":true,"diaperTable":false,"emergencyBell":true,"cctv":false,"managerTel":"0413504321","source":"public","category":"public"},{"id":"202556800000100123","name":"해나루주유소","lat":36.954623,"lng":126.59013,"roadAddr":"충청남도 당진시 고대면 대호만로 767-3","jibunAddr":"충청남도 당진시 고대면 장항리 544-2","openHours":"09:00∼18:00","maleToilets":2,"femaleToilets":1,"disabled":false,"diaperTable":false,"emergencyBell":false,"cctv":false,"source":"public","category":"public"},{"id":"202556800000100038","name":"당진종합운동장 생활체육공원 2","lat":36.924189,"lng":126.596506,"roadAddr":"충청남도 당진시 고대면 고대로 59","jibunAddr":"충청남도 당진시 고대면 진관리 350","openHours":"상시","maleToilets":8,"femaleToilets":8,"disabled":true,"diaperTable":false,"emergencyBell":false,"cctv":true,"managerTel":"0413504321","source":"public","category":"public"}]