[{"id":"202556800000100201","name":"한진공원","lat":36.973107,"lng":126.758749,"roadAddr":"충청남도 당진시 송악읍 고대공단1길 10-6","jibunAddr":"충청남도 당진시 송악읍 한진리 404","openHours":"상시","maleToilets":4,"femaleToilets":2,"disabled":true,"diaperTable":true,"emergencyBell":true,"cctv":false,"managerTel":"0413504321","source":"public","category":"public"},{"id":"202556800000100263","name":"(주)오일네트워크 훼밀리주유소","lat":36.96852,"lng":126.761405,"roadAddr":"충청남도 당진시 송악읍 북부산업로 1107","jibunAddr":"충청남도 당진시 송악읍 한진리 346-11","openHours":"정시","maleToilets":1,"femaleToilets":1,"disabled":true,"diaperTable":false,"emergencyBell":false,"cctv":false,"source":"public","category":"public"},{"id":"202556800000100063","name":"씨제이대한통운㈜신송악주유소","lat":36.960161,"lng":126.769409,"roadAddr":"충청남도 당진시 송악읍 북부산업로 987","jibunAddr":"충청남도 당진시 송악읍 한진리 173-49","openHours":"정시","maleToilets":2,"femaleToilets":1,"disabled":false,"diaperTable":false,"emergencyBell":false,"cctv":false,"source":"public","category":"public"},{"id":"202556800000100199","name":"안섬친수공원","lat":36.984975,"lng":126.741959,"jibunAddr":"충청남도 당진시 송악읍 고대리 155-125","openHours":"상시","maleToilets":0,"femaleToilets":1,"disabled":false,"diaperTable":true,"emergencyBell":true,"cctv":false,"managerTel":"0413504321","source":"public","category":"public"},{"id":"202556800000100193","name":"한진복합센터","lat":36.970374,"lng":126.781655,"roadAddr":"충청남도 당진시 송악읍 한진포구길 50-1","jibunAddr":"충청남도 당진시 송악읍 한진리 95-17","openHours":"상시","maleToilets":8,"femaleToilets":8,"disabled":true,"diaperTable":true,"emergencyBell":true,"cctv":false,"managerTel":"0413504321","source":"public","category":"public"},{"id":"202556800000100264","name":"삼화이앤아이 송악지점 송악주유소","lat":36.965455,"lng":126.765744,"roadAddr":"충청남도 당진시 송악읍 북부산업로 1054","jibunAddr":"충청남도 당진시 송악읍 한진리 193-2","openHours":"정시","maleToilets":1,"femaleToilets":1,"disabled":true,"diaperTable":false,"emergencyBell":false,"cctv":false,"source":"public","category":"public"},{"id":"202556800000100262","name":"지에스칼텍스(주)고대공단주유소","lat":36.969822,"lng":126.761693,"roadAddr":"충청남도 당진시 송악읍 북부산업로 1108","jibunAddr":"충청남도 당진시 송악읍 한진리 346-1","openHours":"정시","maleToilets":2,"femaleToilets":2,"disabled":true,"diaperTable":false,"emergencyBell":false,"cctv":false,"source":"public","category":"public"},{"id":"202556800000100261","name":"내트럭주유소","lat":36.974205,"lng":126.752428,"roadAddr":"충청남도 당진시 송악읍 북부산업로 1209","jibunAddr":"충청남도 당진시 송악읍 고대리 42-8","openHours":"정시","maleToilets":1,"femaleToilets":1,"disabled":true,"diaperTable":false,"emergencyBell":false,"cctv":false,"source":"public","category":"public"},{"id":"202556800000100195","name":"상록수공원","lat":36.960729,"lng":126.78052,"roadAddr":"충청남도 당진시 송악읍 부곡공단로 275","jibunAddr":"충청남도 당진시 송악읍 부곡리 566","openHours":"상시","maleToilets":4,"femaleToilets":5,"disabled":true,"diaperTable":true,"emergencyBell":true,"cctv":false,"managerTel":"0413504321","source":"public","category":"public"},{"id":"202556800000100200","name":"고대지구근린공원","lat":36.976032,"lng":126.777593,"roadAddr":"충청남도 당진시 송악읍 고대공단2길 357-18","jibunAddr":"충청남도 당진시 송악읍 한진리 403-2","openHours":"상시","maleToilets":4,"femaleToilets":3,"disabled":false,"diaperTable":true,"emergencyBell":true,"cctv":false,"managerTel":"0413504321","source":"public","category":"public"}]