[{"id":"202539100000101353","name":"윤일에너지 항만주유소","lat":36.945224,"lng":126.87557,"roadAddr":"경기도 평택시 포승읍 서동대로 524","openHours":"상시","maleToilets":7,"femaleToilets":7,"disabled":true,"diaperTable":false,"emergencyBell":true,"cctv":false,"source":"public","category":"public"},{"id":"202539100000101322","name":"서해안주유소","lat":36.946562,"lng":126.91231,"roadAddr":"경기도 평택시 현덕면 서해로 517","openHours":"상시","maleToilets":4,"femaleToilets":2,"disabled":false,"diaperTable":false,"emergencyBell":false,"cctv":false,"source":"public","category":"public"},{"id":"202539100000101011","name":"어촌계화장실","lat":36.915954,"lng":126.906079,"roadAddr":"경기도 평택시 현덕면 서동대로 75","openHours":"상시","maleToilets":4,"femaleToilets":3,"disabled":false,"diaperTable":true,"emergencyBell":true,"cctv":false,"managerTel":"03180248687","source":"public","category":"public"},{"id":"202539100000101085","name":"씨유 서동대로점 화장실","lat":36.944843,"lng":126.873768,"roadAddr":"경기도 평택시 포승읍 서동대로 543","openHours":"상시","maleToilets":4,"femaleToilets":2,"disabled":false,"diaperTable":false,"emergencyBell":false,"cctv":false,"source":"public","category":"public"},{"id":"202539100000101264","name":"건화주유소평택점","lat":36.942874,"lng":126.913921,"roadAddr":"경기도 평택시 현덕면 서해로 471","openHours":"상시","maleToilets":3,"femaleToilets":1,"disabled":false,"diaperTable":false,"emergencyBell":false,"cctv":false,"source":"public","category":"public"},{"id":"202539100000101348","name":"우리에너지주유소","lat":36.917139,"lng":126.906431,"roadAddr":"경기도 평택시 현덕면 서동대로 83","openHours":"상시","maleToilets":4,"femaleToilets":2,"disabled":false,"diaperTable":false,"emergencyBell":false,"cctv":true,"source":"public","category":"public"},{"id":"202539100000101012","name":"평택호쉼터","lat":36.914491,"lng":126.908596,"roadAddr":"경기도 평택시 현덕면 평택호길 13","openHours":"상시","maleToilets":2,"femaleToilets":1,"disabled":false,"diaperTable":true,"emergencyBell":true,"cctv":false,"managerTel":"03180248687","source":"public","category":"public"},{"id":"202539100000101397","name":"평화주유소","lat":36.945648,"lng":126.913774,"roadAddr":"경기도 평택시 현덕면 서해로 504","openHours":"상시","maleToilets":2,"femaleToilets":1,"disabled":false,"diaperTable":false,"emergencyBell":true,"cctv":false,"source":"public","category":"public"},{"id":"202539100000101271","name":"굿모닝주유소","lat":36.942934,"lng":126.87794,"roadAddr":"경기도 평택시 포승읍 서동대로 501","openHours":"상시","maleToilets":5,"femaleToilets":2,"disabled":false,"diaperTable":false,"emergencyBell":false,"cctv":false,"source":"public","category":"public"},{"id":"202539100000101448","name":"동양산업㈜직영해안주유소","lat":36.937868,"lng":126.890405,"roadAddr":"경기도 평택시 포승읍 서동대로 376","openHours":"상시","maleToilets":4,"femaleToilets":2,"disabled":false,"diaperTable":false,"emergencyBell":false,"cctv":false,"source":"public","category":"public"}]