[{"id":"202556800000100064","name":"하영주유소","lat":36.998561,"lng":126.59336,"roadAddr":"충청남도 당진시 석문면 산단3로 96","jibunAddr":"충청남도 당진시 석문면 통정리 1353","openHours":"정시","maleToilets":2,"femaleToilets":1,"disabled":false,"diaperTable":false,"emergencyBell":false,"cctv":false,"source":"public","category":"public"},{"id":"202556800000100140","name":"(주)엘케이컴퍼니 당진지점(현대석문공단주유소)","lat":36.981306,"lng":126.602644,"roadAddr":"충청남도 당진시 석문면 북부산업로 2642","jibunAddr":"충청남도 당진시 석문면 통정리 67-1","openHours":"정시","maleToilets":1,"femaleToilets":2,"disabled":true,"diaperTable":false,"emergencyBell":false,"cctv":false,"source":"public","category":"public"},{"id":"202556800000100148","name":"지에스칼텍스(주)석문공단주유소","lat":36.987313,"lng":126.584846,"roadAddr":"충청남도 당진시 석문면 대호만로 1185","jibunAddr":"충청남도 당진시 석문면 통정리 796-3","openHours":"정시","maleToilets":1,"femaleToilets":1,"disabled":true,"diaperTable":false,"emergencyBell":false,"cctv":false,"source":"public","category":"public"},{"id":"202556800000100029","name":"석문면행정복지센터","lat":36.982171,"lng":126.590906,"roadAddr":"충청남도 당진시 석문면 통정3길 2-1","jibunAddr":"충청남도 당진시 석문면 통정리 393-1","openHours":"정시","maleToilets":3,"femaleToilets":3,"disabled":true,"diaperTable":false,"emergencyBell":false,"cctv":false,"managerTel":"0413504321","source":"public","category":"public"},{"id":"202556800000100028","name":"석문보건지소","lat":36.982171,"lng":126.590906,"roadAddr":"충청남도 당진시 석문면 통정3길 2-1","jibunAddr":"충청남도 당진시 석문면 통정리 393-1","openHours":"정시","maleToilets":3,"femaleToilets":2,"disabled":true,"diaperTable":false,"emergencyBell":false,"cctv":false,"managerTel":"0413504321","source":"public","category":"public"},{"id":"202556800000100027","name":"통정공원(축구장)","lat":36.99728,"lng":126.59116,"jibunAddr":"충청남도 당진시 석문면 통정리 1347","openHours":"상시","maleToilets":5,"femaleToilets":5,"disabled":true,"diaperTable":false,"emergencyBell":true,"cctv":false,"managerTel":"0413504321","source":"public","category":"public"},{"id":"202556800000100068","name":"금강석문주유소","lat":36.979667,"lng":126.605839,"roadAddr":"충청남도 당진시 석문면 북부산업로 2615","jibunAddr":"충청남도 당진시 석문면 통정리 65-3","openHours":"정시","maleToilets":2,"femaleToilets":1,"disabled":false,"diaperTable":false,"emergencyBell":false,"cctv":false,"source":"public","category":"public"},{"id":"202556800000100026","name":"해나루파크골프장","lat":36.993768,"lng":126.59071,"jibunAddr":"충청남도 당진시 석문면 통정리 1349","openHours":"상시","maleToilets":2,"femaleToilets":3,"disabled":true,"diaperTable":false,"emergencyBell":true,"cctv":false,"managerTel":"0413504321","source":"public","category":"public"},{"id":"202556800000100021","name":"도랑개들어린이공원","lat":36.976855,"lng":126.58953,"jibunAddr":"충청남도 당진시 석문면 통정리 1838","openHours":"상시","maleToilets":1,"femaleToilets":1,"disabled":true,"diaperTable":false,"emergencyBell":true,"cctv":false,"managerTel":"0413504321","source":"public","category":"public"},{"id":"202556800000100139","name":"석문셀프주유소","lat":36.993962,"lng":126.579236,"roadAddr":"충청남도 당진시 석문면 북부산업로 2900","jibunAddr":"충청남도 당진시 석문면 통정리 864-15","openHours":"정시","maleToilets":1,"femaleToilets":2,"disabled":true,"diaperTable":false,"emergencyBell":false,"cctv":false,"source":"public","category":"public"},{"id":"202556800000100147","name":"장고항주유소","lat":36.998606,"lng":126.569078,"roadAddr":"충청남도 당진시 석문면 대호만로 1398","jibunAddr":"충청남도 당진시 석문면 통정리 984-1","openHours":"정시","maleToilets":1,"femaleToilets":1,"disabled":true,"diaperTable":false,"emergencyBell":false,"cctv":false,"source":"public","category":"public"},{"id":"202556800000100060","name":"현대오일뱅크㈜현대클린주유소","lat":36.992951,"lng":126.579727,"roadAddr":"충청남도 당진시 석문면 북부산업로 2895","jibunAddr":"충청남도 당진시 석문면 통정리 864-3","openHours":"정시","maleToilets":2,"femaleToilets":1,"disabled":false,"diaperTable":false,"emergencyBell":false,"cctv":false,"source":"public","category":"public"}]