[{"id":"202539100000101195","name":"포승 레포츠 공원","lat":36.98282,"lng":126.88531,"roadAddr":"경기도 평택시 포승읍 서동대로 1174-16","openHours":"상시","maleToilets":9,"femaleToilets":5,"disabled":true,"diaperTable":false,"emergencyBell":true,"cctv":false,"source":"public","category":"public"},{"id":"202539100000101196","name":"포승읍사무소","lat":36.98282,"lng":126.88531,"roadAddr":"경기도 평택시 포승읍 서동대로 1174-16","openHours":"상시","maleToilets":20,"femaleToilets":9,"disabled":true,"diaperTable":false,"emergencyBell":false,"cctv":false,"source":"public","category":"public"},{"id":"202539100000100790","name":"포승파출소","lat":36.981987,"lng":126.881781,"roadAddr":"경기도 평택시 포승읍 서동대로  1138","openHours":"상시","maleToilets":8,"femaleToilets":3,"disabled":false,"diaperTable":false,"emergencyBell":false,"cctv":false,"source":"public","category":"public"},{"id":"202539100000101412","name":"현대오일뱅크㈜ 만남주유소","lat":36.990245,"lng":126.913147,"roadAddr":"경기도 평택시 안중읍 서동대로 1456","openHours":"정시","maleToilets":4,"femaleToilets":2,"disabled":false,"diaperTable":false,"emergencyBell":false,"cctv":true,"source":"public","category":"public"},{"id":"202539100000101086","name":"도곡배수지 화장실","lat":36.987794,"lng":126.874131,"roadAddr":"경기도 평택시 포승읍 무수길 33-33","openHours":"상시","maleToilets":6,"femaleToilets":2,"disabled":true,"diaperTable":false,"emergencyBell":true,"cctv":true,"source":"public","category":"public"},{"id":"202539100000101377","name":"콜주유소","lat":36.990869,"lng":126.913393,"roadAddr":"경기도 평택시 안중읍 서동대로 1459","openHours":"상시","maleToilets":5,"femaleToilets":4,"disabled":true,"diaperTable":false,"emergencyBell":false,"cctv":false,"source":"public","category":"public"},{"id":"202539100000101399","name":"포승주유소","lat":36.984631,"lng":126.884218,"roadAddr":"경기도 평택시 포승읍 서동대로 1179","openHours":"상시","maleToilets":3,"femaleToilets":2,"disabled":false,"diaperTable":false,"emergencyBell":false,"cctv":false,"source":"public","category":"public"},{"id":"202539100000101259","name":"가득주유소","lat":36.991826,"lng":126.908167,"roadAddr":"경기도 평택시 안중읍 서동대로 1411","openHours":"상시","maleToilets":4,"femaleToilets":2,"disabled":false,"diaperTable":false,"emergencyBell":false,"cctv":false,"source":"public","category":"public"}]