[{"id":"202539300000101103","name":"누에섬등대 화장실","lat":37.186632,"lng":126.631477,"roadAddr":"경기도 안산시 단원구 대부황금로 17-156","jibunAddr":"경기도 안산시 단원구 선감동 산170","openHours":"정시","maleToilets":6,"femaleToilets":3,"disabled":false,"diaperTable":true,"emergencyBell":false,"cctv":true,"managerTel":"0314408311","source":"public","category":"public"},{"id":"202539300000101102","name":"탄도항 공중화장실 (안산시)","lat":37.192123,"lng":126.646613,"roadAddr":"경기도 안산시 단원구 대부황금로 5-8","jibunAddr":"경기도 안산시 단원구 선감동 725","openHours":"상시","maleToilets":5,"femaleToilets":7,"disabled":true,"diaperTable":true,"emergencyBell":true,"cctv":true,"managerTel":"0314408311","source":"public","category":"public"},{"id":"202539300000100881","name":"경기도청소년수련원 본관 1층 화장실","lat":37.215158,"lng":126.642107,"roadAddr":"경기도 안산시 단원구 선감로 255","jibunAddr":"경기도 안산시 단원구 선감동 산126-3","openHours":"정시","maleToilets":6,"femaleToilets":2,"disabled":true,"diaperTable":false,"emergencyBell":false,"cctv":false,"managerTel":"0328868315","source":"public","category":"public"},{"id":"202539300000101101","name":"탄도항 공중화장실 (경기도)","lat":37.19115,"lng":126.646383,"roadAddr":"경기도 안산시 단원구 대부황금로 5-20","jibunAddr":"경기도 안산시 단원구 선감동 717-3","openHours":"상시","maleToilets":5,"femaleToilets":8,"disabled":true,"diaperTable":true,"emergencyBell":true,"cctv":true,"managerTel":"0314408311","source":"public","category":"public"},{"id":"202639300000100001","name":"안산대부광산퇴적암층 화장실","lat":37.2006,"lng":126.648159,"roadAddr":"경기도 안산시 단원구 대부황금로 106 (선감동)","jibunAddr":"경기도 안산시 단원구 선감동 산 144-23","openHours":"정시","maleToilets":9,"femaleToilets":9,"disabled":true,"diaperTable":true,"emergencyBell":true,"cctv":true,"source":"public","category":"public"},{"id":"202539300000100882","name":"경기도청소년수련원 야외 화장실","lat":37.215158,"lng":126.642107,"roadAddr":"경기도 안산시 단원구 선감로 255","jibunAddr":"경기도 안산시 단원구 선감동 산126-3","openHours":"상시","maleToilets":20,"femaleToilets":8,"disabled":true,"diaperTable":false,"emergencyBell":false,"cctv":false,"managerTel":"0328800517","source":"public","category":"public"},{"id":"202539300000101100","name":"어촌민속박물관 화장실","lat":37.192507,"lng":126.646121,"roadAddr":"경기도 안산시 단원구 대부황금로7","jibunAddr":"경기도 안산시 단원구 선감동 717","openHours":"정시","maleToilets":12,"femaleToilets":9,"disabled":true,"diaperTable":true,"emergencyBell":false,"cctv":true,"managerTel":"0314408311","source":"public","category":"public"},{"id":"202539300000101250","name":"선감어촌체험휴양마을 화장실","lat":37.220572,"lng":126.629912,"roadAddr":"경기도 안산시 단원구 개건너길 78","jibunAddr":"경기도 안산시 단원구 선감동 208-17","openHours":"상시","maleToilets":14,"femaleToilets":5,"disabled":true,"diaperTable":true,"emergencyBell":true,"cctv":false,"managerTel":"0314812330","source":"public","category":"public"},{"id":"202455300000100617","name":"제부항 수산물센터 2층","lat":37.177819,"lng":126.62193,"roadAddr":"경기도 화성시 만세구 서신면 해안길 421-12","openHours":"정시","maleToilets":7,"femaleToilets":6,"disabled":true,"diaperTable":false,"emergencyBell":false,"cctv":false,"managerTel":"03151896783","source":"public","category":"public"},{"id":"202455300000100618","name":"제부항 수산물센터 1층","lat":37.177819,"lng":126.62193,"roadAddr":"경기도 화성시 만세구 서신면 해안길 421-12","openHours":"정시","maleToilets":7,"femaleToilets":3,"disabled":true,"diaperTable":false,"emergencyBell":false,"cctv":false,"managerTel":"03151896783","source":"public","category":"public"},{"id":"202455300000100619","name":"선창 화장실","lat":37.178142,"lng":126.621113,"roadAddr":"경기도 화성시 만세구 서신면 해안길 421-21 (제부리)","openHours":"정시","maleToilets":5,"femaleToilets":3,"disabled":false,"diaperTable":false,"emergencyBell":false,"cctv":false,"managerTel":"03151896783","source":"public","category":"public"}]