[{"id":"202455300000100010","name":"안석보건지소","lat":37.17706,"lng":126.818925,"roadAddr":"경기도 화성시 만세구 남양읍 고향의봄길216번길 101 (안석리, 남부진료소)","openHours":"11시간","maleToilets":0,"femaleToilets":0,"disabled":false,"diaperTable":false,"emergencyBell":false,"cctv":false,"managerTel":"03151896783","source":"public","category":"public"},{"id":"202455300000100026","name":"현대기아자동차연구소 1","lat":37.159388,"lng":126.813506,"roadAddr":"경기도 화성시 만세구 남양읍 현대연구소로 150 (장덕리)","openHours":"11시간","maleToilets":8,"femaleToilets":1,"disabled":false,"diaperTable":false,"emergencyBell":false,"cctv":false,"managerTel":"03151896783","source":"public","category":"public"},{"id":"202455300000100457","name":"현대기아자동차연구소 2","lat":37.159388,"lng":126.813506,"roadAddr":"경기도 화성시 만세구 남양읍 현대연구소로 150 (장덕리)","openHours":"24시간","maleToilets":4,"femaleToilets":1,"disabled":false,"diaperTable":false,"emergencyBell":false,"cctv":false,"managerTel":"03151896783","source":"public","category":"public"},{"id":"202455300000100434","name":"연구단지주유소","lat":37.173569,"lng":126.813236,"roadAddr":"경기도 화성시 만세구 남양읍 남양로 361 (안석리)","openHours":"24시간","maleToilets":2,"femaleToilets":1,"disabled":false,"diaperTable":false,"emergencyBell":false,"cctv":false,"managerTel":"03151896783","source":"public","category":"public"},{"id":"202455300000100435","name":"신남스타주유소","lat":37.177298,"lng":126.81579,"roadAddr":"경기도 화성시 만세구 남양읍 남양로 409 (신남리)","openHours":"24시간","maleToilets":2,"femaleToilets":2,"disabled":false,"diaperTable":false,"emergencyBell":false,"cctv":false,"managerTel":"03151896783","source":"public","category":"public"},{"id":"202455300000100436","name":"SK대훈주유소","lat":37.177146,"lng":126.816327,"roadAddr":"경기도 화성시 만세구 남양읍 남양로 410 (안석리)","openHours":"24시간","maleToilets":3,"femaleToilets":1,"disabled":false,"diaperTable":false,"emergencyBell":false,"cctv":false,"managerTel":"03151896783","source":"public","category":"public"}]