[{"id":"202539100000101288","name":"도계주유소","lat":36.938676,"lng":127.046912,"roadAddr":"경기도 평택시 팽성읍 팽성로 6","openHours":"상시","maleToilets":6,"femaleToilets":3,"disabled":false,"diaperTable":false,"emergencyBell":false,"cctv":false,"source":"public","category":"public"},{"id":"202539100000100956","name":"추팔 근린공원","lat":36.951621,"lng":127.075029,"roadAddr":"경기도 평택시 팽성읍 추팔리 398-2","openHours":"상시","maleToilets":3,"femaleToilets":1,"disabled":false,"diaperTable":false,"emergencyBell":true,"cctv":true,"source":"public","category":"public"},{"id":"202539100000100957","name":"추팔 어린이공원","lat":36.957798,"lng":127.07805,"roadAddr":"경기도 평택시 추팔산단2길 28","openHours":"상시","maleToilets":3,"femaleToilets":1,"disabled":false,"diaperTable":false,"emergencyBell":true,"cctv":true,"source":"public","category":"public"},{"id":"202539100000101298","name":"라인45주유소","lat":36.954856,"lng":127.061108,"roadAddr":"경기도 평택시 팽성읍 팽성로 230","openHours":"상시","maleToilets":4,"femaleToilets":2,"disabled":false,"diaperTable":false,"emergencyBell":false,"cctv":false,"source":"public","category":"public"},{"id":"202539100000101319","name":"서경주유소","lat":36.943083,"lng":127.051052,"roadAddr":"경기도 평택시 팽성읍 사거리길 7","openHours":"상시","maleToilets":2,"femaleToilets":1,"disabled":false,"diaperTable":false,"emergencyBell":false,"cctv":false,"source":"public","category":"public"},{"id":"202539100000101388","name":"팽성제일주유소","lat":36.954887,"lng":127.059597,"roadAddr":"경기도 평택시 팽성읍 팽성로 221","openHours":"상시","maleToilets":7,"femaleToilets":4,"disabled":false,"diaperTable":false,"emergencyBell":false,"cctv":false,"source":"public","category":"public"},{"id":"202539100000101411","name":"현대오일뱅크 직영송화주유소","lat":36.952798,"lng":127.05291,"roadAddr":"경기도 평택시 팽성읍 팽성송화로 49","openHours":"상시","maleToilets":4,"femaleToilets":2,"disabled":false,"diaperTable":false,"emergencyBell":false,"cctv":false,"source":"public","category":"public"},{"id":"202539100000101187","name":"팽성보건지소 1층","lat":36.957647,"lng":127.059533,"roadAddr":"경기도 평택시 팽성읍 팽성남산4길 6","openHours":"상시","maleToilets":4,"femaleToilets":2,"disabled":true,"diaperTable":false,"emergencyBell":false,"cctv":false,"managerTel":"03180244324","source":"public","category":"public"},{"id":"202445200000100056","name":"엔마트 아산점","lat":36.918978,"lng":127.054365,"roadAddr":"충청남도 아산시 둔포면 석곡길 16","jibunAddr":"충청남도 아산시 둔포면 운교리 3-35","openHours":"상시","maleToilets":7,"femaleToilets":5,"disabled":true,"diaperTable":false,"emergencyBell":false,"cctv":false,"managerTel":"0415317674","source":"public","category":"public"},{"id":"202445200000100055","name":"정석프라자","lat":36.922349,"lng":127.057013,"roadAddr":"충청남도 아산시 아산밸로중앙로 80-13","jibunAddr":"충청남도 아산시 둔포면 석곡리 1681","openHours":"상시","maleToilets":21,"femaleToilets":21,"disabled":false,"diaperTable":false,"emergencyBell":false,"cctv":true,"source":"public","category":"public"},{"id":"202445200000100211","name":"중앙근린공원(아산테크노밸리4호공원)","lat":36.927659,"lng":127.057879,"roadAddr":"충청남도 아산시 둔포면 아산밸리서로 130","jibunAddr":"충청남도 아산시 둔포면 석곡리 1741","openHours":"상시","maleToilets":2,"femaleToilets":2,"disabled":true,"diaperTable":false,"emergencyBell":true,"cctv":false,"managerTel":"0415368756","source":"public","category":"public"},{"id":"202445200000100210","name":"운용근린공원(아산테크노밸리1호공원)","lat":36.919466,"lng":127.058855,"roadAddr":"충청남도 아산시 둔포면 중앙공원로 43","jibunAddr":"충청남도 아산시 둔포면 석곡리 1481","openHours":"상시","maleToilets":5,"femaleToilets":5,"disabled":true,"diaperTable":true,"emergencyBell":true,"cctv":false,"managerTel":"0415368756","source":"public","category":"public"},{"id":"202445200000100058","name":"드림타워","lat":36.92374,"lng":127.050735,"roadAddr":"충청남도 아산시 아산밸리중앙로 25","jibunAddr":"충청남도 아산시 둔포면 석곡리 1778","openHours":"상시","maleToilets":26,"femaleToilets":14,"disabled":true,"diaperTable":true,"emergencyBell":false,"cctv":true,"source":"public","category":"public"}]