[{"id":"202539100000100907","name":"소풍정원 관리동","lat":37.011719,"lng":127.019729,"roadAddr":"경기도 평택시 고덕면 새악길 43-42","openHours":"상시","maleToilets":2,"femaleToilets":1,"disabled":false,"diaperTable":false,"emergencyBell":true,"cctv":true,"source":"public","category":"public"},{"id":"202539100000100908","name":"소풍정원 배화장실","lat":37.011791,"lng":127.020057,"roadAddr":"경기도 평택시 고덕면 궁리424-40","openHours":"상시","maleToilets":9,"femaleToilets":12,"disabled":true,"diaperTable":true,"emergencyBell":true,"cctv":false,"source":"public","category":"public"},{"id":"202539100000100914","name":"스마트근린공원","lat":37.042638,"lng":127.042243,"roadAddr":"경기도 평택시 밤개울길 26","openHours":"상시","maleToilets":2,"femaleToilets":3,"disabled":true,"diaperTable":true,"emergencyBell":true,"cctv":false,"source":"public","category":"public"},{"id":"202539100000100943","name":"이음근린공원","lat":37.043347,"lng":127.025052,"roadAddr":"경기도 평택시 함박산12길 5","openHours":"상시","maleToilets":2,"femaleToilets":3,"disabled":true,"diaperTable":true,"emergencyBell":true,"cctv":false,"source":"public","category":"public"},{"id":"202539100000100853","name":"고덕수변공원7호","lat":37.035693,"lng":127.03978,"roadAddr":"경기도 평택시 고덕순환대로 12","openHours":"상시","maleToilets":5,"femaleToilets":5,"disabled":true,"diaperTable":false,"emergencyBell":true,"cctv":false,"source":"public","category":"public"},{"id":"202539100000100854","name":"궁리근린공원","lat":37.020773,"lng":127.03694,"roadAddr":"경기도 평택시 고덕면 효덕새싹길 71","openHours":"상시","maleToilets":3,"femaleToilets":4,"disabled":true,"diaperTable":true,"emergencyBell":true,"cctv":false,"source":"public","category":"public"},{"id":"202539100000100973","name":"함박산중앙공원(방문자센터)실내","lat":37.045687,"lng":127.034876,"roadAddr":"경기도 평택시 고덕로 381","openHours":"상시","maleToilets":3,"femaleToilets":3,"disabled":true,"diaperTable":false,"emergencyBell":true,"cctv":false,"source":"public","category":"public"},{"id":"202539100000100974","name":"함박산중앙공원(방문자센터)실외","lat":37.045687,"lng":127.034876,"roadAddr":"경기도 평택시 고덕로 381","openHours":"상시","maleToilets":5,"femaleToilets":6,"disabled":true,"diaperTable":false,"emergencyBell":true,"cctv":false,"source":"public","category":"public"},{"id":"202539100000100978","name":"함박산중앙공원(음악분수)","lat":37.038629,"lng":127.039711,"roadAddr":"경기도 평택시 함박산로 59","openHours":"상시","maleToilets":8,"femaleToilets":9,"disabled":true,"diaperTable":true,"emergencyBell":true,"cctv":false,"source":"public","category":"public"},{"id":"202539100000101447","name":"동양산업㈜직영신태평주유소","lat":37.015833,"lng":127.032494,"roadAddr":"경기도 평택시 고덕면 서동대로 2633(방축리)","openHours":"상시","maleToilets":6,"femaleToilets":4,"disabled":true,"diaperTable":false,"emergencyBell":true,"cctv":true,"source":"public","category":"public"},{"id":"202539100000100909","name":"소풍정원 캠핑장 B구역","lat":37.011845,"lng":127.020578,"roadAddr":"경기도 평택시 고덕면 궁리424-25","openHours":"상시","maleToilets":3,"femaleToilets":3,"disabled":false,"diaperTable":false,"emergencyBell":false,"cctv":false,"source":"public","category":"public"},{"id":"202539100000100910","name":"소풍정원 캠핑장 D구역","lat":37.011845,"lng":127.020578,"roadAddr":"경기도 평택시 고덕면 궁리424-25","openHours":"상시","maleToilets":3,"femaleToilets":3,"disabled":false,"diaperTable":false,"emergencyBell":false,"cctv":false,"source":"public","category":"public"},{"id":"202539100000101404","name":"한길주유소","lat":37.0179,"lng":127.020906,"roadAddr":"경기도 평택시 고덕면 서동대로 2531(궁리)","openHours":"(평일)09:00-22:00+(주말)09:00-22:00","maleToilets":2,"femaleToilets":1,"disabled":false,"diaperTable":false,"emergencyBell":false,"cctv":false,"source":"public","category":"public"}]