[{"id":"202539100000100768","name":"경기도평택교육지원청 1층","lat":36.999319,"lng":127.089673,"roadAddr":"경기도 평택시 평택1로 80","openHours":"상시","maleToilets":4,"femaleToilets":2,"disabled":false,"diaperTable":false,"emergencyBell":false,"cctv":false,"source":"public","category":"public"},{"id":"202539100000100769","name":"경기도평택교육지원청 2층","lat":36.999319,"lng":127.089673,"roadAddr":"경기도 평택시 평택1로 80","openHours":"상시","maleToilets":4,"femaleToilets":2,"disabled":false,"diaperTable":false,"emergencyBell":false,"cctv":false,"source":"public","category":"public"},{"id":"202539100000100782","name":"성내치안센터","lat":36.991897,"lng":127.083289,"roadAddr":"경기도 평택시 평택로 51 평택민자역사","openHours":"상시","maleToilets":4,"femaleToilets":2,"disabled":false,"diaperTable":false,"emergencyBell":true,"cctv":true,"source":"public","category":"public"},{"id":"202539100000101410","name":"현대드림주유소","lat":36.968872,"lng":127.061789,"roadAddr":"경기도 평택시 팽성읍 안정로 200","openHours":"상시","maleToilets":7,"femaleToilets":6,"disabled":false,"diaperTable":false,"emergencyBell":true,"cctv":false,"source":"public","category":"public"},{"id":"202539100000100858","name":"남산근린공원 족구장","lat":36.961565,"lng":127.062119,"roadAddr":"경기도 평택시 팽성읍 송화택지로 109","openHours":"상시","maleToilets":3,"femaleToilets":3,"disabled":false,"diaperTable":false,"emergencyBell":true,"cctv":false,"source":"public","category":"public"},{"id":"202539100000101027","name":"평택시 보훈회관","lat":36.996203,"lng":127.086764,"roadAddr":"경기도 평택시 통복시장로16번길 28","openHours":"정시","maleToilets":20,"femaleToilets":20,"disabled":false,"diaperTable":false,"emergencyBell":false,"cctv":false,"managerTel":"0316579851","source":"public","category":"public"},{"id":"202539100000101020","name":"팽성도서관(1층)","lat":36.964918,"lng":127.051802,"roadAddr":"경기도 평택시 팽성읍 안정로95번길 15-25","openHours":"정시","maleToilets":0,"femaleToilets":0,"disabled":true,"diaperTable":false,"emergencyBell":false,"cctv":false,"managerTel":"03180245481","source":"public","category":"public"},{"id":"202539100000101021","name":"팽성도서관(2층)","lat":36.964918,"lng":127.051802,"roadAddr":"경기도 평택시 팽성읍 안정로95번길 15-25","openHours":"정시","maleToilets":2,"femaleToilets":2,"disabled":false,"diaperTable":false,"emergencyBell":false,"cctv":false,"managerTel":"03180245481","source":"public","category":"public"},{"id":"202539100000101280","name":"뉴시티-팽성주유소","lat":36.963008,"lng":127.05239,"roadAddr":"경기도 평택시 팽성읍 안정로 90","openHours":"상시","maleToilets":8,"femaleToilets":3,"disabled":false,"diaperTable":false,"emergencyBell":false,"cctv":false,"source":"public","category":"public"},{"id":"202539100000101150","name":"통복시장(순대골목)","lat":36.997187,"lng":127.084029,"roadAddr":"경기도 평택시 통복시장2로9번길 13","openHours":"상시","maleToilets":2,"femaleToilets":0,"disabled":false,"diaperTable":false,"emergencyBell":true,"cctv":false,"managerTel":"80243582","source":"public","category":"public"},{"id":"202539100000100863","name":"높은들근린공원","lat":36.996079,"lng":127.079338,"roadAddr":"경기도 평택시 신대동 713, 통복동 735","openHours":"상시","maleToilets":3,"femaleToilets":4,"disabled":true,"diaperTable":true,"emergencyBell":true,"cctv":false,"source":"public","category":"public"},{"id":"202539100000101317","name":"사랑의주유소","lat":36.981761,"lng":127.078538,"roadAddr":"경기도 평택시 팽성읍 팽성북로 415","openHours":"상시","maleToilets":5,"femaleToilets":3,"disabled":true,"diaperTable":false,"emergencyBell":true,"cctv":false,"source":"public","category":"public"},{"id":"202539100000100824","name":"평택역 맞이방 고객화장실","lat":36.991897,"lng":127.083289,"roadAddr":"경기도 평택시 평택로 51","openHours":"정시","maleToilets":4,"femaleToilets":1,"disabled":false,"diaperTable":false,"emergencyBell":false,"cctv":false,"source":"public","category":"public"},{"id":"202539100000100958","name":"추팔리 소공원","lat":36.963975,"lng":127.075479,"roadAddr":"경기도 평택시 추팔2길 65","openHours":"상시","maleToilets":2,"femaleToilets":2,"disabled":false,"diaperTable":false,"emergencyBell":true,"cctv":true,"source":"public","category":"public"},{"id":"202539100000101043","name":"세교동행정복지센터 2층","lat":36.999842,"lng":127.082479,"roadAddr":"경기도 평택시 세교3로 37","openHours":"정시","maleToilets":3,"femaleToilets":1,"disabled":false,"diaperTable":false,"emergencyBell":false,"cctv":false,"source":"public","category":"public"},{"id":"202539100000101137","name":"원평동사무소","lat":36.989267,"lng":127.080496,"roadAddr":"경기도 평택시 원평2로 9","openHours":"상시","maleToilets":3,"femaleToilets":2,"disabled":false,"diaperTable":false,"emergencyBell":false,"cctv":false,"source":"public","category":"public"},{"id":"202539100000101139","name":"원평동행정복지센터 2층","lat":36.989267,"lng":127.080496,"roadAddr":"경기도 평택시 원평2로 9","openHours":"상시","maleToilets":4,"femaleToilets":4,"disabled":false,"diaperTable":false,"emergencyBell":false,"cctv":false,"source":"public","category":"public"},{"id":"202539100000101140","name":"원평동행정복지센터 3층","lat":36.989267,"lng":127.080496,"roadAddr":"경기도 평택시 원평2로 9","openHours":"상시","maleToilets":4,"femaleToilets":4,"disabled":false,"diaperTable":false,"emergencyBell":false,"cctv":false,"source":"public","category":"public"},{"id":"202539100000100857","name":"남산근린공원 게이트볼장","lat":36.961565,"lng":127.062119,"roadAddr":"경기도 평택시 팽성읍 송화택지로 109","openHours":"상시","maleToilets":5,"femaleToilets":3,"disabled":false,"diaperTable":true,"emergencyBell":true,"cctv":false,"source":"public","category":"public"},{"id":"202539100000101176","name":"통복동주민센터","lat":37.000795,"lng":127.087283,"roadAddr":"경기도 평택시 통복시장로48번길 41","openHours":"정시","maleToilets":8,"femaleToilets":8,"disabled":true,"diaperTable":false,"emergencyBell":true,"cctv":false,"source":"public","category":"public"},{"id":"202539100000101178","name":"통복천체육공원","lat":37.00144,"lng":127.08742,"roadAddr":"경기도 평택시 통복동 11-3","openHours":"상시","maleToilets":5,"femaleToilets":3,"disabled":false,"diaperTable":false,"emergencyBell":false,"cctv":true,"source":"public","category":"public"},{"id":"202539100000101181","name":"팽성레포츠공원","lat":36.969042,"lng":127.065863,"roadAddr":"경기도 평택시 팽성읍 안정로 238-31","openHours":"상시","maleToilets":3,"femaleToilets":2,"disabled":false,"diaperTable":false,"emergencyBell":false,"cctv":false,"source":"public","category":"public"},{"id":"202539100000101008","name":"통복지구 공영주차장","lat":36.997429,"lng":127.08238,"roadAddr":"경기도 평택시 통복길10","openHours":"상시","maleToilets":2,"femaleToilets":2,"disabled":true,"diaperTable":false,"emergencyBell":true,"cctv":false,"managerTel":"0316923431","source":"public","category":"public"},{"id":"202539100000101183","name":"팽성읍사무소 1층","lat":36.965143,"lng":127.062453,"roadAddr":"경기도 평택시 팽성읍 동서촌로 89","openHours":"상시","maleToilets":4,"femaleToilets":2,"disabled":false,"diaperTable":false,"emergencyBell":true,"cctv":false,"source":"public","category":"public"},{"id":"202539100000101184","name":"팽성읍사무소 2층","lat":36.965143,"lng":127.062453,"roadAddr":"경기도 평택시 팽성읍 동서촌로 89","openHours":"정시","maleToilets":2,"femaleToilets":1,"disabled":false,"diaperTable":false,"emergencyBell":true,"cctv":false,"source":"public","category":"public"},{"id":"202539100000100927","name":"안정근린공원-테니스장","lat":36.960697,"lng":127.053128,"roadAddr":"경기도 평택시 안정순환로267번길 42","openHours":"상시","maleToilets":5,"femaleToilets":4,"disabled":true,"diaperTable":false,"emergencyBell":true,"cctv":false,"source":"public","category":"public"},{"id":"202539100000100934","name":"원앙 어린이공원","lat":37.00177,"lng":127.086165,"roadAddr":"경기도 평택시 세교1로 53","openHours":"상시","maleToilets":3,"femaleToilets":4,"disabled":true,"diaperTable":false,"emergencyBell":true,"cctv":true,"source":"public","category":"public"},{"id":"202539100000100935","name":"원평근린공원","lat":36.990326,"lng":127.080045,"roadAddr":"경기도 평택시 통복동 170","openHours":"상시","maleToilets":2,"femaleToilets":4,"disabled":true,"diaperTable":true,"emergencyBell":false,"cctv":true,"source":"public","category":"public"},{"id":"202539100000100990","name":"원평청소년문화의집","lat":36.990122,"lng":127.080259,"roadAddr":"경기도 평택시 원평로 83번길 38-28","openHours":"정시","maleToilets":5,"femaleToilets":3,"disabled":true,"diaperTable":false,"emergencyBell":false,"cctv":true,"managerTel":"0316562634","source":"public","category":"public"},{"id":"202539100000101001","name":"원평 제1공영주차장","lat":36.989094,"lng":127.085704,"roadAddr":"경기도 평택시 원평로 30 (평택동)","openHours":"상시","maleToilets":3,"femaleToilets":2,"disabled":false,"diaperTable":false,"emergencyBell":true,"cctv":false,"managerTel":"0316923431","source":"public","category":"public"},{"id":"202539100000101003","name":"자란 공영주차장","lat":36.994834,"lng":127.089358,"roadAddr":"경기도 평택시 중앙로 53(비전동)","openHours":"상시","maleToilets":8,"femaleToilets":4,"disabled":true,"diaperTable":false,"emergencyBell":true,"cctv":false,"managerTel":"0316923431","source":"public","category":"public"},{"id":"202539100000101006","name":"통복 공영주차장","lat":36.997029,"lng":127.087848,"roadAddr":"경기도 평택시 평택1로 55 (통복동)","openHours":"상시","maleToilets":2,"femaleToilets":2,"disabled":false,"diaperTable":false,"emergencyBell":true,"cctv":false,"managerTel":"0316923431","source":"public","category":"public"},{"id":"202539100000100980","name":"향촌 어린이공원(공사중)","lat":37.001885,"lng":127.079324,"roadAddr":"경기도 평택시 세교동 560-1","openHours":"상시","maleToilets":0,"femaleToilets":0,"disabled":false,"diaperTable":false,"emergencyBell":true,"cctv":true,"source":"public","category":"public"},{"id":"202539100000100823","name":"평택시외버스","lat":36.990367,"lng":127.087864,"roadAddr":"경기도 평택시 평택로 31","openHours":"상시","maleToilets":2,"femaleToilets":1,"disabled":false,"diaperTable":false,"emergencyBell":false,"cctv":false,"source":"public","category":"public"},{"id":"202539100000101148","name":"통복시장 고객센터","lat":36.99671,"lng":127.083245,"roadAddr":"경기도 평택시 통복로 51","openHours":"상시","maleToilets":3,"femaleToilets":5,"disabled":true,"diaperTable":false,"emergencyBell":true,"cctv":true,"managerTel":"80243582","source":"public","category":"public"},{"id":"202539100000101151","name":"통복시장(주단골목)","lat":36.996446,"lng":127.084641,"roadAddr":"경기도 평택시 통복시장2로 15-1","openHours":"상시","maleToilets":3,"femaleToilets":0,"disabled":false,"diaperTable":false,"emergencyBell":true,"cctv":false,"managerTel":"80243582","source":"public","category":"public"},{"id":"202539100000100844","name":"신대동공중화장실","lat":36.997246,"lng":127.076059,"roadAddr":"경기도 평택시 신대동 578-3","openHours":"상시","maleToilets":3,"femaleToilets":3,"disabled":false,"diaperTable":false,"emergencyBell":true,"cctv":false,"source":"public","category":"public"},{"id":"202539100000100892","name":"부용산근린공원","lat":36.967686,"lng":127.060348,"roadAddr":"경기도 평택시 팽성읍 객사리 242","openHours":"상시","maleToilets":2,"femaleToilets":3,"disabled":true,"diaperTable":false,"emergencyBell":true,"cctv":false,"source":"public","category":"public"},{"id":"202539100000100838","name":"통복천 관리동 화장실","lat":36.997131,"lng":127.076191,"roadAddr":"경기도 평택시 동삭로 48","openHours":"상시","maleToilets":2,"femaleToilets":0,"disabled":true,"diaperTable":false,"emergencyBell":true,"cctv":false,"source":"public","category":"public"},{"id":"202539100000100789","name":"평택지구대","lat":36.998349,"lng":127.085613,"roadAddr":"경기도 평택시 중앙1로 23","openHours":"상시","maleToilets":6,"femaleToilets":8,"disabled":true,"diaperTable":false,"emergencyBell":false,"cctv":false,"source":"public","category":"public"},{"id":"202539100000101022","name":"팽성도서관(3층)","lat":36.964918,"lng":127.051802,"roadAddr":"경기도 평택시 팽성읍 안정로95번길 15-25","openHours":"정시","maleToilets":2,"femaleToilets":2,"disabled":false,"diaperTable":false,"emergencyBell":false,"cctv":false,"managerTel":"03180245481","source":"public","category":"public"},{"id":"202539100000101328","name":"세라빌딩","lat":36.991124,"lng":127.089486,"roadAddr":"경기도 평택시 평택로32번길 28","openHours":"상시","maleToilets":4,"femaleToilets":2,"disabled":false,"diaperTable":false,"emergencyBell":false,"cctv":false,"source":"public","category":"public"},{"id":"202539100000101174","name":"안성천공중화장실","lat":36.985362,"lng":127.080522,"roadAddr":"경기도 평택시 평남로 348","openHours":"상시","maleToilets":3,"femaleToilets":3,"disabled":true,"diaperTable":false,"emergencyBell":true,"cctv":false,"managerTel":"03180243350","source":"public","category":"public"},{"id":"202539100000101173","name":"신대레포츠공원","lat":36.994432,"lng":127.063928,"roadAddr":"경기도 평택시 평남로 178-70","openHours":"상시","maleToilets":5,"femaleToilets":2,"disabled":true,"diaperTable":false,"emergencyBell":true,"cctv":false,"managerTel":"03180243350","source":"public","category":"public"},{"id":"202539100000101185","name":"팽성읍사무소 3층","lat":36.965143,"lng":127.062453,"roadAddr":"경기도 평택시 팽성읍 동서촌로 89","openHours":"정시","maleToilets":2,"femaleToilets":1,"disabled":false,"diaperTable":false,"emergencyBell":false,"cctv":false,"source":"public","category":"public"},{"id":"202539100000101042","name":"세교동행정복지센터 1층","lat":36.999842,"lng":127.082479,"roadAddr":"경기도 평택시 세교3로 37","openHours":"상시","maleToilets":3,"femaleToilets":2,"disabled":false,"diaperTable":false,"emergencyBell":true,"cctv":false,"source":"public","category":"public"},{"id":"202539100000101149","name":"통복시장 공중화장실(공영주차장 맞은편)","lat":36.997244,"lng":127.084622,"roadAddr":"경기도 평택시 통복시장로21번길 13","openHours":"상시","maleToilets":3,"femaleToilets":0,"disabled":false,"diaperTable":false,"emergencyBell":true,"cctv":false,"managerTel":"80243582","source":"public","category":"public"},{"id":"202539100000101138","name":"원평동행정복지센터 1층","lat":36.989267,"lng":127.080496,"roadAddr":"경기도 평택시 원평2로 9","openHours":"상시","maleToilets":4,"femaleToilets":3,"disabled":true,"diaperTable":false,"emergencyBell":false,"cctv":false,"source":"public","category":"public"},{"id":"202539100000100811","name":"동양고속버스","lat":36.990938,"lng":127.086917,"roadAddr":"경기도 평택시 평택로39번길 40","openHours":"상시","maleToilets":4,"femaleToilets":2,"disabled":false,"diaperTable":false,"emergencyBell":false,"cctv":false,"source":"public","category":"public"},{"id":"202539100000100837","name":"통복천 건강쉼터 화장실","lat":37.001371,"lng":127.087434,"roadAddr":"경기도 평택시 통복시장로54번길 43-6","openHours":"상시","maleToilets":2,"femaleToilets":2,"disabled":true,"diaperTable":false,"emergencyBell":true,"cctv":false,"source":"public","category":"public"},{"id":"202539100000100770","name":"경기도평택교육지원청 3층","lat":36.999319,"lng":127.089673,"roadAddr":"경기도 평택시 평택1로 80","openHours":"상시","maleToilets":3,"femaleToilets":1,"disabled":false,"diaperTable":false,"emergencyBell":false,"cctv":false,"source":"public","category":"public"},{"id":"202539100000101451","name":"미라클상가","lat":36.989637,"lng":127.088331,"roadAddr":"경기도 평택시 평택로 23","openHours":"상시","maleToilets":4,"femaleToilets":2,"disabled":false,"diaperTable":false,"emergencyBell":false,"cctv":false,"source":"public","category":"public"},{"id":"202539100000100850","name":"개나리 어린이공원(공사중)","lat":37.000229,"lng":127.083197,"roadAddr":"경기도 평택시 세교2로 50","openHours":"상시","maleToilets":4,"femaleToilets":4,"disabled":true,"diaperTable":true,"emergencyBell":true,"cctv":true,"source":"public","category":"public"},{"id":"202539100000100840","name":"안정시장","lat":36.960614,"lng":127.047207,"roadAddr":"경기도 평택시 팽성읍 안정로39번길 21","openHours":"상시","maleToilets":7,"femaleToilets":5,"disabled":false,"diaperTable":false,"emergencyBell":false,"cctv":false,"source":"public","category":"public"},{"id":"202539100000100926","name":"안정근린공원-강당산","lat":36.960697,"lng":127.053128,"roadAddr":"경기도 평택시 안정순환로267번길 42","openHours":"상시","maleToilets":3,"femaleToilets":4,"disabled":true,"diaperTable":true,"emergencyBell":false,"cctv":true,"source":"public","category":"public"},{"id":"202539100000101405","name":"합명회사세방","lat":36.999458,"lng":127.078213,"roadAddr":"경기도 평택시 평택로163번길 7","openHours":"상시","maleToilets":0,"femaleToilets":4,"disabled":false,"diaperTable":false,"emergencyBell":false,"cctv":false,"source":"public","category":"public"},{"id":"202539100000101314","name":"비전빌딩","lat":36.996231,"lng":127.088228,"roadAddr":"경기도 평택시 평택1로 48","openHours":"상시","maleToilets":2,"femaleToilets":2,"disabled":false,"diaperTable":false,"emergencyBell":false,"cctv":false,"source":"public","category":"public"},{"id":"202539100000101007","name":"통복시장 공영주차장","lat":36.997417,"lng":127.085408,"roadAddr":"경기도 평택시 통복시장로 23 (통복동)","openHours":"상시","maleToilets":2,"femaleToilets":2,"disabled":false,"diaperTable":false,"emergencyBell":true,"cctv":false,"managerTel":"0316923431","source":"public","category":"public"},{"id":"202539100000101002","name":"원평 제2공영주차장","lat":36.99101,"lng":127.084137,"roadAddr":"경기도 평택시 원평로52번길 10 (평택동)","openHours":"상시","maleToilets":3,"femaleToilets":3,"disabled":true,"diaperTable":false,"emergencyBell":true,"cctv":true,"managerTel":"0316923431","source":"public","category":"public"},{"id":"202539100000101415","name":"현대오일칠칠주유소","lat":36.965619,"lng":127.066921,"roadAddr":"경기도 평택시 팽성읍 부용로 118","openHours":"상시","maleToilets":7,"femaleToilets":3,"disabled":false,"diaperTable":false,"emergencyBell":false,"cctv":false,"source":"public","category":"public"},{"id":"202539100000101177","name":"통복동주민센터 1층","lat":37.000795,"lng":127.087283,"roadAddr":"경기도 평택시 통복시장로48번길 41","openHours":"상시","maleToilets":4,"femaleToilets":4,"disabled":true,"diaperTable":false,"emergencyBell":true,"cctv":true,"source":"public","category":"public"},{"id":"202539100000100895","name":"상가어린이공원","lat":36.99999,"lng":127.081609,"roadAddr":"경기도 평택시 세교3로 32","openHours":"상시","maleToilets":5,"femaleToilets":4,"disabled":true,"diaperTable":true,"emergencyBell":true,"cctv":true,"source":"public","category":"public"},{"id":"202539100000100962","name":"통복 어린이공원","lat":36.998423,"lng":127.085552,"roadAddr":"경기도 평택시 통복동 중앙1로 21","openHours":"정시","maleToilets":4,"femaleToilets":4,"disabled":true,"diaperTable":false,"emergencyBell":true,"cctv":true,"source":"public","category":"public"},{"id":"202539100000101269","name":"교보생명빌딩","lat":36.990703,"lng":127.087453,"roadAddr":"경기도 평택시 평택로 37","openHours":"상시","maleToilets":3,"femaleToilets":2,"disabled":false,"diaperTable":true,"emergencyBell":false,"cctv":false,"source":"public","category":"public"},{"id":"202539100000100963","name":"팽성 어린이공원","lat":36.959395,"lng":127.047843,"roadAddr":"경기도 평택시 팽성읍 안정리 169-50","openHours":"상시","maleToilets":3,"femaleToilets":2,"disabled":false,"diaperTable":false,"emergencyBell":true,"cctv":true,"source":"public","category":"public"},{"id":"202539100000100795","name":"팽성119안전센타","lat":36.962133,"lng":127.059105,"roadAddr":"경기도 평택시 팽성읍 팽성송화로 172","openHours":"상시","maleToilets":3,"femaleToilets":4,"disabled":true,"diaperTable":false,"emergencyBell":false,"cctv":false,"source":"public","category":"public"},{"id":"202539100000100964","name":"평궁리 마을쉼터(폐쇄중)","lat":36.971833,"lng":127.088258,"roadAddr":"경기도 평택시 평궁길 113-8","openHours":"상시","maleToilets":3,"femaleToilets":2,"disabled":false,"diaperTable":false,"emergencyBell":true,"cctv":true,"source":"public","category":"public"}]