[{"id":"202539100000101238","name":"K2L주유소","lat":37.08741,"lng":127.091659,"roadAddr":"경기도 평택시 진위면 삼남로 712","openHours":"상시","maleToilets":4,"femaleToilets":2,"disabled":false,"diaperTable":false,"emergencyBell":true,"cctv":false,"source":"public","category":"public"},{"id":"202539100000101299","name":"마산주유소","lat":37.08542,"lng":127.090672,"roadAddr":"경기도 평택시 진위면 삼남로 691","openHours":"상시","maleToilets":4,"femaleToilets":2,"disabled":false,"diaperTable":false,"emergencyBell":false,"cctv":false,"source":"public","category":"public"},{"id":"202539100000101290","name":"도일주유소","lat":37.055966,"lng":127.115127,"roadAddr":"경기도 평택시 도일로 201(도일동)","openHours":"상시","maleToilets":3,"femaleToilets":1,"disabled":false,"diaperTable":false,"emergencyBell":false,"cctv":false,"source":"public","category":"public"},{"id":"202539100000101345","name":"오천(마산리)주유소","lat":37.08542,"lng":127.090672,"roadAddr":"경기도 평택시 진위면 삼남로 691","openHours":"상시","maleToilets":3,"femaleToilets":2,"disabled":false,"diaperTable":false,"emergencyBell":true,"cctv":false,"source":"public","category":"public"},{"id":"202539100000101279","name":"뉴송탄주유소","lat":37.064623,"lng":127.092274,"roadAddr":"경기도 평택시 삼남로 445","openHours":"상시","maleToilets":3,"femaleToilets":2,"disabled":false,"diaperTable":true,"emergencyBell":true,"cctv":true,"source":"public","category":"public"},{"id":"202440800000100778","name":"미양우체국","lat":37.077813,"lng":127.130904,"roadAddr":"경기도 안성시 원곡면 경부고속도로 372-1","openHours":"정시","maleToilets":2,"femaleToilets":1,"disabled":true,"diaperTable":false,"emergencyBell":false,"cctv":false,"managerTel":"0316783784","source":"public","category":"public"}]