[{"id":"202539100000101489","name":"㈜MOT직영주유소","lat":37.00433,"lng":127.087185,"roadAddr":"경기도 평택시 경기대로 542","openHours":"상시","maleToilets":4,"femaleToilets":2,"disabled":false,"diaperTable":false,"emergencyBell":false,"cctv":false,"source":"public","category":"public"},{"id":"202539100000101492","name":"㈜삼표에너지신성주유소","lat":37.007031,"lng":127.046064,"roadAddr":"경기도 평택시 고덕면 서동대로 2796(동고리)","openHours":"상시","maleToilets":6,"femaleToilets":5,"disabled":false,"diaperTable":false,"emergencyBell":false,"cctv":false,"source":"public","category":"public"},{"id":"202539100000101496","name":"㈜우리주유소","lat":37.018419,"lng":127.072424,"roadAddr":"경기도 평택시 경기대로 772","openHours":"상시","maleToilets":4,"femaleToilets":2,"disabled":true,"diaperTable":false,"emergencyBell":false,"cctv":false,"source":"public","category":"public"},{"id":"202539100000101500","name":"㈜태경평택공단주유소","lat":37.007518,"lng":127.079834,"roadAddr":"경기도 평택시 경기대로 616","openHours":"상시","maleToilets":2,"femaleToilets":1,"disabled":true,"diaperTable":false,"emergencyBell":false,"cctv":false,"source":"public","category":"public"},{"id":"202539100000100818","name":"지제역 맞이방 고객화장실","lat":37.018785,"lng":127.070513,"roadAddr":"경기도 평택시 경기대로 777","openHours":"상시","maleToilets":0,"femaleToilets":2,"disabled":false,"diaperTable":false,"emergencyBell":false,"cctv":false,"source":"public","category":"public"},{"id":"202539100000101018","name":"세교도서관(1층 로비)","lat":37.006413,"lng":127.078647,"roadAddr":"경기도 평택시 은실고가길 180","openHours":"정시","maleToilets":2,"femaleToilets":1,"disabled":false,"diaperTable":false,"emergencyBell":false,"cctv":false,"managerTel":"03180245445","source":"public","category":"public"},{"id":"202539100000101019","name":"세교도서관(1층 자료실)","lat":37.006413,"lng":127.078647,"roadAddr":"경기도 평택시 은실고가길 180","openHours":"정시","maleToilets":4,"femaleToilets":2,"disabled":true,"diaperTable":true,"emergencyBell":false,"cctv":false,"managerTel":"03180245445","source":"public","category":"public"},{"id":"202539100000101383","name":"토끼와거북이주유소","lat":37.006101,"lng":127.072666,"roadAddr":"경기도 평택시 평택로 258","openHours":"상시","maleToilets":5,"femaleToilets":3,"disabled":true,"diaperTable":false,"emergencyBell":true,"cctv":false,"source":"public","category":"public"},{"id":"202539100000100955","name":"청솔 어린이 공원","lat":37.003322,"lng":127.083123,"roadAddr":"경기도 평택시 세교동 557-1","openHours":"상시","maleToilets":6,"femaleToilets":3,"disabled":false,"diaperTable":false,"emergencyBell":false,"cctv":false,"source":"public","category":"public"},{"id":"202539100000100874","name":"모곡근린공원","lat":37.035404,"lng":127.075836,"roadAddr":"경기도 평택시 산단로52번길 21","openHours":"상시","maleToilets":4,"femaleToilets":1,"disabled":true,"diaperTable":false,"emergencyBell":true,"cctv":false,"source":"public","category":"public"},{"id":"202539100000100960","name":"칠괴근린공원","lat":37.032178,"lng":127.088302,"roadAddr":"경기도 평택시 칠괴동579-1","openHours":"상시","maleToilets":3,"femaleToilets":2,"disabled":false,"diaperTable":false,"emergencyBell":true,"cctv":false,"source":"public","category":"public"},{"id":"202539100000100939","name":"은실근린공원3","lat":37.013608,"lng":127.08759,"roadAddr":"경기도 평택시 동삭동 산176 일원","openHours":"상시","maleToilets":3,"femaleToilets":4,"disabled":true,"diaperTable":true,"emergencyBell":true,"cctv":true,"source":"public","category":"public"},{"id":"202539100000101039","name":"세교동7통 1호","lat":37.010177,"lng":127.075632,"roadAddr":"경기도 평택시 경기대로664번길 10","openHours":"상시","maleToilets":2,"femaleToilets":1,"disabled":false,"diaperTable":false,"emergencyBell":false,"cctv":false,"source":"public","category":"public"},{"id":"202539100000101040","name":"세교동7통 2호","lat":37.010395,"lng":127.075692,"roadAddr":"경기도 평택시 경기대로 662-11","openHours":"상시","maleToilets":3,"femaleToilets":2,"disabled":false,"diaperTable":false,"emergencyBell":false,"cctv":true,"source":"public","category":"public"},{"id":"202539100000101041","name":"세교동7통 3호","lat":37.010551,"lng":127.074805,"roadAddr":"경기도 평택시 경기대로664번길 32-1","openHours":"정시","maleToilets":2,"femaleToilets":1,"disabled":false,"diaperTable":false,"emergencyBell":false,"cctv":false,"source":"public","category":"public"},{"id":"202539100000101481","name":"에스케이네트윅스㈜필립주유소","lat":37.005573,"lng":127.084129,"roadAddr":"경기도 평택시 경기대로 572","openHours":"상시","maleToilets":6,"femaleToilets":3,"disabled":false,"diaperTable":false,"emergencyBell":false,"cctv":false,"source":"public","category":"public"},{"id":"202539100000101303","name":"모곡주유소","lat":37.03224,"lng":127.070178,"roadAddr":"경기도 평택시 경기대로 927","openHours":"상시","maleToilets":4,"femaleToilets":3,"disabled":true,"diaperTable":false,"emergencyBell":false,"cctv":false,"source":"public","category":"public"},{"id":"202539100000100946","name":"잔다리 근린공원","lat":37.005094,"lng":127.087419,"roadAddr":"경기도 평택시 세교7길 17","openHours":"상시","maleToilets":3,"femaleToilets":3,"disabled":true,"diaperTable":true,"emergencyBell":true,"cctv":true,"source":"public","category":"public"},{"id":"202539100000101055","name":"모곡족구장 화장실","lat":37.026767,"lng":127.071838,"roadAddr":"경기도 평택시 모곡동 323-2","openHours":"상시","maleToilets":4,"femaleToilets":1,"disabled":true,"diaperTable":false,"emergencyBell":true,"cctv":false,"managerTel":"0316465400","source":"public","category":"public"},{"id":"202539100000100906","name":"세교 근린공원","lat":37.002592,"lng":127.083758,"roadAddr":"경기도 평택시 세교1로 36","openHours":"정시","maleToilets":6,"femaleToilets":3,"disabled":false,"diaperTable":false,"emergencyBell":true,"cctv":true,"source":"public","category":"public"},{"id":"202539100000100831","name":"공공자전거대여소 1호점","lat":37.002759,"lng":127.088221,"roadAddr":"경기도 평택시 동삭로 174","openHours":"상시","maleToilets":0,"femaleToilets":1,"disabled":true,"diaperTable":true,"emergencyBell":true,"cctv":false,"managerTel":"03180243081","source":"public","category":"public"},{"id":"202539100000101310","name":"부영상가","lat":37.003248,"lng":127.084651,"roadAddr":"경기도 평택시 세교공원로 66","openHours":"상시","maleToilets":5,"femaleToilets":3,"disabled":true,"diaperTable":false,"emergencyBell":false,"cctv":false,"source":"public","category":"public"},{"id":"202539100000101309","name":"부영1차 아파트 1상가","lat":37.003248,"lng":127.084651,"roadAddr":"경기도 평택시 세교공원로 66","openHours":"상시","maleToilets":4,"femaleToilets":2,"disabled":false,"diaperTable":false,"emergencyBell":false,"cctv":false,"source":"public","category":"public"},{"id":"202539100000101392","name":"평택구도일주유소","lat":37.014548,"lng":127.071964,"roadAddr":"경기도 평택시 경기대로 729","openHours":"상시","maleToilets":3,"femaleToilets":6,"disabled":true,"diaperTable":false,"emergencyBell":false,"cctv":false,"source":"public","category":"public"},{"id":"202539100000101270","name":"국도주유소","lat":37.019222,"lng":127.071416,"roadAddr":"경기도 평택시 경기대로 781","openHours":"상시","maleToilets":4,"femaleToilets":2,"disabled":true,"diaperTable":true,"emergencyBell":true,"cctv":true,"source":"public","category":"public"},{"id":"202539100000100965","name":"평택공단 근린공원","lat":37.010515,"lng":127.079474,"roadAddr":"경기도 평택시 세교산단로 21-19","openHours":"상시","maleToilets":4,"femaleToilets":2,"disabled":false,"diaperTable":false,"emergencyBell":true,"cctv":true,"source":"public","category":"public"}]