[{"id":"202437400000101510","name":"수원역 지하1층 동편","lat":37.265592,"lng":127.00018,"roadAddr":"경기도 수원시 팔달구 덕영대로 924 (매산로1가, AK플라자)","jibunAddr":"경기도 수원시 팔달구 매산로1가 18","openHours":"정시","maleToilets":18,"femaleToilets":15,"disabled":true,"diaperTable":true,"emergencyBell":false,"cctv":false,"source":"public","category":"public"},{"id":"202437400000101354","name":"청송주유소","lat":37.259802,"lng":126.988213,"roadAddr":"경기도 수원시 권선구 권선로 331 (서둔동)","jibunAddr":"경기도 수원시 권선구 서둔동 79-12","openHours":"상시","maleToilets":3,"femaleToilets":2,"disabled":false,"diaperTable":false,"emergencyBell":false,"cctv":false,"source":"public","category":"public"},{"id":"202437400000101369","name":"직영G&G(수원햄스터)주유소","lat":37.253806,"lng":126.992877,"roadAddr":"경기도 수원시 권선구 매송고색로 810 (고색동)","jibunAddr":"경기도 수원시 권선구 고색동 185-6","openHours":"상시","maleToilets":3,"femaleToilets":2,"disabled":false,"diaperTable":false,"emergencyBell":false,"cctv":false,"source":"public","category":"public"},{"id":"202437400000101509","name":"수원역 지하1층 중앙","lat":37.265592,"lng":127.00018,"roadAddr":"경기도 수원시 팔달구 덕영대로 924 (매산로1가, AK플라자)","jibunAddr":"경기도 수원시 팔달구 매산로1가 18","openHours":"정시","maleToilets":35,"femaleToilets":23,"disabled":true,"diaperTable":true,"emergencyBell":true,"cctv":false,"source":"public","category":"public"},{"id":"202437400000101771","name":"고색향토전시관","lat":37.248087,"lng":126.9904,"roadAddr":"경기도 수원시 권선구 오목천로 276(고색동)","jibunAddr":"경기도 수원시 권선구 고색동 1129","openHours":"정시","maleToilets":4,"femaleToilets":2,"disabled":false,"diaperTable":false,"emergencyBell":false,"cctv":true,"source":"public","category":"public"},{"id":"202437400000101511","name":"수원역 2층 서편","lat":37.265592,"lng":127.00018,"roadAddr":"경기도 수원시 팔달구 덕영대로 924 (매산로1가, AK플라자)","jibunAddr":"경기도 수원시 팔달구 매산로1가 18","openHours":"정시","maleToilets":12,"femaleToilets":8,"disabled":true,"diaperTable":true,"emergencyBell":true,"cctv":false,"source":"public","category":"public"},{"id":"202437400000101441","name":"오목천주유소","lat":37.239905,"lng":126.966882,"roadAddr":"경기도 수원시 권선구 오목천로 40 (오목천동)","jibunAddr":"경기도 수원시 권선구 오목천동 559-6","openHours":"정시","maleToilets":2,"femaleToilets":2,"disabled":false,"diaperTable":false,"emergencyBell":false,"cctv":false,"source":"public","category":"public"},{"id":"202437400000101361","name":"창진가스에너지","lat":37.233265,"lng":126.981016,"roadAddr":"경기도 수원시 권선구 서수원로 21 (오목천동)","jibunAddr":"경기도 수원시 권선구 오목천동 740-1","openHours":"정시","maleToilets":4,"femaleToilets":2,"disabled":false,"diaperTable":false,"emergencyBell":false,"cctv":false,"source":"public","category":"public"},{"id":"202437400000101773","name":"고색충전소","lat":37.257694,"lng":126.980548,"roadAddr":"경기도 수원시 권선구 권선로 258 (고색동)","jibunAddr":"경기도 수원시 권선구 고색동 888-6","openHours":"정시","maleToilets":4,"femaleToilets":1,"disabled":false,"diaperTable":false,"emergencyBell":true,"cctv":false,"source":"public","category":"public"},{"id":"202437400000101440","name":"오목호수","lat":37.248178,"lng":126.964556,"jibunAddr":"경기도 수원시 권선구 오목천동 1171","openHours":"상시","maleToilets":3,"femaleToilets":6,"disabled":true,"diaperTable":false,"emergencyBell":true,"cctv":false,"source":"public","category":"public"},{"id":"202437400000101485","name":"씽씽","lat":37.256834,"lng":126.988569,"jibunAddr":"경기도 수원시 권선구 고색동 1192번지","openHours":"상시","maleToilets":4,"femaleToilets":4,"disabled":true,"diaperTable":false,"emergencyBell":true,"cctv":false,"source":"public","category":"public"},{"id":"202437400000101422","name":"은하수","lat":37.256257,"lng":126.994121,"roadAddr":"경기도 수원시 권선구 평동로68번길 38(평동)","jibunAddr":"경기도 수원시 권선구 평동 45-13","openHours":"상시","maleToilets":5,"femaleToilets":5,"disabled":false,"diaperTable":true,"emergencyBell":true,"cctv":false,"source":"public","category":"public"},{"id":"202437400000101385","name":"제14호문화","lat":37.258714,"lng":126.99229,"roadAddr":"경기도 수원시 권선구 평동로77번길 14-9 (평동)","jibunAddr":"경기도 수원시 권선구 평동 2-36","openHours":"상시","maleToilets":3,"femaleToilets":5,"disabled":true,"diaperTable":false,"emergencyBell":true,"cctv":false,"source":"public","category":"public"},{"id":"202437400000101775","name":"고색119안전센터","lat":37.253208,"lng":126.975322,"roadAddr":"경기도 수원시 권선구 서부로 1614, 수원중부소방서 고색파출소 (고색동)","jibunAddr":"경기도 수원시 권선구 고색동 886-145 수원중부소방서 고색파출소","openHours":"정시","maleToilets":6,"femaleToilets":3,"disabled":false,"diaperTable":false,"emergencyBell":false,"cctv":false,"source":"public","category":"public"},{"id":"202437400000101405","name":"자유에너지(주) 선화주유소","lat":37.246185,"lng":126.965383,"roadAddr":"경기도 수원시 권선구 매송고색로 552 (오목천동)","jibunAddr":"경기도 수원시 권선구 오목천동 316-1","openHours":"상시","maleToilets":3,"femaleToilets":2,"disabled":false,"diaperTable":false,"emergencyBell":false,"cctv":false,"source":"public","category":"public"},{"id":"202437400000101381","name":"중보들A","lat":37.246386,"lng":126.985532,"roadAddr":"경기도 수원시 권선구 산업로155번길 161(고색동)","jibunAddr":"경기도 수원시 권선구 고색동 523-1","openHours":"상시","maleToilets":6,"femaleToilets":6,"disabled":true,"diaperTable":false,"emergencyBell":true,"cctv":false,"source":"public","category":"public"},{"id":"202437400000101636","name":"물레방아","lat":37.241055,"lng":126.97312,"roadAddr":"경기도 수원시 권선구 오목천로 96(고색동)","jibunAddr":"경기도 수원시 권선구 고색동 980","openHours":"상시","maleToilets":5,"femaleToilets":3,"disabled":true,"diaperTable":true,"emergencyBell":true,"cctv":false,"source":"public","category":"public"},{"id":"202437400000101808","name":"(주)어울림","lat":37.243972,"lng":126.96024,"roadAddr":"경기도 수원시 권선구 매송고색로 498 (오목천동)","jibunAddr":"경기도 수원시 권선구 오목천동 388-1","openHours":"상시","maleToilets":4,"femaleToilets":2,"disabled":false,"diaperTable":false,"emergencyBell":true,"cctv":false,"source":"public","category":"public"},{"id":"202437400000101376","name":"지에스칼텍스(주) 경향주유소","lat":37.255291,"lng":126.993881,"roadAddr":"경기도 수원시 권선구 매송고색로 827 (평동)","jibunAddr":"경기도 수원시 권선구 평동 43-5","openHours":"상시","maleToilets":4,"femaleToilets":2,"disabled":false,"diaperTable":false,"emergencyBell":false,"cctv":false,"source":"public","category":"public"},{"id":"202437400000101805","name":"AK플라자 수원","lat":37.265592,"lng":127.00018,"roadAddr":"경기도 수원시 팔달구 덕영대로 924 (매산로1가, AK플라자)","jibunAddr":"경기도 수원시 팔달구 매산로1가 18","openHours":"정시","maleToilets":6,"femaleToilets":3,"disabled":false,"diaperTable":true,"emergencyBell":true,"cctv":false,"source":"public","category":"public"},{"id":"202437400000101442","name":"오목내","lat":37.237139,"lng":126.981436,"roadAddr":"경기도 수원시 권선구 서부로 1433-3(고색동)","jibunAddr":"경기도 수원시 권선구 고색동 992","openHours":"상시","maleToilets":3,"femaleToilets":2,"disabled":true,"diaperTable":false,"emergencyBell":true,"cctv":false,"source":"public","category":"public"},{"id":"202437400000101284","name":"희망주유소","lat":37.230602,"lng":126.969581,"roadAddr":"경기도 수원시 권선구 서수원로63번길 171(오목천동)","jibunAddr":"경기도 수원시 권선구 오목천동 893-7","openHours":"상시","maleToilets":0,"femaleToilets":0,"disabled":false,"diaperTable":false,"emergencyBell":false,"cctv":false,"source":"public","category":"public"},{"id":"202437400000101439","name":"오션주유소","lat":37.256718,"lng":126.995347,"roadAddr":"경기도 수원시 권선구 매송고색로 843 (평동)","jibunAddr":"경기도 수원시 권선구 평동 54","openHours":"상시","maleToilets":3,"femaleToilets":1,"disabled":false,"diaperTable":false,"emergencyBell":false,"cctv":false,"source":"public","category":"public"},{"id":"202437400000101512","name":"수원역 2층 동편","lat":37.265592,"lng":127.00018,"roadAddr":"경기도 수원시 팔달구 덕영대로 924 (매산로1가, AK플라자)","jibunAddr":"경기도 수원시 팔달구 매산로1가 18","openHours":"정시","maleToilets":16,"femaleToilets":12,"disabled":true,"diaperTable":true,"emergencyBell":false,"cctv":false,"source":"public","category":"public"},{"id":"202437400000101533","name":"수원권선경찰서 민원관","lat":37.258737,"lng":126.972264,"roadAddr":"경기도 수원시 권선구 서부로 1673 (탑동)","jibunAddr":"경기도 수원시 권선구 탑동 911","openHours":"상시","maleToilets":4,"femaleToilets":3,"disabled":false,"diaperTable":false,"emergencyBell":false,"cctv":false,"source":"public","category":"public"},{"id":"202437400000101654","name":"매산지구대","lat":37.265592,"lng":127.00018,"roadAddr":"경기도 수원시 팔달구 덕영대로 924(팔달구)","jibunAddr":"경기도 수원시 팔달구 매산로1가 18","openHours":"상시","maleToilets":2,"femaleToilets":1,"disabled":false,"diaperTable":false,"emergencyBell":false,"cctv":false,"source":"public","category":"public"},{"id":"202437400000101328","name":"평동그린주유소","lat":37.257675,"lng":126.997399,"roadAddr":"경기도 수원시 권선구 매송고색로 864 (평동)","jibunAddr":"경기도 수원시 권선구 평동 56-1","openHours":"정시","maleToilets":4,"femaleToilets":1,"disabled":false,"diaperTable":false,"emergencyBell":false,"cctv":false,"source":"public","category":"public"},{"id":"202437400000101532","name":"수원권선경찰서 본관","lat":37.258737,"lng":126.972264,"roadAddr":"경기도 수원시 권선구 서부로 1673 (탑동)","jibunAddr":"경기도 수원시 권선구 탑동 911","openHours":"상시","maleToilets":7,"femaleToilets":3,"disabled":false,"diaperTable":false,"emergencyBell":true,"cctv":false,"source":"public","category":"public"},{"id":"202437400000101689","name":"덕원주유소","lat":37.257694,"lng":126.980548,"roadAddr":"경기도 수원시 권선구 권선로 258 (고색동)","jibunAddr":"경기도 수원시 권선구 고색동 888-6","openHours":"상시","maleToilets":3,"femaleToilets":2,"disabled":false,"diaperTable":false,"emergencyBell":false,"cctv":false,"source":"public","category":"public"},{"id":"202437400000101766","name":"곳집말","lat":37.235968,"lng":126.976194,"roadAddr":"경기도 수원시 권선구 서수원로 71(평동)","jibunAddr":"경기도 수원시 권선구 오목천동 1179","openHours":"상시","maleToilets":4,"femaleToilets":5,"disabled":true,"diaperTable":false,"emergencyBell":true,"cctv":false,"source":"public","category":"public"},{"id":"202437400000101323","name":"하이웨이주유소","lat":37.245169,"lng":126.96116,"roadAddr":"경기도 수원시 권선구 매송고색로 513 (오목천동)","jibunAddr":"경기도 수원시 권선구 오목천동 361-2","openHours":"정시","maleToilets":2,"femaleToilets":2,"disabled":false,"diaperTable":false,"emergencyBell":false,"cctv":false,"source":"public","category":"public"},{"id":"202437400000101313","name":"행정타운주유소","lat":37.260968,"lng":126.963157,"roadAddr":"경기도 수원시 권선구 권선로 98 (호매실동)","jibunAddr":"경기도 수원시 권선구 호매실동 1395","openHours":"상시","maleToilets":2,"femaleToilets":1,"disabled":false,"diaperTable":false,"emergencyBell":false,"cctv":false,"source":"public","category":"public"},{"id":"202437400000101696","name":"대부둑","lat":37.254891,"lng":126.970192,"roadAddr":"경기도 수원시 권선구 호매실로 29-12, 대부둑 (고색동)","jibunAddr":"경기도 수원시 권선구 고색동 1189 대부둑","openHours":"상시","maleToilets":5,"femaleToilets":8,"disabled":true,"diaperTable":false,"emergencyBell":true,"cctv":false,"source":"public","category":"public"},{"id":"202437400000101728","name":"권선구청","lat":37.257634,"lng":126.971898,"roadAddr":"경기도 수원시 권선구 호매실로 12 권선구청(탑동)","jibunAddr":"경기도 수원시 권선구 탑동 900","openHours":"정시","maleToilets":24,"femaleToilets":21,"disabled":true,"diaperTable":true,"emergencyBell":true,"cctv":false,"source":"public","category":"public"},{"id":"202437400000101611","name":"배다리","lat":37.240292,"lng":126.985098,"roadAddr":"경기도 수원시 권선구 산업로156번길 171-33, 화장실 및 관리사무소 (고색동)","jibunAddr":"경기도 수원시 권선구 고색동 1111 화장실 및 관리사무소","openHours":"상시","maleToilets":5,"femaleToilets":5,"disabled":true,"diaperTable":false,"emergencyBell":false,"cctv":false,"source":"public","category":"public"},{"id":"202437400000101671","name":"들바람","lat":37.240296,"lng":126.978576,"roadAddr":"경기도 수원시 권선구 산업로92번길 105(고색동)","jibunAddr":"경기도 수원시 권선구 고색동 931","openHours":"상시","maleToilets":3,"femaleToilets":2,"disabled":false,"diaperTable":false,"emergencyBell":true,"cctv":false,"source":"public","category":"public"},{"id":"202437400000101528","name":"수원시농업기술센터","lat":37.250123,"lng":126.963165,"roadAddr":"경기도 수원시 권선구 온정로 45 (오목천동)","jibunAddr":"경기도 수원시 권선구 오목천동 40","openHours":"정시","maleToilets":15,"femaleToilets":6,"disabled":true,"diaperTable":false,"emergencyBell":false,"cctv":false,"source":"public","category":"public"},{"id":"202437400000101630","name":"바람개비","lat":37.247401,"lng":126.970053,"roadAddr":"경기도 수원시 권선구 매송고색로 594(고색동)","jibunAddr":"경기도 수원시 권선구 고색동 904-14","openHours":"정시","maleToilets":6,"femaleToilets":3,"disabled":true,"diaperTable":true,"emergencyBell":true,"cctv":false,"source":"public","category":"public"},{"id":"202437400000101837","name":"중앙스포츠랜드","lat":37.252854,"lng":126.986957,"roadAddr":"경기도 수원시 권선구 매송고색로 755(고색동)","jibunAddr":"경기도 수원시 권선구 고색동 27-1","openHours":"상시","maleToilets":4,"femaleToilets":2,"disabled":false,"diaperTable":false,"emergencyBell":true,"cctv":false,"source":"public","category":"public"},{"id":"202437400000101787","name":"경기도장애인복지종합지원센터","lat":37.23938,"lng":126.972958,"roadAddr":"경기도 수원시 권선구 서수원로 130(오목천동)","jibunAddr":"경기도 수원시 권선구 오목천동 677 경기도장애인복지종합지원센터","openHours":"정시","maleToilets":21,"femaleToilets":13,"disabled":true,"diaperTable":false,"emergencyBell":true,"cctv":false,"source":"public","category":"public"},{"id":"202437400000101871","name":"블루테라스빌딩","lat":37.260104,"lng":126.962784,"roadAddr":"경기도 수원시 권선구 호매실로90번길 116 (호매실동)","jibunAddr":"경기도 수원시 권선구 호매실동 1395-3","openHours":"상시","maleToilets":5,"femaleToilets":3,"disabled":true,"diaperTable":true,"emergencyBell":false,"cctv":false,"source":"public","category":"public"},{"id":"202437400000101729","name":"권선구보건소","lat":37.258743,"lng":126.97113,"roadAddr":"경기도 수원시 권선구 호매실로 22-50(탑동)","jibunAddr":"경기도 수원시 권선구 탑동 910","openHours":"정시","maleToilets":12,"femaleToilets":11,"disabled":true,"diaperTable":true,"emergencyBell":false,"cctv":false,"source":"public","category":"public"},{"id":"202437400000101327","name":"평동행정복지센터","lat":37.258053,"lng":126.994157,"roadAddr":"경기도 수원시 권선구 수원시 권선구 평동로76번길 13(평동)","jibunAddr":"경기도 수원시 권선구 평동 35-6","openHours":"정시","maleToilets":15,"femaleToilets":3,"disabled":true,"diaperTable":false,"emergencyBell":false,"cctv":false,"source":"public","category":"public"},{"id":"202437400000101772","name":"고색파출소","lat":37.251914,"lng":126.986355,"roadAddr":"경기도 수원시 권선구 매송고색로 748, 고색파출소 (고색동)","jibunAddr":"경기도 수원시 권선구 고색동 146-7 고색파출소","openHours":"상시","maleToilets":2,"femaleToilets":1,"disabled":false,"diaperTable":false,"emergencyBell":true,"cctv":false,"source":"public","category":"public"},{"id":"202437400000101688","name":"도로교통관리사업소","lat":37.252388,"lng":126.976424,"roadAddr":"경기도 수원시 권선구 서부로 1600, 도로교통관리사업소 (고색동)","jibunAddr":"경기도 수원시 권선구 고색동 886-70 도로교통관리사업소","openHours":"정시","maleToilets":18,"femaleToilets":10,"disabled":true,"diaperTable":false,"emergencyBell":false,"cctv":false,"source":"public","category":"public"},{"id":"202437400000101723","name":"극동산업(주)광명충전소","lat":37.243955,"lng":126.958666,"roadAddr":"경기도 수원시 권선구 매송고색로 487 (오목천동)","jibunAddr":"경기도 수원시 권선구 오목천동 356-8 극동산업(주)광명충전소","openHours":"정시","maleToilets":2,"femaleToilets":1,"disabled":false,"diaperTable":false,"emergencyBell":false,"cctv":false,"source":"public","category":"public"},{"id":"202437400000101767","name":"골든벨주유소","lat":37.256081,"lng":126.974339,"roadAddr":"경기도 수원시 권선구 서부로 1650 (고색동)","jibunAddr":"경기도 수원시 권선구 고색동 894-5","openHours":"상시","maleToilets":2,"femaleToilets":1,"disabled":false,"diaperTable":false,"emergencyBell":true,"cctv":false,"source":"public","category":"public"},{"id":"202437400000101666","name":"타임빌라스 수원","lat":37.264163,"lng":126.997386,"roadAddr":"경기도 수원시 권선구 세화로 134, 롯데몰 수원점 (서둔동)","jibunAddr":"경기도 수원시 권선구 서둔동 381 롯데몰 수원점","openHours":"정시","maleToilets":7,"femaleToilets":6,"disabled":true,"diaperTable":true,"emergencyBell":false,"cctv":true,"source":"public","category":"public"},{"id":"202437400000101812","name":"(주)DOTD 수원몬스터 주유소","lat":37.253849,"lng":126.990351,"roadAddr":"경기도 수원시 권선구 매송고색로 789 (고색동)","jibunAddr":"경기도 수원시 권선구 고색동 165-4","openHours":"정시","maleToilets":3,"femaleToilets":1,"disabled":false,"diaperTable":false,"emergencyBell":false,"cctv":false,"source":"public","category":"public"},{"id":"202437400000101851","name":"에코스테이","lat":37.255546,"lng":126.97209,"roadAddr":"경기도 수원시 권선구 호매실로 21-51","jibunAddr":"경기도 수원시 권선구 고색동 1176-1","openHours":"상시","maleToilets":3,"femaleToilets":2,"disabled":true,"diaperTable":false,"emergencyBell":true,"cctv":false,"source":"public","category":"public"},{"id":"202437400000101708","name":"남선주유소","lat":37.259232,"lng":126.989053,"roadAddr":"경기도 수원시 권선구 권선로 334 (고색동)","jibunAddr":"경기도 수원시 권선구 고색동 14-33","openHours":"정시","maleToilets":3,"femaleToilets":1,"disabled":false,"diaperTable":false,"emergencyBell":false,"cctv":false,"source":"public","category":"public"},{"id":"202437400000101552","name":"솔대","lat":37.244649,"lng":126.977377,"roadAddr":"경기도 수원시 권선구 오목천로152번길 7 (고색동)","jibunAddr":"경기도 수원시 권선구 고색동 917","openHours":"정시","maleToilets":6,"femaleToilets":6,"disabled":true,"diaperTable":true,"emergencyBell":true,"cctv":false,"source":"public","category":"public"},{"id":"202437400000101721","name":"금강주유소","lat":37.247586,"lng":126.967818,"roadAddr":"경기도 수원시 권선구 매송고색로 577 (오목천동)","jibunAddr":"경기도 수원시 권선구 오목천동 274-1","openHours":"상시","maleToilets":3,"femaleToilets":2,"disabled":false,"diaperTable":false,"emergencyBell":false,"cctv":true,"source":"public","category":"public"},{"id":"202437400000101380","name":"중보들B","lat":37.246386,"lng":126.985532,"roadAddr":"경기도 수원시 권선구 산업로155번길 161(고색동)","jibunAddr":"경기도 수원시 권선구 고색동 523-1","openHours":"상시","maleToilets":8,"femaleToilets":9,"disabled":true,"diaperTable":false,"emergencyBell":true,"cctv":true,"source":"public","category":"public"},{"id":"202437400000101496","name":"수일가스충전소","lat":37.255001,"lng":126.989981,"roadAddr":"경기도 수원시 권선구 평동로 31, 수일가스충전소 (고색동)","jibunAddr":"경기도 수원시 권선구 고색동 173-2 수일가스충전소","openHours":"정시","maleToilets":4,"femaleToilets":1,"disabled":false,"diaperTable":false,"emergencyBell":false,"cctv":false,"source":"public","category":"public"},{"id":"202437400000101508","name":"수원역 지하2층 서편","lat":37.265592,"lng":127.00018,"roadAddr":"경기도 수원시 팔달구 덕영대로 924 (매산로1가, AK플라자)","jibunAddr":"경기도 수원시 팔달구 매산로1가 18","openHours":"정시","maleToilets":4,"femaleToilets":5,"disabled":true,"diaperTable":true,"emergencyBell":false,"cctv":false,"source":"public","category":"public"},{"id":"202455300000100004","name":"기배동주민센터 5층","lat":37.224282,"lng":126.984529,"roadAddr":"경기도 화성시 효행구 기안남로 62 (기안동, 기배동주민센터)","openHours":"정시","maleToilets":4,"femaleToilets":4,"disabled":false,"diaperTable":false,"emergencyBell":false,"cctv":false,"managerTel":"03151896783","source":"public","category":"public"},{"id":"202455300000100005","name":"기배동주민센터 4층","lat":37.224282,"lng":126.984529,"roadAddr":"경기도 화성시 효행구 기안남로 62 (기안동, 기배동주민센터)","openHours":"정시","maleToilets":4,"femaleToilets":4,"disabled":false,"diaperTable":false,"emergencyBell":false,"cctv":false,"managerTel":"03151896783","source":"public","category":"public"},{"id":"202455300000100003","name":"기배동주민센터 지하2층","lat":37.224282,"lng":126.984529,"roadAddr":"경기도 화성시 효행구 기안남로 62 (기안동, 기배동주민센터)","openHours":"정시","maleToilets":4,"femaleToilets":4,"disabled":false,"diaperTable":false,"emergencyBell":false,"cctv":false,"managerTel":"03151896783","source":"public","category":"public"},{"id":"202455300000100007","name":"기배동주민센터 2층","lat":37.224282,"lng":126.984529,"roadAddr":"경기도 화성시 효행구 기안남로 62 (기안동, 기배동주민센터)","openHours":"정시","maleToilets":4,"femaleToilets":4,"disabled":false,"diaperTable":false,"emergencyBell":false,"cctv":false,"managerTel":"03151896783","source":"public","category":"public"},{"id":"202455300000100008","name":"기배동주민센터 1층","lat":37.224282,"lng":126.984529,"roadAddr":"경기도 화성시 효행구 기안남로 62 (기안동, 기배동주민센터)","openHours":"정시","maleToilets":4,"femaleToilets":4,"disabled":false,"diaperTable":false,"emergencyBell":false,"cctv":false,"managerTel":"03151896783","source":"public","category":"public"},{"id":"202455300000100006","name":"기배동주민센터 3층","lat":37.224282,"lng":126.984529,"roadAddr":"경기도 화성시 효행구 기안남로 62 (기안동, 기배동주민센터)","openHours":"정시","maleToilets":4,"femaleToilets":4,"disabled":false,"diaperTable":false,"emergencyBell":false,"cctv":false,"managerTel":"03151896783","source":"public","category":"public"}]