[{"id":"202540000000100246","name":"달빛호수공원","lat":37.141039,"lng":127.092551,"roadAddr":"경기도 오산시 원당로 22","jibunAddr":"경기도 오산시 원동 715-8","openHours":"상시","maleToilets":3,"femaleToilets":3,"disabled":true,"diaperTable":true,"emergencyBell":true,"cctv":true,"managerTel":"03180366475","source":"public","category":"public"},{"id":"202640000000100006","name":"부산제2어린이공원","lat":37.151012,"lng":127.090197,"jibunAddr":"경기도 오산시 부산동 797 부산제2어린이공원","openHours":"상시","maleToilets":3,"femaleToilets":3,"disabled":true,"diaperTable":false,"emergencyBell":true,"cctv":true,"managerTel":"03180366484","source":"public","category":"public"},{"id":"202540000000100391","name":"프라자충전소","lat":37.159299,"lng":127.093601,"roadAddr":"경기도 오산시  경기동로 197","jibunAddr":"경기도 오산시부산동 79-1","openHours":"상시","maleToilets":4,"femaleToilets":2,"disabled":false,"diaperTable":false,"emergencyBell":false,"cctv":true,"managerTel":"0313730600","source":"public","category":"public"},{"id":"202455300000100039","name":"동탄2 크린에너지센터 실내체육시설","lat":37.175534,"lng":127.097819,"roadAddr":"경기도 화성시 동탄구 동탄대로9길 76 (송동)","openHours":"11시간","maleToilets":5,"femaleToilets":4,"disabled":true,"diaperTable":false,"emergencyBell":false,"cctv":true,"managerTel":"03151896783","source":"public","category":"public"},{"id":"202455300000100036","name":"동탄8동 행정복지센터 3층","lat":37.162288,"lng":127.105212,"roadAddr":"경기도 화성시 동탄구 동탄대로 87(장지동)","openHours":"11시간","maleToilets":4,"femaleToilets":4,"disabled":true,"diaperTable":false,"emergencyBell":false,"cctv":false,"managerTel":"03151896783","source":"public","category":"public"},{"id":"202455300000100037","name":"동탄8동 행정복지센터 2층","lat":37.162288,"lng":127.105212,"roadAddr":"경기도 화성시 동탄구 동탄대로 87(장지동)","openHours":"11시간","maleToilets":4,"femaleToilets":4,"disabled":true,"diaperTable":false,"emergencyBell":false,"cctv":false,"managerTel":"03151896783","source":"public","category":"public"},{"id":"202455300000100038","name":"동탄8동 행정복지센터 1층","lat":37.162288,"lng":127.105212,"roadAddr":"경기도 화성시 동탄구 동탄대로 87(장지동)","openHours":"11시간","maleToilets":4,"femaleToilets":4,"disabled":true,"diaperTable":false,"emergencyBell":false,"cctv":false,"managerTel":"03151896783","source":"public","category":"public"},{"id":"202455300000100427","name":"동탄뉴타운충전소","lat":37.158588,"lng":127.096702,"roadAddr":"경기도 화성시 경기동로 228 (장지리)","openHours":"24시간","maleToilets":4,"femaleToilets":2,"disabled":false,"diaperTable":false,"emergencyBell":false,"cctv":false,"managerTel":"03151896783","source":"public","category":"public"},{"id":"202455300000100428","name":"동탄뉴타운주유소","lat":37.158734,"lng":127.097747,"roadAddr":"경기도 화성시 경기동로 234 (장지리)","openHours":"24시간","maleToilets":3,"femaleToilets":2,"disabled":false,"diaperTable":false,"emergencyBell":false,"cctv":false,"managerTel":"03151896783","source":"public","category":"public"},{"id":"202455300000100429","name":"(주)마봉 장지IC주유소","lat":37.154942,"lng":127.113051,"roadAddr":"경기도 화성시 경기동로 378 (장지리)","openHours":"24시간","maleToilets":3,"femaleToilets":1,"disabled":false,"diaperTable":false,"emergencyBell":false,"cctv":false,"managerTel":"03151896783","source":"public","category":"public"},{"id":"202455300000100430","name":"동지주유소","lat":37.151334,"lng":127.124374,"roadAddr":"경기도 화성시 경기동로 492 (장지리)","openHours":"24시간","maleToilets":3,"femaleToilets":2,"disabled":false,"diaperTable":false,"emergencyBell":false,"cctv":false,"managerTel":"03151896783","source":"public","category":"public"},{"id":"202455300000100431","name":"동일유업(주)룰루랄라주유소","lat":37.149856,"lng":127.125795,"roadAddr":"경기도 화성시 경기동로 516 (장지리)","openHours":"24시간","maleToilets":3,"femaleToilets":2,"disabled":false,"diaperTable":false,"emergencyBell":false,"cctv":false,"managerTel":"03151896783","source":"public","category":"public"},{"id":"202455300000100432","name":"(주)빅뱅코리아샤인주유소","lat":37.149789,"lng":127.127696,"roadAddr":"경기도 화성시 경기동로 527 (장지리)","openHours":"24시간","maleToilets":2,"femaleToilets":2,"disabled":false,"diaperTable":false,"emergencyBell":false,"cctv":true,"managerTel":"03151896783","source":"public","category":"public"},{"id":"202455300000100470","name":"동탄2산단주유소","lat":37.174976,"lng":127.090863,"roadAddr":"경기도 화성시 동탄구 동탄기흥로 161 (방교리)","openHours":"24시간","maleToilets":2,"femaleToilets":1,"disabled":false,"diaperTable":false,"emergencyBell":false,"cctv":false,"managerTel":"03151896783","source":"public","category":"public"},{"id":"202455300000100484","name":"서연이음터 5층","lat":37.160568,"lng":127.109466,"roadAddr":"경기도 화성시 동탄구 동탄순환대로8길 57","openHours":"24시간","maleToilets":8,"femaleToilets":6,"disabled":true,"diaperTable":false,"emergencyBell":false,"cctv":false,"managerTel":"03151896783","source":"public","category":"public"},{"id":"202455300000100485","name":"서연이음터 4층","lat":37.160568,"lng":127.109466,"roadAddr":"경기도 화성시 동탄구 동탄순환대로8길 57","openHours":"24시간","maleToilets":8,"femaleToilets":6,"disabled":true,"diaperTable":false,"emergencyBell":false,"cctv":false,"managerTel":"03151896783","source":"public","category":"public"},{"id":"202455300000100486","name":"서연이음터 3층","lat":37.160568,"lng":127.109466,"roadAddr":"경기도 화성시 동탄구 동탄순환대로8길 57","openHours":"24시간","maleToilets":8,"femaleToilets":6,"disabled":true,"diaperTable":false,"emergencyBell":false,"cctv":false,"managerTel":"03151896783","source":"public","category":"public"},{"id":"202455300000100487","name":"서연이음터 2층","lat":37.160568,"lng":127.109466,"roadAddr":"경기도 화성시 동탄구 동탄순환대로8길 57","openHours":"24시간","maleToilets":8,"femaleToilets":6,"disabled":true,"diaperTable":false,"emergencyBell":false,"cctv":false,"managerTel":"03151896783","source":"public","category":"public"},{"id":"202455300000100488","name":"서연이음터 1층","lat":37.160568,"lng":127.109466,"roadAddr":"경기도 화성시 동탄구 동탄순환대로8길 57","openHours":"24시간","maleToilets":8,"femaleToilets":6,"disabled":true,"diaperTable":false,"emergencyBell":false,"cctv":false,"managerTel":"03151896783","source":"public","category":"public"},{"id":"202455300000100833","name":"화성시동탄아르딤복지관","lat":37.176687,"lng":127.107844,"roadAddr":"경기도 화성시 동탄구 동탄대로10길 17-12","openHours":"9시간","maleToilets":10,"femaleToilets":25,"disabled":true,"diaperTable":true,"emergencyBell":false,"cctv":false,"managerTel":"03151896783","source":"public","category":"public"}]