[{"id":"202455300000100210","name":"성녀루이제의집","lat":37.156409,"lng":126.961399,"roadAddr":"경기도 화성시 효행구 정남면 서봉로921번길 45 (문학리, 성녀루이제의집)","openHours":"정시","maleToilets":24,"femaleToilets":12,"disabled":true,"diaperTable":false,"emergencyBell":false,"cctv":false,"managerTel":"03151896783","source":"public","category":"public"},{"id":"202455300000100211","name":"서원주유소","lat":37.171667,"lng":126.980348,"roadAddr":"경기도 화성시 효행구 정남면 세자로 31 (괘랑리, 서원주유소)","openHours":"정시","maleToilets":3,"femaleToilets":1,"disabled":false,"diaperTable":false,"emergencyBell":false,"cctv":false,"managerTel":"03151896783","source":"public","category":"public"},{"id":"202455300000100207","name":"VIP주유소","lat":37.153357,"lng":126.981741,"roadAddr":"경기도 화성시 효행구 정남면 만년로 354 (발산리)","openHours":"정시","maleToilets":2,"femaleToilets":1,"disabled":false,"diaperTable":false,"emergencyBell":false,"cctv":false,"managerTel":"03151896783","source":"public","category":"public"},{"id":"202455300000100208","name":"정남면사무소","lat":37.160374,"lng":126.971069,"roadAddr":"경기도 화성시 효행구 정남면 서봉로 998 (신리, 정남면사무소)","openHours":"정시","maleToilets":4,"femaleToilets":2,"disabled":false,"diaperTable":false,"emergencyBell":false,"cctv":false,"managerTel":"03151896783","source":"public","category":"public"},{"id":"202455300000100706","name":"정남파출소","lat":37.17308,"lng":126.983997,"roadAddr":"경기도 화성시 효행구 정남면 괘랑리 901-1","openHours":"정시","maleToilets":1,"femaleToilets":1,"disabled":false,"diaperTable":false,"emergencyBell":false,"cctv":true,"managerTel":"03151896783","source":"public","category":"public"},{"id":"202455300000100707","name":"귀래생태공원","lat":37.137232,"lng":127.001837,"roadAddr":"경기도 화성시 효행구 정남면 귀래리 100-1","openHours":"정시","maleToilets":2,"femaleToilets":3,"disabled":false,"diaperTable":false,"emergencyBell":false,"cctv":false,"managerTel":"03151896783","source":"public","category":"public"},{"id":"202455300000100708","name":"청강신리주유소","lat":37.156617,"lng":126.981585,"roadAddr":"경기도 화성시 효행구 정남면 만년로 391 (신리)","openHours":"정시","maleToilets":3,"femaleToilets":2,"disabled":false,"diaperTable":false,"emergencyBell":false,"cctv":false,"managerTel":"03151896783","source":"public","category":"public"},{"id":"202455300000100709","name":"정남도서관 주차장 공중화장실","lat":37.168215,"lng":126.983161,"roadAddr":"경기도 화성시 효행구 정남면 만년로 527 (발산리)","openHours":"정시","maleToilets":4,"femaleToilets":2,"disabled":true,"diaperTable":false,"emergencyBell":false,"cctv":false,"managerTel":"03151896783","source":"public","category":"public"},{"id":"202455300000100711","name":"문학보건진료소","lat":37.151071,"lng":126.973127,"roadAddr":"경기도 화성시 효행구 정남면 문학로 84 (문학리, 문학리 보건진료소)","openHours":"정시","maleToilets":2,"femaleToilets":1,"disabled":false,"diaperTable":false,"emergencyBell":false,"cctv":false,"managerTel":"03151896783","source":"public","category":"public"},{"id":"202455300000100713","name":"정남 용수교 둔치","lat":37.168961,"lng":126.994794,"roadAddr":"경기도 화성시 효행구 정남면 발산리 14","openHours":"정시","maleToilets":8,"femaleToilets":4,"disabled":false,"diaperTable":false,"emergencyBell":false,"cctv":false,"managerTel":"03151896783","source":"public","category":"public"},{"id":"202455300000100715","name":"경기주유소","lat":37.163632,"lng":126.977639,"roadAddr":"경기도 화성시 효행구 정남면 서봉로 1061 (신리)","openHours":"정시","maleToilets":2,"femaleToilets":1,"disabled":false,"diaperTable":false,"emergencyBell":false,"cctv":false,"managerTel":"03151896783","source":"public","category":"public"},{"id":"202455300000100716","name":"형제주유소","lat":37.16406,"lng":126.979874,"roadAddr":"경기도 화성시 효행구 정남면 서봉로 1081 (신리)","openHours":"정시","maleToilets":2,"femaleToilets":1,"disabled":false,"diaperTable":false,"emergencyBell":false,"cctv":true,"managerTel":"03151896783","source":"public","category":"public"},{"id":"202455300000100717","name":"문학현대주유소","lat":37.158456,"lng":126.967762,"roadAddr":"경기도 화성시 효행구 정남면 서봉로 955 (문학리)","openHours":"정시","maleToilets":2,"femaleToilets":1,"disabled":false,"diaperTable":false,"emergencyBell":false,"cctv":false,"managerTel":"03151896783","source":"public","category":"public"},{"id":"202455300000100718","name":"정남보건지소","lat":37.160374,"lng":126.971069,"roadAddr":"경기도 화성시 효행구 정남면 서봉로 998 (신리, 정남면사무소)","openHours":"정시","maleToilets":6,"femaleToilets":5,"disabled":false,"diaperTable":false,"emergencyBell":false,"cctv":false,"managerTel":"03151896783","source":"public","category":"public"},{"id":"202455300000100720","name":"정남IC주유소","lat":37.175018,"lng":126.980667,"roadAddr":"경기도 화성시 효행구 정남면 세자로 68 (관항리, 경산 주유소)","openHours":"정시","maleToilets":2,"femaleToilets":2,"disabled":false,"diaperTable":false,"emergencyBell":false,"cctv":false,"managerTel":"03151896783","source":"public","category":"public"},{"id":"202455300000100721","name":"정남우체국","lat":37.168676,"lng":126.982775,"roadAddr":"경기도 화성시 효행구 정남면 신백길 195 (발산리, 정남우체국)","openHours":"정시","maleToilets":1,"femaleToilets":1,"disabled":false,"diaperTable":false,"emergencyBell":false,"cctv":false,"managerTel":"03151896783","source":"public","category":"public"},{"id":"202455300000100386","name":"정남도서관 1층","lat":37.168215,"lng":126.983161,"roadAddr":"경기도 화성시 효행구 정남면 만년로 527 (발산리)","openHours":"정시","maleToilets":4,"femaleToilets":2,"disabled":true,"diaperTable":false,"emergencyBell":false,"cctv":false,"managerTel":"03151896783","source":"public","category":"public"},{"id":"202455300000100387","name":"정남농협주유소","lat":37.170279,"lng":126.983573,"roadAddr":"경기도 화성시 효행구 정남면 만년로 552 (괘랑리)","openHours":"정시","maleToilets":3,"femaleToilets":1,"disabled":false,"diaperTable":false,"emergencyBell":false,"cctv":false,"managerTel":"03151896783","source":"public","category":"public"},{"id":"202455300000100388","name":"SK네트웍스 신리주유소","lat":37.162309,"lng":126.975344,"roadAddr":"경기도 화성시 효행구 정남면 서봉로 1036 (신리)","openHours":"정시","maleToilets":2,"femaleToilets":2,"disabled":false,"diaperTable":false,"emergencyBell":false,"cctv":false,"managerTel":"03151896783","source":"public","category":"public"}]