[{"id":"202540500000102200","name":"용인경전철 초당역 개방화장실","lat":37.260881,"lng":127.159488,"roadAddr":"경기도 용인시 기흥구 동백죽전대로 204, 초당역 (중동)","jibunAddr":"경기도 용인시 기흥구 중동 1090 초당역","openHours":"05:15-00:00","maleToilets":3,"femaleToilets":4,"disabled":true,"diaperTable":true,"emergencyBell":true,"cctv":true,"managerTel":"0313293546","source":"public","category":"public"},{"id":"202540500000102475","name":"지곡천 산책로 공중화장실","lat":37.240271,"lng":127.134744,"roadAddr":"경기도 용인시 기흥구 지삼로198번길 7 (지곡동)","jibunAddr":"경기도 용인시 기흥구 지곡동 656-16","openHours":"상시","maleToilets":0,"femaleToilets":1,"disabled":true,"diaperTable":true,"emergencyBell":true,"cctv":false,"managerTel":"07047661315","source":"public","category":"public"},{"id":"202540500000102127","name":"토리근린공원 공중화장실","lat":37.265174,"lng":127.155863,"roadAddr":"경기도 용인시 기흥구 동백죽전대로 264","jibunAddr":"경기도 용인시 기흥구 중동 1049","openHours":"상시","maleToilets":6,"femaleToilets":6,"disabled":true,"diaperTable":true,"emergencyBell":true,"cctv":false,"managerTel":"03161939053","source":"public","category":"public"},{"id":"202540500000102064","name":"초당고앞 공중화장실","lat":37.259069,"lng":127.164261,"roadAddr":"경기도 용인시 기흥구 동백중앙로 24","jibunAddr":"경기도 용인시 기흥구 중동 1024-1","openHours":"상시","maleToilets":1,"femaleToilets":1,"disabled":true,"diaperTable":false,"emergencyBell":true,"cctv":false,"managerTel":"07047661315","source":"public","category":"public"},{"id":"202540500000101862","name":"용인미르스타디움(보조경기장) 개방화장실","lat":37.249631,"lng":127.165158,"roadAddr":"경기도 용인시 처인구 동백죽전대로61","jibunAddr":"경기도 용인시 처인구 삼가동 28-6","openHours":"상시","maleToilets":4,"femaleToilets":5,"disabled":true,"diaperTable":false,"emergencyBell":true,"cctv":true,"managerTel":"0313298600","source":"public","category":"public"},{"id":"202540500000102009","name":"상하동다목적구장 공중화장실","lat":37.259321,"lng":127.134947,"roadAddr":"경기도 용인시 기흥구 중부대로746번길 54 (상하동)","jibunAddr":"경기도 용인시 기흥구 상하동 191-5","openHours":"08:00~20:00","maleToilets":3,"femaleToilets":3,"disabled":false,"diaperTable":false,"emergencyBell":true,"cctv":false,"managerTel":"0313246044","source":"public","category":"public"},{"id":"202540500000101868","name":"용인어린이상상의숲 개방화장실","lat":37.249631,"lng":127.165158,"roadAddr":"경기도 용인시 처인구 동백죽전대로 61, 용인미르스타디움 (삼가동)","jibunAddr":"경기도 용인시 처인구 삼가동 28-6 용인미르스타디움","openHours":"10:00~17:00","maleToilets":7,"femaleToilets":7,"disabled":true,"diaperTable":true,"emergencyBell":false,"cctv":true,"managerTel":"0313236251","source":"public","category":"public"},{"id":"202540500000101867","name":"용인어린이상상의숲 어린이개방화장실","lat":37.249631,"lng":127.165158,"roadAddr":"경기도 용인시 처인구 동백죽전대로 61, 용인미르스타디움 (삼가동)","jibunAddr":"경기도 용인시 처인구 삼가동 28-6 용인미르스타디움","openHours":"10:00~17:00","maleToilets":0,"femaleToilets":0,"disabled":false,"diaperTable":false,"emergencyBell":false,"cctv":true,"managerTel":"0313236251","source":"public","category":"public"},{"id":"202540500000102206","name":"용인경전철 삼가역 개방화장실","lat":37.24211,"lng":127.168089,"roadAddr":"경기도 용인시 처인구 중부대로 1098, 삼가역 (삼가동)","jibunAddr":"경기도 용인시 처인구 삼가동 499-1 삼가역","openHours":"05:15-00:00","maleToilets":3,"femaleToilets":4,"disabled":true,"diaperTable":true,"emergencyBell":true,"cctv":true,"managerTel":"0313293547","source":"public","category":"public"},{"id":"202540500000102216","name":"용인시 동물보호센터 개방화장실","lat":37.243313,"lng":127.159339,"roadAddr":"경기도 용인시 처인구 중부대로 1074-1","jibunAddr":"경기도 용인시 처인구 삼가동 164","openHours":"정시(09:00-18:00)","maleToilets":3,"femaleToilets":1,"disabled":true,"diaperTable":true,"emergencyBell":false,"cctv":true,"managerTel":"03161933463","source":"public","category":"public"},{"id":"202640500000100016","name":"용인미르스타디움 개방화장실","lat":37.249631,"lng":127.165158,"roadAddr":"경기도 용인시 처인구 동백죽전대로 61, 용인미르스타디움 (삼가동)","jibunAddr":"경기도 용인시 처인구 삼가동 28-6 용인미르스타디움","openHours":"상시","maleToilets":2,"femaleToilets":2,"disabled":false,"diaperTable":false,"emergencyBell":false,"cctv":false,"managerTel":"0313298600","source":"public","category":"public"},{"id":"202540500000102491","name":"서용인(IC)영업소 개방화장실","lat":37.240278,"lng":127.1581,"roadAddr":"경기도 용인시 처인구 지삼로 531 (삼가동)","jibunAddr":"경기도 용인시 처인구 삼가동 산 69-2","openHours":"상시","maleToilets":1,"femaleToilets":1,"disabled":true,"diaperTable":false,"emergencyBell":true,"cctv":false,"managerTel":"07080315243","source":"public","category":"public"},{"id":"202540500000102124","name":"한길찬근린공원 공중화장실","lat":37.261059,"lng":127.16017,"roadAddr":"경기도 용인시 기흥구 동백중앙로 61-16","jibunAddr":"경기도 용인시 기흥구 중동 1044","openHours":"상시","maleToilets":5,"femaleToilets":7,"disabled":true,"diaperTable":true,"emergencyBell":true,"cctv":true,"managerTel":"03161939053","source":"public","category":"public"},{"id":"202540500000102479","name":"조일프라자 골프클럽 개방화장실","lat":37.234675,"lng":127.156374,"roadAddr":"경기도 용인시 처인구 지삼로 470 (삼가동)","jibunAddr":"경기도 용인시 처인구 삼가동 419-3","openHours":"06:00~22:00","maleToilets":19,"femaleToilets":9,"disabled":false,"diaperTable":false,"emergencyBell":false,"cctv":true,"managerTel":"0313346900","source":"public","category":"public"}]