[{"id":"202455300000100422","name":"향남환승터미널","lat":37.132873,"lng":126.921844,"roadAddr":"경기도 화성시 만세구 향남읍 향남로 424 (행정리)","openHours":"정시","maleToilets":15,"femaleToilets":11,"disabled":true,"diaperTable":false,"emergencyBell":false,"cctv":false,"managerTel":"03151896783","source":"public","category":"public"},{"id":"202455300000100639","name":"초록산 산림욕장 2","lat":37.092161,"lng":126.95494,"roadAddr":"경기도 화성시 만세구 양감면 사격장길 154","openHours":"정시","maleToilets":2,"femaleToilets":1,"disabled":false,"diaperTable":false,"emergencyBell":false,"cctv":false,"managerTel":"03151896783","source":"public","category":"public"},{"id":"202455300000100640","name":"초록산 산림욕장 1","lat":37.092161,"lng":126.95494,"roadAddr":"경기도 화성시 만세구 양감면 사격장길 154","openHours":"정시","maleToilets":4,"femaleToilets":2,"disabled":false,"diaperTable":false,"emergencyBell":false,"cctv":false,"managerTel":"03151896783","source":"public","category":"public"},{"id":"202455300000100230","name":"농협정건설빌딩","lat":37.131848,"lng":126.921613,"roadAddr":"경기도 화성시 만세구 향남읍 발안로 101 (행정리, 정 메디 프라자)","openHours":"정시","maleToilets":3,"femaleToilets":1,"disabled":true,"diaperTable":true,"emergencyBell":false,"cctv":false,"managerTel":"03151896783","source":"public","category":"public"},{"id":"202455300000100231","name":"태성프라자","lat":37.131723,"lng":126.922381,"roadAddr":"경기도 화성시 만세구 향남읍 발안로 107 (행정리, 태성프라자)","openHours":"정시","maleToilets":3,"femaleToilets":1,"disabled":true,"diaperTable":false,"emergencyBell":false,"cctv":false,"managerTel":"03151896783","source":"public","category":"public"},{"id":"202455300000100232","name":"중앙프라자","lat":37.131048,"lng":126.922921,"roadAddr":"경기도 화성시 만세구 향남읍 발안로 116 (행정리, 중앙프라자)","openHours":"정시","maleToilets":4,"femaleToilets":3,"disabled":false,"diaperTable":false,"emergencyBell":false,"cctv":false,"managerTel":"03151896783","source":"public","category":"public"},{"id":"202455300000100233","name":"향남신도시주유소","lat":37.130701,"lng":126.932024,"roadAddr":"경기도 화성시 만세구 향남읍 발안로 199 (도이리)","openHours":"정시","maleToilets":3,"femaleToilets":1,"disabled":false,"diaperTable":false,"emergencyBell":false,"cctv":false,"managerTel":"03151896783","source":"public","category":"public"},{"id":"202455300000100238","name":"향남읍사무소","lat":37.132424,"lng":126.920322,"roadAddr":"경기도 화성시 만세구 향남읍 발안로 89","openHours":"정시","maleToilets":4,"femaleToilets":2,"disabled":false,"diaperTable":false,"emergencyBell":false,"cctv":false,"managerTel":"03151896783","source":"public","category":"public"},{"id":"202455300000100244","name":"발안농협 행정지점","lat":37.130048,"lng":126.9186,"roadAddr":"경기도 화성시 만세구 향남읍 행정중앙2로 29 (행정리, 발안농협 행정지점)","openHours":"정시","maleToilets":16,"femaleToilets":10,"disabled":false,"diaperTable":false,"emergencyBell":false,"cctv":false,"managerTel":"03151896783","source":"public","category":"public"},{"id":"202455300000100245","name":"둥지나래어린이도서관 2층","lat":37.129177,"lng":126.924769,"roadAddr":"경기도 화성시 만세구 향남읍 행정중앙2로 88 (행정리, 화성향남어린이도서관)","openHours":"정시","maleToilets":3,"femaleToilets":3,"disabled":false,"diaperTable":false,"emergencyBell":false,"cctv":true,"managerTel":"03151896783","source":"public","category":"public"},{"id":"202455300000100246","name":"둥지나래어린이도서관 1층 어린이자료실 내","lat":37.129177,"lng":126.924769,"roadAddr":"경기도 화성시 만세구 향남읍 행정중앙2로 88 (행정리, 화성향남어린이도서관)","openHours":"정시","maleToilets":0,"femaleToilets":0,"disabled":false,"diaperTable":false,"emergencyBell":false,"cctv":true,"managerTel":"03151896783","source":"public","category":"public"},{"id":"202455300000100247","name":"둥지나래어린이도서관 1층","lat":37.129177,"lng":126.924769,"roadAddr":"경기도 화성시 만세구 향남읍 행정중앙2로 88 (행정리, 화성향남어린이도서관)","openHours":"정시","maleToilets":3,"femaleToilets":3,"disabled":false,"diaperTable":false,"emergencyBell":false,"cctv":false,"managerTel":"03151896783","source":"public","category":"public"},{"id":"202455300000100248","name":"화성향남LPG충전소","lat":37.11939,"lng":126.918813,"roadAddr":"경기도 화성시 만세구 향남읍 향남로 272 (방축리)","openHours":"정시","maleToilets":3,"femaleToilets":1,"disabled":true,"diaperTable":false,"emergencyBell":false,"cctv":true,"managerTel":"03151896783","source":"public","category":"public"},{"id":"202455300000100249","name":"화성소방서 본서-3","lat":37.1308,"lng":126.920703,"roadAddr":"경기도 화성시 만세구 향남읍 향남로 399 (행정리, 화성소방서)","openHours":"정시","maleToilets":7,"femaleToilets":3,"disabled":false,"diaperTable":false,"emergencyBell":false,"cctv":false,"managerTel":"03151896783","source":"public","category":"public"},{"id":"202455300000100271","name":"방울산등산로","lat":37.113443,"lng":126.932397,"roadAddr":"경기도 화성시 만세구 향남읍 화리현리 207","openHours":"정시","maleToilets":5,"femaleToilets":3,"disabled":false,"diaperTable":false,"emergencyBell":false,"cctv":false,"managerTel":"03151896783","source":"public","category":"public"},{"id":"202455300000100764","name":"빅토리주유소","lat":37.131031,"lng":126.933194,"roadAddr":"경기도 화성시 만세구 향남읍 발안로 206 (행정리)","openHours":"정시","maleToilets":3,"femaleToilets":1,"disabled":false,"diaperTable":false,"emergencyBell":false,"cctv":false,"managerTel":"03151896783","source":"public","category":"public"},{"id":"202455300000100765","name":"(주)원해셀프주유소","lat":37.133491,"lng":126.941337,"roadAddr":"경기도 화성시 만세구 향남읍 발안로 308 (관리)","openHours":"정시","maleToilets":2,"femaleToilets":2,"disabled":false,"diaperTable":false,"emergencyBell":false,"cctv":false,"managerTel":"03151896783","source":"public","category":"public"},{"id":"202455300000100766","name":"세종주유소","lat":37.13296,"lng":126.944912,"roadAddr":"경기도 화성시 만세구 향남읍 발안로 341 (동오리)","openHours":"정시","maleToilets":4,"femaleToilets":2,"disabled":false,"diaperTable":false,"emergencyBell":false,"cctv":false,"managerTel":"03151896783","source":"public","category":"public"},{"id":"202455300000100250","name":"화성소방서 본서-2","lat":37.1308,"lng":126.920703,"roadAddr":"경기도 화성시 만세구 향남읍 향남로 399 (행정리, 화성소방서)","openHours":"정시","maleToilets":7,"femaleToilets":2,"disabled":false,"diaperTable":false,"emergencyBell":false,"cctv":false,"managerTel":"03151896783","source":"public","category":"public"},{"id":"202455300000100251","name":"화성소방서 본서-1","lat":37.1308,"lng":126.920703,"roadAddr":"경기도 화성시 만세구 향남읍 향남로 399 (행정리, 화성소방서)","openHours":"정시","maleToilets":7,"femaleToilets":2,"disabled":false,"diaperTable":false,"emergencyBell":false,"cctv":false,"managerTel":"03151896783","source":"public","category":"public"},{"id":"202455300000100252","name":"홈플러스 화성향남점","lat":37.130733,"lng":126.921853,"roadAddr":"경기도 화성시 만세구 향남읍 향남로 402 (행정리, 홈플러스 화성향남점)","openHours":"정시","maleToilets":5,"femaleToilets":5,"disabled":false,"diaperTable":false,"emergencyBell":false,"cctv":false,"managerTel":"03151896783","source":"public","category":"public"},{"id":"202455300000100767","name":"대상주유소","lat":37.130644,"lng":126.94961,"roadAddr":"경기도 화성시 만세구 향남읍 발안로 392 (동오리)","openHours":"정시","maleToilets":2,"femaleToilets":1,"disabled":false,"diaperTable":false,"emergencyBell":false,"cctv":false,"managerTel":"03151896783","source":"public","category":"public"},{"id":"202455300000100768","name":"캐피탈충전소","lat":37.131022,"lng":126.956296,"roadAddr":"경기도 화성시 만세구 향남읍 발안로 450 (동오리)","openHours":"정시","maleToilets":4,"femaleToilets":2,"disabled":true,"diaperTable":false,"emergencyBell":false,"cctv":false,"managerTel":"03151896783","source":"public","category":"public"},{"id":"202455300000100769","name":"캐피탈주유소","lat":37.131022,"lng":126.956296,"roadAddr":"경기도 화성시 만세구 향남읍 발안로 450 (동오리)","openHours":"정시","maleToilets":4,"femaleToilets":2,"disabled":true,"diaperTable":false,"emergencyBell":false,"cctv":false,"managerTel":"03151896783","source":"public","category":"public"},{"id":"202455300000100770","name":"동오주유소","lat":37.13151,"lng":126.956531,"roadAddr":"경기도 화성시 만세구 향남읍 발안로 451 (동오리)","openHours":"정시","maleToilets":1,"femaleToilets":1,"disabled":false,"diaperTable":false,"emergencyBell":false,"cctv":false,"managerTel":"03151896783","source":"public","category":"public"},{"id":"202455300000100782","name":"유림주유소","lat":37.128792,"lng":126.951411,"roadAddr":"경기도 화성시 만세구 향남읍 서봉로 586 (관리)","openHours":"정시","maleToilets":3,"femaleToilets":1,"disabled":false,"diaperTable":false,"emergencyBell":false,"cctv":false,"managerTel":"03151896783","source":"public","category":"public"},{"id":"202455300000100788","name":"기영주유소","lat":37.110944,"lng":126.929718,"roadAddr":"경기도 화성시 만세구 향남읍 은행나무로 627 (하길리)","openHours":"정시","maleToilets":1,"femaleToilets":1,"disabled":false,"diaperTable":false,"emergencyBell":false,"cctv":false,"managerTel":"03151896783","source":"public","category":"public"},{"id":"202455300000100791","name":"화성상공회의소","lat":37.12891,"lng":126.931149,"roadAddr":"경기도 화성시 만세구 향남읍 토성로 14 (행정리)","openHours":"정시","maleToilets":22,"femaleToilets":10,"disabled":true,"diaperTable":false,"emergencyBell":false,"cctv":false,"managerTel":"03151896783","source":"public","category":"public"},{"id":"202455300000100174","name":"거홍주유소(주)","lat":37.092446,"lng":126.940888,"roadAddr":"경기도 화성시 만세구 양감면 은행나무로 389 (대양리)","openHours":"정시","maleToilets":2,"femaleToilets":2,"disabled":false,"diaperTable":false,"emergencyBell":false,"cctv":false,"managerTel":"03151896783","source":"public","category":"public"},{"id":"202455300000100798","name":"도원체육공원","lat":37.132638,"lng":126.92811,"roadAddr":"경기도 화성시 만세구 향남읍 행정동로 96","openHours":"정시","maleToilets":6,"femaleToilets":8,"disabled":true,"diaperTable":true,"emergencyBell":false,"cctv":false,"managerTel":"03151896783","source":"public","category":"public"},{"id":"202455300000100799","name":"벌말 어린이공원","lat":37.129761,"lng":126.914362,"roadAddr":"경기도 화성시 만세구 향남읍 행정리 423","openHours":"정시","maleToilets":2,"femaleToilets":2,"disabled":true,"diaperTable":true,"emergencyBell":false,"cctv":false,"managerTel":"03151896783","source":"public","category":"public"},{"id":"202455300000100800","name":"향남4호 근린공원","lat":37.125038,"lng":126.928655,"roadAddr":"경기도 화성시 만세구 향남읍 행정리 525","openHours":"정시","maleToilets":2,"femaleToilets":1,"disabled":false,"diaperTable":true,"emergencyBell":false,"cctv":false,"managerTel":"03151896783","source":"public","category":"public"},{"id":"202455300000100802","name":"향남2호 근린공원","lat":37.127919,"lng":126.917414,"roadAddr":"경기도 화성시 만세구 향남읍 행정중앙1로 19","openHours":"정시","maleToilets":6,"femaleToilets":8,"disabled":true,"diaperTable":true,"emergencyBell":false,"cctv":true,"managerTel":"03151896783","source":"public","category":"public"},{"id":"202455300000100803","name":"우성메디피아","lat":37.130051,"lng":126.921485,"roadAddr":"경기도 화성시 만세구 향남읍 향남로 392 (행정리, 우성메디피아)","openHours":"정시","maleToilets":4,"femaleToilets":4,"disabled":true,"diaperTable":false,"emergencyBell":false,"cctv":true,"managerTel":"03151896783","source":"public","category":"public"}]