[{"id":"202437400000101643","name":"맷돌","lat":37.261701,"lng":126.939125,"roadAddr":"경기도 수원시 권선구 칠보로88번길 222(호매실동)","jibunAddr":"경기도 수원시 권선구 호매실동 905-13","openHours":"07:00~21:00","maleToilets":5,"femaleToilets":5,"disabled":true,"diaperTable":true,"emergencyBell":true,"cctv":true,"source":"public","category":"public"},{"id":"202437400000101634","name":"물향기","lat":37.264878,"lng":126.953605,"roadAddr":"경기도 수원시 권선구 칠보로 142(호매실동)","jibunAddr":"경기도 수원시 권선구 호매실동 1382","openHours":"상시","maleToilets":7,"femaleToilets":9,"disabled":false,"diaperTable":false,"emergencyBell":true,"cctv":false,"source":"public","category":"public"},{"id":"202437400000101304","name":"호매실장애인종합복지관 1층","lat":37.263169,"lng":126.956687,"roadAddr":"경기도 수원시 권선구 호매실로 211(호매실동)","jibunAddr":"경기도 수원시 권선구 호매실동 1385","openHours":"06:00~22:00","maleToilets":3,"femaleToilets":3,"disabled":true,"diaperTable":true,"emergencyBell":true,"cctv":false,"source":"public","category":"public"},{"id":"202455300000100510","name":"(주)씨케이아이 한강샘내주유소","lat":37.2439,"lng":126.94654,"roadAddr":"경기도 화성시 효행구 매송면 매송고색로 375 (천천리)","openHours":"24시간","maleToilets":2,"femaleToilets":2,"disabled":false,"diaperTable":false,"emergencyBell":false,"cctv":false,"managerTel":"03151896783","source":"public","category":"public"},{"id":"202455300000100516","name":"칠보산 등산로","lat":37.253262,"lng":126.928764,"roadAddr":"경기도 화성시 효행구 매송면 원평리 89-6 산 11-9 건물옆","openHours":"24시간","maleToilets":1,"femaleToilets":1,"disabled":false,"diaperTable":false,"emergencyBell":false,"cctv":false,"managerTel":"03151896783","source":"public","category":"public"},{"id":"202455300000100534","name":"봉담톨게이트 주유소","lat":37.224718,"lng":126.953853,"roadAddr":"경기도 화성시 효행구 봉담읍 삼천병마로 1346 (동화리)","openHours":"24시간","maleToilets":2,"femaleToilets":1,"disabled":false,"diaperTable":false,"emergencyBell":false,"cctv":true,"managerTel":"03151896783","source":"public","category":"public"},{"id":"202455300000100536","name":"삼봉근린공원","lat":37.225877,"lng":126.944073,"roadAddr":"경기도 화성시 효행구 봉담읍 상리 713","openHours":"24시간","maleToilets":2,"femaleToilets":2,"disabled":true,"diaperTable":true,"emergencyBell":false,"cctv":true,"managerTel":"03151896783","source":"public","category":"public"},{"id":"202455300000100537","name":"생태체육공원","lat":37.224825,"lng":126.942348,"roadAddr":"경기도 화성시 효행구 봉담읍 상리 716","openHours":"24시간","maleToilets":5,"femaleToilets":5,"disabled":true,"diaperTable":true,"emergencyBell":false,"cctv":true,"managerTel":"03151896783","source":"public","category":"public"},{"id":"202455300000100541","name":"들녘오름공원","lat":37.2278,"lng":126.952214,"roadAddr":"경기도 화성시 효행구 봉담읍 수영리 698","openHours":"24시간","maleToilets":6,"femaleToilets":6,"disabled":true,"diaperTable":false,"emergencyBell":false,"cctv":true,"managerTel":"03151896783","source":"public","category":"public"},{"id":"202455300000100100","name":"(주)화우상사 새원평주유소","lat":37.247768,"lng":126.928399,"roadAddr":"경기도 화성시 효행구 매송면 화성로 2414 (원평리)","openHours":"11시간","maleToilets":3,"femaleToilets":1,"disabled":false,"diaperTable":false,"emergencyBell":false,"cctv":false,"managerTel":"03151896783","source":"public","category":"public"}]