[{"id":"202540500000102123","name":"한숲하늘근린공원 공중화장실","lat":37.156283,"lng":127.167867,"roadAddr":"경기도 용인시 처인구 남사읍 한숲로57번길 30-1","jibunAddr":"경기도 용인시 처인구 남사읍 아곡리 685","openHours":"상시","maleToilets":2,"femaleToilets":2,"disabled":true,"diaperTable":true,"emergencyBell":true,"cctv":true,"managerTel":"0313244445","source":"public","category":"public"},{"id":"202640500000100037","name":"아곡레스피아 공중화장실","lat":37.13622,"lng":127.172681,"roadAddr":"경기도 용인시 처인구 남사읍 완장천로 142-1","jibunAddr":"경기도 용인시 처인구 남사읍 창리 588","openHours":"상시","maleToilets":3,"femaleToilets":2,"disabled":true,"diaperTable":true,"emergencyBell":true,"cctv":false,"managerTel":"0313397752","source":"public","category":"public"},{"id":"202540500000102178","name":"남사도서관 개방화장실","lat":37.153805,"lng":127.170623,"roadAddr":"경기도 용인시 처인구 한숲로 61","jibunAddr":"경기도 용인시 처인구 남사면 아곡리 256","openHours":"정시","maleToilets":5,"femaleToilets":6,"disabled":true,"diaperTable":true,"emergencyBell":true,"cctv":true,"managerTel":"03161931374","source":"public","category":"public"},{"id":"202540500000102478","name":"남곡교회 개방화장실","lat":37.152368,"lng":127.168102,"roadAddr":"경기도 용인시 처인구 남사읍 아곡로42번길 25, 남곡교회","jibunAddr":"경기도 용인시 처인구 남사읍 아곡리 248-4 남곡교회","openHours":"상시","maleToilets":6,"femaleToilets":4,"disabled":true,"diaperTable":false,"emergencyBell":false,"cctv":true,"source":"public","category":"public"},{"id":"202540500000101857","name":"남사스포츠센터 개방화장실","lat":37.156938,"lng":127.173792,"roadAddr":"경기도 용인시 처인구 남사읍 한숲로 100","jibunAddr":"경기도 용인시 처인구 남사읍 완장리 952-4","openHours":"정시","maleToilets":23,"femaleToilets":14,"disabled":true,"diaperTable":true,"emergencyBell":false,"cctv":true,"managerTel":"0313303900","source":"public","category":"public"}]