[{"id":"202457100000100143","name":"개소문주유소","lat":36.642517,"lng":127.4678,"roadAddr":"충청북도 청주시 흥덕구 직지대로 674(봉명동)","openHours":"정시","maleToilets":1,"femaleToilets":0,"disabled":true,"diaperTable":false,"emergencyBell":false,"cctv":false,"managerTel":"0432017205","source":"public","category":"public"},{"id":"202457100000100094","name":"SK신영주유소","lat":36.627068,"lng":127.471343,"roadAddr":"충청북도 청주시 서원구 모충로 71","openHours":"정시","maleToilets":2,"femaleToilets":0,"disabled":true,"diaperTable":false,"emergencyBell":false,"cctv":false,"managerTel":"0432635182","source":"public","category":"public"},{"id":"202457100000100132","name":"하나주유소","lat":36.642947,"lng":127.457805,"roadAddr":"충청북도 청주시 흥덕구 직지대로 584(봉명동)","openHours":"상시","maleToilets":0,"femaleToilets":0,"disabled":true,"diaperTable":false,"emergencyBell":false,"cctv":false,"managerTel":"0432017205","source":"public","category":"public"},{"id":"202457100000100138","name":"카(Car)놀라유주유소","lat":36.638493,"lng":127.459967,"roadAddr":"충청북도 청주시 흥덕구 1순환로 615(봉명동)","openHours":"상시","maleToilets":1,"femaleToilets":0,"disabled":true,"diaperTable":false,"emergencyBell":false,"cctv":false,"managerTel":"0432017205","source":"public","category":"public"},{"id":"202457100000100141","name":"무궁화주유소","lat":36.633601,"lng":127.445705,"roadAddr":"충청북도 청주시 흥덕구 가로수로 1372(복대동)","openHours":"정시","maleToilets":1,"femaleToilets":0,"disabled":true,"diaperTable":false,"emergencyBell":false,"cctv":false,"managerTel":"0432017205","source":"public","category":"public"},{"id":"202457100000100093","name":"목련주유소","lat":36.631596,"lng":127.480483,"roadAddr":"충청북도 청주시 서원구 무심서로 451 (사직동)","openHours":"상시","maleToilets":2,"femaleToilets":0,"disabled":true,"diaperTable":false,"emergencyBell":false,"cctv":false,"managerTel":"0432743246","source":"public","category":"public"},{"id":"202457100000100111","name":"룰루랄라셀프 (주)JY에너지 직영","lat":36.619774,"lng":127.468472,"roadAddr":"충청북도 청주시 서원구  1순환로 850","openHours":"정시","maleToilets":1,"femaleToilets":0,"disabled":true,"diaperTable":false,"emergencyBell":false,"cctv":false,"source":"public","category":"public"},{"id":"202457100000100032","name":"삼선가스(주)","lat":36.637118,"lng":127.458855,"roadAddr":"충청북도 청주시 서원구 1순환로 632","openHours":"상시","maleToilets":6,"femaleToilets":0,"disabled":true,"diaperTable":false,"emergencyBell":false,"cctv":false,"managerTel":"0432693177","source":"public","category":"public"},{"id":"202457100000100020","name":"SK행복충전 개인택시복지충전소(3층)","lat":36.644577,"lng":127.478583,"roadAddr":"충청북도 청주시 서원구 사운로 175","openHours":"상시","maleToilets":1,"femaleToilets":0,"disabled":true,"diaperTable":false,"emergencyBell":false,"cctv":false,"managerTel":"0432665191","source":"public","category":"public"},{"id":"202457100000100091","name":"형제주유소","lat":36.643268,"lng":127.475043,"roadAddr":"충청북도 청주시 서원구 직지대로 738 (사직동)","openHours":"정시","maleToilets":1,"femaleToilets":0,"disabled":true,"diaperTable":false,"emergencyBell":false,"cctv":false,"managerTel":"0432725189","source":"public","category":"public"},{"id":"202457100000100114","name":"중도석유㈜금성주유소","lat":36.642628,"lng":127.465216,"roadAddr":"충청북도 청주시 흥덕구 직지대로 650(봉명동)","openHours":"정시","maleToilets":2,"femaleToilets":0,"disabled":true,"diaperTable":false,"emergencyBell":false,"cctv":false,"managerTel":"0432017205","source":"public","category":"public"},{"id":"202457100000100012","name":"청주시립미술관(본관)","lat":36.634718,"lng":127.478298,"roadAddr":"충청북도 청주시 서원구 충렬로18번길 50","openHours":"정시","maleToilets":5,"femaleToilets":0,"disabled":true,"diaperTable":true,"emergencyBell":true,"cctv":false,"managerTel":"0432012645","source":"public","category":"public"},{"id":"202457100000100088","name":"미래주유소","lat":36.625835,"lng":127.45009,"roadAddr":"충청북도 청주시 서원구 성봉로 234-2 (개신동)","openHours":"상시","maleToilets":1,"femaleToilets":0,"disabled":true,"diaperTable":false,"emergencyBell":false,"cctv":false,"managerTel":"0432760073","source":"public","category":"public"},{"id":"202457100000100140","name":"아리랑주유소","lat":36.64154,"lng":127.460901,"roadAddr":"충청북도 청주시 흥덕구 1순환로 582(봉명동)","openHours":"정시","maleToilets":1,"femaleToilets":0,"disabled":true,"diaperTable":false,"emergencyBell":false,"cctv":false,"managerTel":"0432017205","source":"public","category":"public"},{"id":"202457100000100119","name":"에이치디현대오일뱅크(주)직영서원경주유소","lat":36.643685,"lng":127.457242,"roadAddr":"충청북도 청주시 흥덕구 직지대로 579(봉명동)","openHours":"정시","maleToilets":1,"femaleToilets":0,"disabled":true,"diaperTable":false,"emergencyBell":false,"cctv":false,"managerTel":"0432017205","source":"public","category":"public"},{"id":"202457100000101032","name":"GS더프레시 청주봉명점","lat":36.641793,"lng":127.461092,"roadAddr":"충청북도 청주시 흥덕구 1순환로 576 (봉명동)","openHours":"정시","maleToilets":1,"femaleToilets":0,"disabled":true,"diaperTable":false,"emergencyBell":false,"cctv":false,"managerTel":"0432654611","source":"public","category":"public"},{"id":"202457100000101031","name":"(주)농협유통 하나로마트 산남점(2층)","lat":36.612054,"lng":127.472417,"roadAddr":"충청북도 청주시 서원구 산남로 12 (산남동)","openHours":"정시","maleToilets":3,"femaleToilets":0,"disabled":true,"diaperTable":true,"emergencyBell":false,"cctv":false,"managerTel":"0432924500","source":"public","category":"public"},{"id":"202457100000100103","name":"가경주유소","lat":36.618299,"lng":127.448317,"roadAddr":"충청북도 청주시 서원구 서부로 1355","openHours":"정시","maleToilets":1,"femaleToilets":0,"disabled":true,"diaperTable":false,"emergencyBell":false,"cctv":false,"managerTel":"0432367517","source":"public","category":"public"},{"id":"202457100000100117","name":"KH에너지㈜ 동명주유소","lat":36.646776,"lng":127.464545,"roadAddr":"충청북도 청주시 흥덕구 1순환로 514(봉명동)","openHours":"정시","maleToilets":1,"femaleToilets":0,"disabled":true,"diaperTable":false,"emergencyBell":false,"cctv":false,"managerTel":"0432017205","source":"public","category":"public"},{"id":"202457100000100018","name":"SK행복충전 개인택시복지충전소(1층)","lat":36.644577,"lng":127.478583,"roadAddr":"충청북도 청주시 서원구 사운로 175","openHours":"상시","maleToilets":1,"femaleToilets":0,"disabled":true,"diaperTable":false,"emergencyBell":false,"cctv":false,"managerTel":"0432665191","source":"public","category":"public"},{"id":"202457100000100112","name":"중도석유㈜ \n관문주유소","lat":36.633862,"lng":127.443764,"roadAddr":"충청북도 청주시 흥덕구 가로수로 1353(복대동)","openHours":"정시","maleToilets":1,"femaleToilets":0,"disabled":true,"diaperTable":false,"emergencyBell":false,"cctv":false,"managerTel":"0432017205","source":"public","category":"public"},{"id":"202457100000100128","name":"서청주주유소","lat":36.642423,"lng":127.461317,"roadAddr":"충청북도 청주시 흥덕구 1순환로 572(봉명동)","openHours":"정시","maleToilets":1,"femaleToilets":0,"disabled":true,"diaperTable":false,"emergencyBell":false,"cctv":false,"managerTel":"0432017205","source":"public","category":"public"},{"id":"202457100000100019","name":"SK행복충전 개인택시복지충전소(2층)","lat":36.644577,"lng":127.478583,"roadAddr":"충청북도 청주시 서원구 사운로 175","openHours":"상시","maleToilets":1,"femaleToilets":0,"disabled":true,"diaperTable":false,"emergencyBell":false,"cctv":false,"managerTel":"0432665191","source":"public","category":"public"},{"id":"202457100000100102","name":"충북석유(주)충북주유소","lat":36.635083,"lng":127.457127,"roadAddr":"충청북도 청주시 서원구 사직대로 89 (사창동)","openHours":"정시","maleToilets":1,"femaleToilets":0,"disabled":true,"diaperTable":false,"emergencyBell":false,"cctv":false,"managerTel":"0432724662","source":"public","category":"public"},{"id":"202457100000100106","name":"신정현주유소","lat":36.639562,"lng":127.479477,"roadAddr":"충청북도 청주시 서원구 사운로 118 (사직동)","openHours":"정시","maleToilets":1,"femaleToilets":0,"disabled":true,"diaperTable":false,"emergencyBell":false,"cctv":false,"managerTel":"0432665180","source":"public","category":"public"},{"id":"202457100000100118","name":"에이치디현대오일뱅크(주)직영 직지셀프주유소","lat":36.643097,"lng":127.468519,"roadAddr":"충청북도 청주시 흥덕구 직지대로 677(봉명동)","openHours":"정시","maleToilets":1,"femaleToilets":0,"disabled":true,"diaperTable":false,"emergencyBell":false,"cctv":false,"managerTel":"0432017205","source":"public","category":"public"},{"id":"202457100000100144","name":"스마일주유소","lat":36.639037,"lng":127.453896,"roadAddr":"충청북도 청주시 흥덕구 월명로48번길 3(봉명동)","openHours":"정시","maleToilets":0,"femaleToilets":0,"disabled":true,"diaperTable":false,"emergencyBell":false,"cctv":false,"managerTel":"0432017205","source":"public","category":"public"},{"id":"202457100000100131","name":"KH에너지㈜ J주유소","lat":36.645166,"lng":127.464378,"roadAddr":"충청북도 청주시 흥덕구 1순환로 531(봉명동)","openHours":"정시","maleToilets":1,"femaleToilets":0,"disabled":true,"diaperTable":false,"emergencyBell":false,"cctv":false,"managerTel":"0432017205","source":"public","category":"public"}]