[{"id":"202457100000100125","name":"㈜선우엠앤에스","lat":36.648614,"lng":127.39392,"roadAddr":"충청북도 청주시 흥덕구 청주역로 387(정봉동)","openHours":"정시","maleToilets":1,"femaleToilets":0,"disabled":true,"diaperTable":false,"emergencyBell":false,"cctv":false,"managerTel":"0432017205","source":"public","category":"public"},{"id":"202457100000100016","name":"석소LPG충전소","lat":36.620589,"lng":127.387688,"roadAddr":"충청북도 청주시 흥덕구 가로수로 799 (석소동)","openHours":"정시","maleToilets":1,"femaleToilets":0,"disabled":true,"diaperTable":false,"emergencyBell":false,"cctv":false,"managerTel":"0432378867","source":"public","category":"public"},{"id":"202457100000100122","name":"극동유화(주)역전주유소","lat":36.64291,"lng":127.390528,"roadAddr":"충청북도 청주시 흥덕구 청주역로 314(정봉동)","openHours":"정시","maleToilets":2,"femaleToilets":0,"disabled":true,"diaperTable":false,"emergencyBell":false,"cctv":false,"managerTel":"0432017205","source":"public","category":"public"},{"id":"202457100000100145","name":"에이치디현대오일뱅크(주)직영 청주역주유소","lat":36.64605,"lng":127.392723,"roadAddr":"충청북도 청주시 흥덕구 청주역로 353(정봉동)","openHours":"정시","maleToilets":1,"femaleToilets":0,"disabled":true,"diaperTable":false,"emergencyBell":false,"cctv":false,"managerTel":"0432017205","source":"public","category":"public"},{"id":"202457100000100158","name":"청주IC주유소","lat":36.6233,"lng":127.373768,"roadAddr":"충청북도 청주시 흥덕구 강내면 가로수로 668","openHours":"상시","maleToilets":1,"femaleToilets":0,"disabled":true,"diaperTable":false,"emergencyBell":false,"cctv":false,"managerTel":"0432017205","source":"public","category":"public"},{"id":"202457100000100171","name":"강내농협","lat":36.624236,"lng":127.363256,"roadAddr":"충청북도 청주시 흥덕구 강내면 가로수로 570","openHours":"정시","maleToilets":1,"femaleToilets":0,"disabled":true,"diaperTable":false,"emergencyBell":false,"cctv":false,"managerTel":"0432017205","source":"public","category":"public"},{"id":"202457100000100160","name":"미호주유소","lat":36.623322,"lng":127.357533,"roadAddr":"충청북도 청주시 흥덕구 강내면 가로수로 516","openHours":"정시","maleToilets":1,"femaleToilets":0,"disabled":true,"diaperTable":false,"emergencyBell":false,"cctv":false,"managerTel":"0432017205","source":"public","category":"public"},{"id":"202457100000100136","name":"그린이에스 주식회사","lat":36.640562,"lng":127.389075,"roadAddr":"충청북도 청주시 흥덕구 청주역로 284(정봉동)","openHours":"정시","maleToilets":1,"femaleToilets":0,"disabled":true,"diaperTable":false,"emergencyBell":false,"cctv":false,"managerTel":"0432017205","source":"public","category":"public"},{"id":"202457100000100159","name":"창현주유소","lat":36.624983,"lng":127.363421,"roadAddr":"충청북도 청주시 흥덕구 강내면 가로수로 567-9","openHours":"정시","maleToilets":1,"femaleToilets":0,"disabled":true,"diaperTable":false,"emergencyBell":false,"cctv":false,"managerTel":"0432017205","source":"public","category":"public"},{"id":"202457100000100124","name":"가로수주유소","lat":36.620518,"lng":127.387179,"roadAddr":"충청북도 청주시 흥덕구 가로수로 797(석소동)","openHours":"상시","maleToilets":1,"femaleToilets":0,"disabled":true,"diaperTable":false,"emergencyBell":false,"cctv":false,"managerTel":"0432017205","source":"public","category":"public"}]