[{"id":"202457100000101102","name":"대머리근린공원","lat":36.605571,"lng":127.502279,"roadAddr":"충청북도 청주시 상당구 단재로 273, 무농정 (용암동)","jibunAddr":"충청북도 청주시 상당구 용암동 1705","openHours":"상시","maleToilets":4,"femaleToilets":4,"disabled":true,"diaperTable":true,"emergencyBell":true,"cctv":false,"managerTel":"0432014412","source":"public","category":"public"},{"id":"202457100000100028","name":"SK행복충전 남청주가스충전소","lat":36.599491,"lng":127.504232,"roadAddr":"충청북도 청주시 상당구 단재로 348 (평촌동)","openHours":"정시","maleToilets":2,"femaleToilets":0,"disabled":true,"diaperTable":false,"emergencyBell":false,"cctv":false,"managerTel":"0432973026","source":"public","category":"public"},{"id":"202457100000100060","name":"현대오일뱅크㈜직영 보라매주유소","lat":36.600702,"lng":127.503728,"roadAddr":"충청북도 청주시 상당구 단재로 332(방서동)","openHours":"정시","maleToilets":2,"femaleToilets":0,"disabled":true,"diaperTable":false,"emergencyBell":false,"cctv":false,"managerTel":"0432978168","source":"public","category":"public"},{"id":"202457100000100068","name":"㈜신화에너지 번개셀프주유소","lat":36.605606,"lng":127.499704,"roadAddr":"충청북도 청주시 상당구 1순환로 1202-2(방서동)","openHours":"정시","maleToilets":1,"femaleToilets":0,"disabled":true,"diaperTable":false,"emergencyBell":false,"cctv":false,"managerTel":"0432870112","source":"public","category":"public"},{"id":"202457100000100050","name":"새빛주유소","lat":36.589306,"lng":127.506879,"roadAddr":"충청북도 청주시 상당구 남일면 단재로 466-5","openHours":"정시","maleToilets":2,"femaleToilets":0,"disabled":true,"diaperTable":false,"emergencyBell":false,"cctv":true,"managerTel":"0432933078","source":"public","category":"public"},{"id":"202457100000100080","name":"번개셀프2주유소","lat":36.595777,"lng":127.506252,"roadAddr":"충청북도 청주시 상당구 단재로 391","openHours":"정시","maleToilets":1,"femaleToilets":0,"disabled":true,"diaperTable":false,"emergencyBell":false,"cctv":false,"managerTel":"0432976874","source":"public","category":"public"},{"id":"202457100000100064","name":"연일주유소","lat":36.585267,"lng":127.509317,"roadAddr":"충청북도 청주시 상당구 남일면 단재로 515","openHours":"정시","maleToilets":1,"femaleToilets":0,"disabled":true,"diaperTable":false,"emergencyBell":false,"cctv":false,"managerTel":"0432985337","source":"public","category":"public"},{"id":"202457100000100063","name":"남일주유소","lat":36.564758,"lng":127.517845,"roadAddr":"충청북도 청주시 상당구 남일면 단재로 828","openHours":"정시","maleToilets":1,"femaleToilets":0,"disabled":true,"diaperTable":false,"emergencyBell":false,"cctv":false,"managerTel":"0432987700","source":"public","category":"public"}]