[{"id":"202457100000100010","name":"내수게이트볼장","lat":36.727793,"lng":127.53892,"roadAddr":"충청북도 청주시 청원구 내수읍 내수학평길51-2","openHours":"상시","maleToilets":1,"femaleToilets":0,"disabled":true,"diaperTable":false,"emergencyBell":false,"cctv":false,"managerTel":"0432018505","source":"public","category":"public"},{"id":"202457100000100191","name":"석화주유소","lat":36.717124,"lng":127.539411,"roadAddr":"충청북도 청주시 청원구 내수읍 충청대로 849-5","openHours":"6:00~22:00","maleToilets":1,"femaleToilets":0,"disabled":true,"diaperTable":false,"emergencyBell":false,"cctv":false,"managerTel":"0432130541","source":"public","category":"public"},{"id":"202457350000100002","name":"내수읍 모해센터","lat":36.723976,"lng":127.536132,"roadAddr":"충청북도 청주시 청원구 내수읍 마산3길 52, 내수복지회관","jibunAddr":"충청북도 청주시 청원구 내수읍 마산리 159-9 내수복지회관","openHours":"모해센터 청사 이용 시 개방","maleToilets":2,"femaleToilets":2,"disabled":true,"diaperTable":false,"emergencyBell":false,"cctv":false,"source":"public","category":"public"},{"id":"202457350000100001","name":"내수읍 주민자치센터","lat":36.723915,"lng":127.534927,"roadAddr":"충청북도 청주시 청원구 내수읍 마산3길 49, 내수읍사무소","jibunAddr":"충청북도 청주시 청원구 내수읍 마산리 149-2 내수읍사무소","openHours":"월~금 09:00 ~ 18:00","maleToilets":12,"femaleToilets":9,"disabled":false,"diaperTable":false,"emergencyBell":true,"cctv":false,"source":"public","category":"public"},{"id":"202457100000100186","name":"내수농업협동조합","lat":36.72816,"lng":127.537822,"roadAddr":"충청북도 청주시 청원구 내수읍 내수로 751","openHours":"8:30~17:30","maleToilets":1,"femaleToilets":0,"disabled":true,"diaperTable":false,"emergencyBell":false,"cctv":false,"managerTel":"0432147043","source":"public","category":"public"},{"id":"202457100000100192","name":"초정주유소","lat":36.716734,"lng":127.572999,"roadAddr":"충청북도 청주시 청원구 내수읍 청암로 457","openHours":"7:00~18:00","maleToilets":2,"femaleToilets":0,"disabled":true,"diaperTable":false,"emergencyBell":false,"cctv":false,"managerTel":"0432136683","source":"public","category":"public"},{"id":"202457100000100011","name":"내수그라운드골프장","lat":36.703387,"lng":127.541209,"roadAddr":"충청북도 청주시 청원구 내수읍 도원세교로 126-23","openHours":"상시","maleToilets":1,"femaleToilets":0,"disabled":false,"diaperTable":false,"emergencyBell":false,"cctv":false,"managerTel":"0432018505","source":"public","category":"public"},{"id":"202457350000100004","name":"내수읍그라운드골프장 화장실","lat":36.703387,"lng":127.541209,"roadAddr":"충청북도 청주시 청원구 내수읍 도원세교로 126-23","jibunAddr":"충청북도 청주시 청원구 내수읍 덕암리 548","openHours":"상시","maleToilets":1,"femaleToilets":0,"disabled":false,"diaperTable":false,"emergencyBell":false,"cctv":false,"source":"public","category":"public"},{"id":"202457100000100198","name":"내수주유소","lat":36.724078,"lng":127.542397,"roadAddr":"충청북도 청주시 청원구 내수읍 충청대로 934","openHours":"6:00~21:00","maleToilets":2,"femaleToilets":0,"disabled":true,"diaperTable":false,"emergencyBell":false,"cctv":false,"managerTel":"0432138287","source":"public","category":"public"},{"id":"202457100000100184","name":"(합)도원주유소 LPG충전소 수소충전소","lat":36.712072,"lng":127.534045,"roadAddr":"충청북도 청주시 청원구 내수읍 충청대로 771","openHours":"6:00~22:30","maleToilets":2,"femaleToilets":0,"disabled":true,"diaperTable":false,"emergencyBell":false,"cctv":false,"managerTel":"0432147788","source":"public","category":"public"},{"id":"202457350000100003","name":"내수읍전천후게이트볼장 화장실","lat":36.727793,"lng":127.53892,"roadAddr":"충청북도 청주시 청원구 내수읍 내수학평길 51-2, 내수읍전천후게이트볼장","jibunAddr":"충청북도 청주시 청원구 내수읍 학평리 140-17","openHours":"상시","maleToilets":3,"femaleToilets":2,"disabled":false,"diaperTable":false,"emergencyBell":false,"cctv":false,"source":"public","category":"public"}]