[{"id":"202457100000100107","name":"(주)대연 우리주유소","lat":36.571602,"lng":127.452581,"roadAddr":"충청북도 청주시 서원구 남이면 청남로 1465","openHours":"상시","maleToilets":1,"femaleToilets":0,"disabled":true,"diaperTable":false,"emergencyBell":false,"cctv":false,"managerTel":"0432621486","source":"public","category":"public"},{"id":"202457100000100021","name":"SK청남가스충전소","lat":36.604591,"lng":127.478862,"roadAddr":"충청북도 청주시 서원구 청남로 1915","openHours":"상시","maleToilets":1,"femaleToilets":0,"disabled":true,"diaperTable":false,"emergencyBell":false,"cctv":false,"managerTel":"0432915011","source":"public","category":"public"},{"id":"202457100000100095","name":"하이웨이주유소","lat":36.594464,"lng":127.470778,"roadAddr":"충청북도 청주시 서원구 남이면 청남로 1775","openHours":"정시","maleToilets":1,"femaleToilets":0,"disabled":true,"diaperTable":false,"emergencyBell":false,"cctv":false,"managerTel":"0432950001","source":"public","category":"public"},{"id":"202457100000100105","name":"(주)청주관문주유소","lat":36.60263,"lng":127.478755,"roadAddr":"충청북도 청주시 서원구 청남로 1894 (미평동)","openHours":"상시","maleToilets":1,"femaleToilets":0,"disabled":true,"diaperTable":false,"emergencyBell":false,"cctv":false,"managerTel":"0432921710","source":"public","category":"public"},{"id":"202457100000101059","name":"(주)이마트청주점(지하2층)","lat":36.601177,"lng":127.474617,"roadAddr":"충청북도 청주시 서원구 청남로 1853 (미평동)","openHours":"정시","maleToilets":4,"femaleToilets":1,"disabled":true,"diaperTable":true,"emergencyBell":true,"cctv":false,"managerTel":"0432101234","source":"public","category":"public"},{"id":"202457100000101062","name":"(주)이마트청주점(3층)","lat":36.601177,"lng":127.474617,"roadAddr":"충청북도 청주시 서원구 청남로 1853 (미평동)","openHours":"정시","maleToilets":2,"femaleToilets":0,"disabled":true,"diaperTable":false,"emergencyBell":true,"cctv":false,"managerTel":"0432101234","source":"public","category":"public"},{"id":"202457100000101058","name":"(주)이마트청주점(지하3층)","lat":36.601177,"lng":127.474617,"roadAddr":"충청북도 청주시 서원구 청남로 1853 (미평동)","openHours":"정시","maleToilets":1,"femaleToilets":0,"disabled":true,"diaperTable":false,"emergencyBell":true,"cctv":false,"managerTel":"0432101234","source":"public","category":"public"},{"id":"202457100000101060","name":"(주)이마트청주점(지하1층)","lat":36.601177,"lng":127.474617,"roadAddr":"충청북도 청주시 서원구 청남로 1853 (미평동)","openHours":"정시","maleToilets":3,"femaleToilets":0,"disabled":true,"diaperTable":false,"emergencyBell":true,"cctv":false,"managerTel":"0432101234","source":"public","category":"public"},{"id":"202457100000101061","name":"(주)이마트청주점(2층)","lat":36.601177,"lng":127.474617,"roadAddr":"충청북도 청주시 서원구 청남로 1853 (미평동)","openHours":"정시","maleToilets":4,"femaleToilets":0,"disabled":true,"diaperTable":false,"emergencyBell":true,"cctv":false,"managerTel":"0432101234","source":"public","category":"public"},{"id":"202457100000100100","name":"청주셀프주유소","lat":36.604873,"lng":127.479122,"roadAddr":"충청북도 청주시 서원구 청남로 1917 (미평동)","openHours":"상시","maleToilets":2,"femaleToilets":0,"disabled":true,"diaperTable":false,"emergencyBell":false,"cctv":false,"managerTel":"0432930045","source":"public","category":"public"}]