[{"id":"202444900000102022","name":"아우내도서관 1층 화장실","lat":36.766843,"lng":127.303265,"roadAddr":"충청남도 천안시 동남구 병천면 병천2로 57-2","openHours":"정시","maleToilets":9,"femaleToilets":5,"disabled":false,"diaperTable":false,"emergencyBell":true,"cctv":false,"managerTel":"0415213801","source":"public","category":"public"},{"id":"202444900000102410","name":"국제교육센터","lat":36.765105,"lng":127.2812,"roadAddr":"충청남도 천안시 동남구 병천면 충절로1600","openHours":"정시","maleToilets":19,"femaleToilets":6,"disabled":true,"diaperTable":true,"emergencyBell":true,"cctv":true,"managerTel":"0415601450","source":"public","category":"public"},{"id":"202444900000101595","name":"병천순대시장 화장실","lat":36.759852,"lng":127.297245,"roadAddr":"충청남도 천안시 동남구 병천면 아우내순대길 19","openHours":"상시","maleToilets":5,"femaleToilets":4,"disabled":true,"diaperTable":false,"emergencyBell":true,"cctv":false,"managerTel":"0415214311","source":"public","category":"public"},{"id":"202444900000102409","name":"공학4관B동","lat":36.765105,"lng":127.2812,"roadAddr":"충청남도 천안시 동남구 병천면 충절로1600","openHours":"정시","maleToilets":14,"femaleToilets":3,"disabled":true,"diaperTable":true,"emergencyBell":true,"cctv":true,"managerTel":"0415601450","source":"public","category":"public"},{"id":"202444900000102417","name":"산학협력관","lat":36.765105,"lng":127.2812,"roadAddr":"충청남도 천안시 동남구 병천면 충절로1600","openHours":"정시","maleToilets":40,"femaleToilets":40,"disabled":true,"diaperTable":true,"emergencyBell":true,"cctv":true,"managerTel":"0415601450","source":"public","category":"public"},{"id":"202444900000102405","name":"공학1관","lat":36.765105,"lng":127.2812,"roadAddr":"충청남도 천안시 동남구 병천면 충절로1600","openHours":"정시","maleToilets":98,"femaleToilets":18,"disabled":true,"diaperTable":true,"emergencyBell":true,"cctv":true,"managerTel":"0415601450","source":"public","category":"public"},{"id":"202444900000102411","name":"나래돔","lat":36.765105,"lng":127.2812,"roadAddr":"충청남도 천안시 동남구 병천면 충절로1600","openHours":"정시","maleToilets":4,"femaleToilets":4,"disabled":true,"diaperTable":true,"emergencyBell":true,"cctv":true,"managerTel":"0415601450","source":"public","category":"public"},{"id":"202444900000102024","name":"아우내도서관 3층 화장실","lat":36.766843,"lng":127.303265,"roadAddr":"충청남도 천안시 동남구 병천면 병천2로 57-2","openHours":"정시","maleToilets":8,"femaleToilets":4,"disabled":false,"diaperTable":false,"emergencyBell":true,"cctv":false,"managerTel":"0415213801","source":"public","category":"public"},{"id":"202444900000102423","name":"학생회관","lat":36.765105,"lng":127.2812,"roadAddr":"충청남도 천안시 동남구 병천면 충절로1600","openHours":"정시","maleToilets":36,"femaleToilets":20,"disabled":true,"diaperTable":false,"emergencyBell":true,"cctv":false,"managerTel":"0415601450","source":"public","category":"public"},{"id":"202444900000102420","name":"창업보육관","lat":36.765105,"lng":127.2812,"roadAddr":"충청남도 천안시 동남구 병천면 충절로1600","openHours":"정시","maleToilets":6,"femaleToilets":3,"disabled":true,"diaperTable":false,"emergencyBell":false,"cctv":false,"managerTel":"0415601450","source":"public","category":"public"},{"id":"202444900000102006","name":"병천119안전센터 화장실","lat":36.764235,"lng":127.30104,"roadAddr":"충청남도 천안시 동남구 아우내순대길 78","openHours":"상시","maleToilets":5,"femaleToilets":1,"disabled":false,"diaperTable":false,"emergencyBell":false,"cctv":false,"managerTel":"0415700387","source":"public","category":"public"},{"id":"202444900000101844","name":"병천보건지소 화장실","lat":36.767193,"lng":127.302584,"roadAddr":"충청남도 천안시 동남구 병천면 병천2로 57 (병천리, 보건과병천보건지소)","openHours":"정시","maleToilets":4,"femaleToilets":2,"disabled":false,"diaperTable":false,"emergencyBell":false,"cctv":false,"managerTel":"0415212582","source":"public","category":"public"},{"id":"202444900000101596","name":"병천시장 화장실","lat":36.76179,"lng":127.297166,"roadAddr":"충청남도 천안시 동남구 병천면 아우내장터2길 33-1","openHours":"상시","maleToilets":3,"femaleToilets":2,"disabled":false,"diaperTable":false,"emergencyBell":true,"cctv":false,"managerTel":"0415214311","source":"public","category":"public"},{"id":"202444900000101561","name":"어사 박문수테마길 공중화장실 (주차장)","lat":36.778181,"lng":127.268041,"roadAddr":"충청남도 천안시 동남구 북면 박문수길 105","openHours":"정시","maleToilets":4,"femaleToilets":4,"disabled":false,"diaperTable":false,"emergencyBell":true,"cctv":false,"managerTel":"0415215158","source":"public","category":"public"},{"id":"202444900000102407","name":"공학3관","lat":36.765105,"lng":127.2812,"roadAddr":"충청남도 천안시 동남구 병천면 충절로1600","openHours":"정시","maleToilets":49,"femaleToilets":15,"disabled":true,"diaperTable":true,"emergencyBell":true,"cctv":true,"managerTel":"0415601450","source":"public","category":"public"},{"id":"202444900000101562","name":"어사 박문수테마길 공중화장실(재실앞)","lat":36.778187,"lng":127.272635,"roadAddr":"충청남도 천안시 동남구 북면 박문수길 149-1 (은지리)","openHours":"정시","maleToilets":3,"femaleToilets":2,"disabled":false,"diaperTable":false,"emergencyBell":true,"cctv":false,"managerTel":"0415215158","source":"public","category":"public"},{"id":"202444900000102408","name":"공학4관A동","lat":36.765105,"lng":127.2812,"roadAddr":"충청남도 천안시 동남구 병천면 충절로1600","openHours":"정시","maleToilets":15,"femaleToilets":6,"disabled":true,"diaperTable":true,"emergencyBell":true,"cctv":true,"managerTel":"0415601450","source":"public","category":"public"},{"id":"202444900000102422","name":"캠퍼스컴퍼니","lat":36.765105,"lng":127.2812,"roadAddr":"충청남도 천안시 동남구 병천면 충절로1600","openHours":"정시","maleToilets":6,"femaleToilets":4,"disabled":true,"diaperTable":false,"emergencyBell":false,"cctv":false,"managerTel":"0415601450","source":"public","category":"public"},{"id":"202444900000102418","name":"새롬관","lat":36.765105,"lng":127.2812,"roadAddr":"충청남도 천안시 동남구 병천면 충절로1600","openHours":"정시","maleToilets":15,"femaleToilets":15,"disabled":true,"diaperTable":false,"emergencyBell":true,"cctv":false,"managerTel":"0415601450","source":"public","category":"public"},{"id":"202444900000102415","name":"미래학습관","lat":36.765105,"lng":127.2812,"roadAddr":"충청남도 천안시 동남구 병천면 충절로1600","openHours":"정시","maleToilets":30,"femaleToilets":30,"disabled":true,"diaperTable":true,"emergencyBell":true,"cctv":true,"managerTel":"0415601450","source":"public","category":"public"},{"id":"202444900000101557","name":"유관순 열사 기념관","lat":36.76009,"lng":127.308368,"roadAddr":"충청남도 천안시 동남구 유관순길 38","openHours":"정시","maleToilets":5,"femaleToilets":4,"disabled":true,"diaperTable":false,"emergencyBell":true,"cctv":false,"managerTel":"0415212825","source":"public","category":"public"},{"id":"202444900000102421","name":"체육관","lat":36.765105,"lng":127.2812,"roadAddr":"충청남도 천안시 동남구 병천면 충절로1600","openHours":"정시","maleToilets":8,"femaleToilets":6,"disabled":true,"diaperTable":true,"emergencyBell":true,"cctv":true,"managerTel":"0415601450","source":"public","category":"public"},{"id":"202444900000102416","name":"복지관","lat":36.765105,"lng":127.2812,"roadAddr":"충청남도 천안시 동남구 병천면 충절로1600","openHours":"정시","maleToilets":17,"femaleToilets":8,"disabled":true,"diaperTable":true,"emergencyBell":true,"cctv":true,"managerTel":"0415601450","source":"public","category":"public"},{"id":"202444900000102419","name":"인문경영관","lat":36.765105,"lng":127.2812,"roadAddr":"충청남도 천안시 동남구 병천면 충절로1600","openHours":"정시","maleToilets":74,"femaleToilets":37,"disabled":true,"diaperTable":true,"emergencyBell":true,"cctv":true,"managerTel":"0415601450","source":"public","category":"public"},{"id":"202444900000101862","name":"천안홍대용과학관 화장실","lat":36.739619,"lng":127.295599,"roadAddr":"충청남도 천안시 동남구 수신면 장산서길 113","openHours":"정시","maleToilets":17,"femaleToilets":16,"disabled":true,"diaperTable":false,"emergencyBell":true,"cctv":false,"managerTel":"0415636050","source":"public","category":"public"},{"id":"202444900000102412","name":"나우리인성관","lat":36.765105,"lng":127.2812,"roadAddr":"충청남도 천안시 동남구 병천면 충절로1600","openHours":"정시","maleToilets":8,"femaleToilets":2,"disabled":false,"diaperTable":false,"emergencyBell":false,"cctv":false,"managerTel":"0415601450","source":"public","category":"public"},{"id":"202444900000101843","name":"병천면 행정복지센터","lat":36.767193,"lng":127.302584,"roadAddr":"충청남도 천안시 동남구 병천면 병천2로 57","openHours":"정시","maleToilets":10,"femaleToilets":4,"disabled":true,"diaperTable":false,"emergencyBell":true,"cctv":false,"managerTel":"0415214798","source":"public","category":"public"},{"id":"202444900000102382","name":"재능교육연수원","lat":36.748838,"lng":127.288313,"roadAddr":"충청남도 천안시 동남구 수신면 우각골길 40","openHours":"상시","maleToilets":56,"femaleToilets":32,"disabled":true,"diaperTable":false,"emergencyBell":false,"cctv":false,"managerTel":"0415220303","source":"public","category":"public"},{"id":"202444900000102406","name":"공학2관","lat":36.765105,"lng":127.2812,"roadAddr":"충청남도 천안시 동남구 병천면 충절로1600","openHours":"정시","maleToilets":80,"femaleToilets":28,"disabled":true,"diaperTable":true,"emergencyBell":true,"cctv":true,"managerTel":"0415601450","source":"public","category":"public"},{"id":"202444900000102414","name":"대학본부","lat":36.765105,"lng":127.2812,"roadAddr":"충청남도 천안시 동남구 병천면 충절로1600","openHours":"정시","maleToilets":16,"femaleToilets":7,"disabled":true,"diaperTable":true,"emergencyBell":false,"cctv":true,"managerTel":"0415601450","source":"public","category":"public"},{"id":"202444900000102413","name":"다산정보관","lat":36.765105,"lng":127.2812,"roadAddr":"충청남도 천안시 동남구 병천면 충절로1600","openHours":"정시","maleToilets":27,"femaleToilets":31,"disabled":true,"diaperTable":true,"emergencyBell":true,"cctv":true,"managerTel":"0415601450","source":"public","category":"public"},{"id":"202444900000102023","name":"아우내도서관 2층 화장실","lat":36.766843,"lng":127.303265,"roadAddr":"충청남도 천안시 동남구 병천면 병천2로 57-2","openHours":"정시","maleToilets":8,"femaleToilets":3,"disabled":true,"diaperTable":false,"emergencyBell":true,"cctv":false,"managerTel":"0415213801","source":"public","category":"public"}]