[{"id":"202351200000100259","name":"용추계곡(내)1","lat":36.658155,"lng":127.95401,"jibunAddr":"경상북도 문경시 가은읍 완장리 산65-1","openHours":"상시","maleToilets":2,"femaleToilets":1,"disabled":false,"diaperTable":false,"emergencyBell":false,"cctv":false,"managerTel":"0545508551","source":"public","category":"public"},{"id":"202351200000100262","name":"용추계곡(내)4","lat":36.658155,"lng":127.95401,"jibunAddr":"경상북도 문경시 가은읍 완장리 산65-1","openHours":"상시","maleToilets":5,"femaleToilets":4,"disabled":false,"diaperTable":false,"emergencyBell":false,"cctv":false,"managerTel":"0545508551","source":"public","category":"public"},{"id":"202351200000100258","name":"용추계곡 주차장","lat":36.672374,"lng":127.962876,"jibunAddr":"경상북도 문경시 가은읍 완장리 산114","openHours":"상시","maleToilets":2,"femaleToilets":2,"disabled":true,"diaperTable":false,"emergencyBell":false,"cctv":false,"managerTel":"0545508551","source":"public","category":"public"},{"id":"202351200000100252","name":"대야산 주차장(2)","lat":36.674721,"lng":127.95982,"jibunAddr":"경상북도 문경시 가은읍 완장리 466-1","openHours":"상시","maleToilets":2,"femaleToilets":2,"disabled":false,"diaperTable":false,"emergencyBell":false,"cctv":false,"managerTel":"0545508551","source":"public","category":"public"},{"id":"202351200000100260","name":"용추계곡(내)2","lat":36.658155,"lng":127.95401,"jibunAddr":"경상북도 문경시 가은읍 완장리 산65-1","openHours":"상시","maleToilets":2,"femaleToilets":1,"disabled":false,"diaperTable":false,"emergencyBell":false,"cctv":false,"managerTel":"0545508551","source":"public","category":"public"},{"id":"202351200000100251","name":"대야산 주차장(1)","lat":36.67531,"lng":127.959288,"jibunAddr":"경상북도 문경시 가은읍 완장리 464-1","openHours":"상시","maleToilets":6,"femaleToilets":4,"disabled":true,"diaperTable":false,"emergencyBell":false,"cctv":false,"managerTel":"0545508551","source":"public","category":"public"},{"id":"202351200000100261","name":"용추계곡(내)3","lat":36.658155,"lng":127.95401,"jibunAddr":"경상북도 문경시 가은읍 완장리 산65-1","openHours":"상시","maleToilets":2,"femaleToilets":0,"disabled":false,"diaperTable":false,"emergencyBell":false,"cctv":false,"managerTel":"0545508551","source":"public","category":"public"},{"id":"202351200000100253","name":"대야산 주차장(3)","lat":36.674721,"lng":127.95982,"jibunAddr":"경상북도 문경시 가은읍 완장리 466-1","openHours":"상시","maleToilets":4,"femaleToilets":4,"disabled":false,"diaperTable":false,"emergencyBell":true,"cctv":false,"managerTel":"0545508551","source":"public","category":"public"},{"id":"202351200000100404","name":"국립대야산자연휴양림 방문자안내센터","lat":36.670905,"lng":127.961979,"roadAddr":"경상북도 문경시 가은읍 용추길 31-35","jibunAddr":"경상북도 문경시 가은읍 완장리 산 65-1","openHours":"09:00~18:00","maleToilets":3,"femaleToilets":1,"disabled":true,"diaperTable":false,"emergencyBell":false,"cctv":false,"managerTel":"0545717181","source":"public","category":"public"}]