[{"id":"202543900000100081","name":"대박주유소 화장실","lat":36.909387,"lng":127.949688,"roadAddr":"충청북도 충주시 살미면 호음실1길 26","jibunAddr":"충청북도 충주시 살미면 세성리 499-2 성원가든","openHours":"상시","maleToilets":2,"femaleToilets":1,"disabled":false,"diaperTable":false,"emergencyBell":false,"cctv":false,"managerTel":"0438565182","source":"public","category":"public"},{"id":"202543900000100242","name":"살미복지회관화장실 (2개)","lat":36.904165,"lng":127.962625,"roadAddr":"충청북도 충주시 살미면 세성로 41","jibunAddr":"충청북도 충주시 살미면 세성리 307-9","openHours":"09:00~18:00","maleToilets":12,"femaleToilets":6,"disabled":false,"diaperTable":false,"emergencyBell":true,"cctv":false,"managerTel":"0438502314","source":"public","category":"public"},{"id":"202543900000100079","name":"대호주유소 화장실","lat":36.913403,"lng":127.949743,"roadAddr":"충청북도 충주시 살미면 중원대로 2574","jibunAddr":"충청북도 충주시 살미면 세성리 592","openHours":"상시","maleToilets":2,"femaleToilets":1,"disabled":false,"diaperTable":false,"emergencyBell":false,"cctv":false,"managerTel":"0438528333","source":"public","category":"public"},{"id":"202543900000100082","name":"한마음주유소 화장실","lat":36.902793,"lng":127.961372,"roadAddr":"충청북도 충주시 살미면 중원대로2410","jibunAddr":"충청북도 충주시 살미면 세성리 264","openHours":"상시","maleToilets":2,"femaleToilets":1,"disabled":false,"diaperTable":false,"emergencyBell":false,"cctv":false,"managerTel":"0438460089","source":"public","category":"public"},{"id":"202543900000100138","name":"살미우체국 영업장 내부","lat":36.902269,"lng":127.964617,"roadAddr":"충청북도 충주시 살미면 세성로 68","openHours":"09:00 ~ 18:00","maleToilets":2,"femaleToilets":1,"disabled":false,"diaperTable":false,"emergencyBell":false,"cctv":false,"managerTel":"0438510622","source":"public","category":"public"},{"id":"202543900000100241","name":"살미면 행정복지센터 화장실(2개)","lat":36.905422,"lng":127.964469,"roadAddr":"충청북도 충주시 살미면 세성양지말길 41","jibunAddr":"충청북도 충주시 살미면 세성리 335-2","openHours":"09:00~18:00","maleToilets":10,"femaleToilets":6,"disabled":true,"diaperTable":true,"emergencyBell":false,"cctv":false,"managerTel":"0438508227","source":"public","category":"public"},{"id":"202543900000100077","name":"세성주유소화장실","lat":36.906243,"lng":127.954671,"roadAddr":"충청북도 충주시 살미면 중원대로 2483","jibunAddr":"충청북도 충주시 살미면 세성리 420-2","openHours":"상시","maleToilets":2,"femaleToilets":1,"disabled":false,"diaperTable":false,"emergencyBell":false,"cctv":false,"managerTel":"0438517789","source":"public","category":"public"}]