[{"id":"202444600000100048","name":"괴산농업역사박물관주차장","lat":36.804754,"lng":127.823947,"roadAddr":"충청북도 괴산군 괴산읍 충민로검승1길 11","openHours":"09:00~18:00","maleToilets":8,"femaleToilets":8,"disabled":true,"diaperTable":true,"emergencyBell":false,"cctv":false,"managerTel":"0438303820","source":"public","category":"public"},{"id":"202444600000100108","name":"시내버스터미널","lat":36.808881,"lng":127.796906,"roadAddr":"충청북도 괴산군 괴산읍 괴강로 24","openHours":"09:00~18:00","maleToilets":8,"femaleToilets":4,"disabled":false,"diaperTable":true,"emergencyBell":true,"cctv":false,"managerTel":"0438343351","source":"public","category":"public"},{"id":"202444600000100050","name":"달래강물빛산책로","lat":36.818246,"lng":127.831491,"roadAddr":"충청북도 괴산군 괴산읍 제월로 226-14","openHours":"09:00~18:00","maleToilets":4,"femaleToilets":3,"disabled":true,"diaperTable":true,"emergencyBell":true,"cctv":true,"managerTel":"0438303821","source":"public","category":"public"},{"id":"202444600000100010","name":"야영장1(괴강관광지)","lat":36.808881,"lng":127.796906,"roadAddr":"충청북도 괴산군 괴산읍 괴강로 24","openHours":"09:00~18:00","maleToilets":3,"femaleToilets":5,"disabled":false,"diaperTable":false,"emergencyBell":false,"cctv":true,"managerTel":"0438303452","source":"public","category":"public"},{"id":"202444600000100015","name":"전통시장공중화장실","lat":36.811219,"lng":127.795024,"roadAddr":"충청북도 괴산군 괴산읍 읍내로15길 8-8","openHours":"09:00~18:00","maleToilets":12,"femaleToilets":6,"disabled":true,"diaperTable":true,"emergencyBell":false,"cctv":false,"managerTel":"0438302417","source":"public","category":"public"},{"id":"202444600000100044","name":"괴산농업역사박물관","lat":36.805336,"lng":127.824356,"roadAddr":"충청북도 괴산읍 충민로검승1길 6","openHours":"09:00~18:00","maleToilets":5,"femaleToilets":2,"disabled":true,"diaperTable":true,"emergencyBell":true,"cctv":false,"managerTel":"0438302684","source":"public","category":"public"},{"id":"202444600000100016","name":"재래시장공중화장실","lat":36.810143,"lng":127.795691,"roadAddr":"충청북도 괴산군 괴산읍 읍내로14길 9-5","openHours":"09:00~18:00","maleToilets":9,"femaleToilets":6,"disabled":false,"diaperTable":true,"emergencyBell":false,"cctv":false,"managerTel":"0438302417","source":"public","category":"public"},{"id":"202444600000100117","name":"칠성휴게소","lat":36.811666,"lng":127.802815,"roadAddr":"충청북도 괴산군 칠성면 중부로","openHours":"09:00~18:00","maleToilets":3,"femaleToilets":7,"disabled":false,"diaperTable":false,"emergencyBell":false,"cctv":false,"managerTel":"0438328998","source":"public","category":"public"},{"id":"202444600000100107","name":"괴산소방서 본서 신관(남자화장실)","lat":36.807584,"lng":127.801431,"roadAddr":"충청북도 괴산군 괴산읍 괴강로 69","openHours":"09:00~18:00","maleToilets":0,"femaleToilets":0,"disabled":true,"diaperTable":true,"emergencyBell":true,"cctv":true,"managerTel":"0437600122","source":"public","category":"public"},{"id":"202444600000100049","name":"괴강관광지","lat":36.807817,"lng":127.823655,"roadAddr":"충청북도 괴산군 괴산읍 충민로 검승3길 41","openHours":"09:00~18:00","maleToilets":9,"femaleToilets":8,"disabled":true,"diaperTable":true,"emergencyBell":true,"cctv":false,"managerTel":"0438303820","source":"public","category":"public"},{"id":"202444600000100057","name":"괴산국민여가캠핑장","lat":36.806761,"lng":127.825292,"roadAddr":"충청북도 괴산군 괴산읍 충민로검승3길 10","openHours":"09:00~18:00","maleToilets":8,"femaleToilets":9,"disabled":true,"diaperTable":true,"emergencyBell":true,"cctv":false,"managerTel":"0438303820","source":"public","category":"public"},{"id":"202444600000100014","name":"개심사공중화장실화장실","lat":36.815212,"lng":127.794694,"roadAddr":"충청북도 괴산군 괴산읍 역말길 22","openHours":"09:00~18:00","maleToilets":5,"femaleToilets":2,"disabled":true,"diaperTable":false,"emergencyBell":false,"cctv":false,"managerTel":"0438303437","source":"public","category":"public"},{"id":"202444600000100011","name":"홍범식고택","lat":36.813843,"lng":127.794842,"roadAddr":"충청북도 괴산군 괴산읍 임꺽정로 16","openHours":"09:00~18:00","maleToilets":5,"femaleToilets":5,"disabled":false,"diaperTable":true,"emergencyBell":true,"cctv":false,"managerTel":"0438303437","source":"public","category":"public"},{"id":"202444600000100008","name":"괴산관광지공용주차장","lat":36.805526,"lng":127.823191,"roadAddr":"충청북도 괴산군 괴산읍 충민로검승1길 26","openHours":"09:00~18:00","maleToilets":14,"femaleToilets":10,"disabled":true,"diaperTable":false,"emergencyBell":false,"cctv":true,"managerTel":"0438303452","source":"public","category":"public"},{"id":"202444600000100113","name":"괴산농협주유소","lat":36.809091,"lng":127.797909,"roadAddr":"충청북도 괴산군 괴산읍 동진천길 71","openHours":"09:00~18:00","maleToilets":3,"femaleToilets":1,"disabled":false,"diaperTable":false,"emergencyBell":false,"cctv":false,"managerTel":"0438348288","source":"public","category":"public"},{"id":"202444600000100070","name":"괴산군보건소","lat":36.807981,"lng":127.796506,"roadAddr":"충청북도 괴산군 동진천길 43","openHours":"09:00~18:00","maleToilets":12,"femaleToilets":6,"disabled":true,"diaperTable":true,"emergencyBell":true,"cctv":false,"managerTel":"0438302300","source":"public","category":"public"},{"id":"202444600000100109","name":"시외버스터미널","lat":36.808525,"lng":127.794598,"roadAddr":"충청북도 괴산군 괴산읍 읍내로 286","openHours":"09:00~18:00","maleToilets":8,"femaleToilets":7,"disabled":true,"diaperTable":true,"emergencyBell":true,"cctv":false,"managerTel":"0438333355","source":"public","category":"public"},{"id":"202444600000100106","name":"괴산소방서 본서 구관(남자화장실)","lat":36.807584,"lng":127.801431,"roadAddr":"충청북도 괴산군 괴산읍 괴강로 69","openHours":"09:00~18:00","maleToilets":4,"femaleToilets":2,"disabled":true,"diaperTable":false,"emergencyBell":false,"cctv":true,"managerTel":"0437600122","source":"public","category":"public"}]