[{"id":"202444700000100127","name":"음성군 정신건강증진센터","lat":36.992041,"lng":127.598451,"roadAddr":"충청북도 음성군 금왕읍 금석로 74","jibunAddr":"충청북도 음성군 금왕읍 무극리 98-7","openHours":"정시","maleToilets":4,"femaleToilets":1,"disabled":true,"diaperTable":true,"emergencyBell":true,"cctv":true,"source":"public","category":"public"},{"id":"202444700000100166","name":"금왕읍사무소","lat":36.993028,"lng":127.586203,"roadAddr":"충청북도 음성군 금왕읍 무극로 221","jibunAddr":"충청북도 음성군 금왕읍 무극리 507-7","openHours":"정시","maleToilets":10,"femaleToilets":1,"disabled":true,"diaperTable":true,"emergencyBell":true,"cctv":true,"source":"public","category":"public"},{"id":"202444700000100125","name":"음성군노인복지회","lat":36.987296,"lng":127.596411,"roadAddr":"충청북도 음성군 금왕읍 백야로 14","jibunAddr":"충청북도 음성군 금왕읍 금석리 340-1","openHours":"정시","maleToilets":4,"femaleToilets":0,"disabled":true,"diaperTable":false,"emergencyBell":false,"cctv":true,"source":"public","category":"public"},{"id":"202444700000100117","name":"무극 시장 고객지원센터","lat":36.991764,"lng":127.59694,"roadAddr":"충청북도 금왕읍 금석로 75번길 5","jibunAddr":"충청북도 음성군 금왕읍 무극리 78-11","openHours":"정시","maleToilets":2,"femaleToilets":0,"disabled":true,"diaperTable":false,"emergencyBell":true,"cctv":true,"source":"public","category":"public"},{"id":"202444700000100106","name":"금왕생활체육공원 공중화장실","lat":36.993728,"lng":127.604295,"roadAddr":"충청북도 음성군 금왕읍 무극로 370","jibunAddr":"충청북도 음성군 금왕읍 금석리 98","openHours":"정시","maleToilets":2,"femaleToilets":0,"disabled":true,"diaperTable":false,"emergencyBell":true,"cctv":true,"source":"public","category":"public"},{"id":"202444700000100094","name":"금왕생활체육공원 야외화장실","lat":36.993728,"lng":127.604295,"roadAddr":"충청북도 음성군 금왕읍 무극로 370","jibunAddr":"충청북도 음성군 금왕읍 금석리 98","openHours":"상시","maleToilets":2,"femaleToilets":0,"disabled":true,"diaperTable":false,"emergencyBell":true,"cctv":true,"source":"public","category":"public"},{"id":"202444700000100128","name":"금왕청소년 문화의 집","lat":36.992041,"lng":127.598451,"roadAddr":"충청북도 음성군 금왕읍 금석로 74","jibunAddr":"충청북도 음성군 금왕읍 무극리 98-7","openHours":"정시","maleToilets":4,"femaleToilets":0,"disabled":true,"diaperTable":false,"emergencyBell":true,"cctv":true,"source":"public","category":"public"},{"id":"202444700000100126","name":"금왕우체국","lat":36.994947,"lng":127.595983,"roadAddr":"충청북도 음성군 금왕읍 금석로107번길 2-2","jibunAddr":"충청북도 음성군 금왕읍 무극리 162-3","openHours":"정시","maleToilets":2,"femaleToilets":0,"disabled":true,"diaperTable":false,"emergencyBell":false,"cctv":true,"managerTel":"15881300","source":"public","category":"public"}]