[{"id":"202444700000100156","name":"음성시장 고객지원센터","lat":36.938166,"lng":127.692127,"roadAddr":"충청북도 음성군 음성읍 문화1길 14","jibunAddr":"충청북도 음성군 음성읍 읍내리 249-12","openHours":"09:00~18:00","maleToilets":1,"femaleToilets":0,"disabled":true,"diaperTable":false,"emergencyBell":true,"cctv":true,"source":"public","category":"public"},{"id":"202444700000100130","name":"음성도서관","lat":36.939682,"lng":127.693621,"roadAddr":"충청북도 음성군 음성읍 시장로126번길 29","jibunAddr":"충청북도 음성군 음성읍 읍내리 209","openHours":"09:00~18:00","maleToilets":6,"femaleToilets":0,"disabled":true,"diaperTable":false,"emergencyBell":true,"cctv":true,"source":"public","category":"public"},{"id":"202444700000100146","name":"음성실내체육관","lat":36.935415,"lng":127.689373,"roadAddr":"충청북도 음성군 음성읍 중앙로 126","jibunAddr":"충청북도 음성군 음성읍 읍내리 496-1","openHours":"상시","maleToilets":8,"femaleToilets":1,"disabled":true,"diaperTable":false,"emergencyBell":true,"cctv":true,"source":"public","category":"public"},{"id":"202444700000100164","name":"국립 농산물품질관리원 충북지원음성사무소","lat":36.931719,"lng":127.688121,"roadAddr":"충청북도 음성군 음성읍 설성로57번길 15","jibunAddr":"충청북도 음성군 음성읍 읍내리 469-1","openHours":"09:00~18:00","maleToilets":5,"femaleToilets":1,"disabled":true,"diaperTable":false,"emergencyBell":true,"cctv":true,"source":"public","category":"public"},{"id":"202444700000100137","name":"국민건강보험공단","lat":36.930372,"lng":127.679201,"roadAddr":"충청북도 음성군 음성읍 음성로 114","jibunAddr":"충청북도 음성군 음성읍 읍내리 497-7","openHours":"09:00~18:00","maleToilets":4,"femaleToilets":0,"disabled":true,"diaperTable":false,"emergencyBell":true,"cctv":true,"managerTel":"15771000","source":"public","category":"public"},{"id":"202444700000100085","name":"음성읍 주민자치센터","lat":36.935119,"lng":127.690572,"roadAddr":"충청북도 음성군 음성읍 수정로 37","jibunAddr":"충청북도 음성군 음성읍 읍내리 536-6","openHours":"09:00~18:00","maleToilets":4,"femaleToilets":0,"disabled":true,"diaperTable":false,"emergencyBell":true,"cctv":true,"source":"public","category":"public"},{"id":"202444700000100139","name":"음성군보건소","lat":36.92884,"lng":127.688878,"roadAddr":"충청북도 음성군 음성읍 중앙로 49","jibunAddr":"충청북도 음성군 음성읍 읍내리 406-4","openHours":"09:00~18:00","maleToilets":8,"femaleToilets":2,"disabled":true,"diaperTable":true,"emergencyBell":true,"cctv":true,"source":"public","category":"public"},{"id":"202444700000100149","name":"음성재래시장","lat":36.932789,"lng":127.69102,"roadAddr":"충청북도 음성군 음성읍설성공원길 28","jibunAddr":"충청북도 음성군 음성읍 읍내리 817-1","openHours":"상시","maleToilets":2,"femaleToilets":0,"disabled":true,"diaperTable":false,"emergencyBell":false,"cctv":true,"source":"public","category":"public"},{"id":"202444700000100138","name":"음성우체국","lat":36.932611,"lng":127.689419,"roadAddr":"충청북도 음성군 음성읍 중앙로 94","jibunAddr":"충청북도 음성군 음성읍 읍내리 456-4","openHours":"09:00~18:00","maleToilets":4,"femaleToilets":0,"disabled":true,"diaperTable":false,"emergencyBell":false,"cctv":true,"managerTel":"15881300","source":"public","category":"public"},{"id":"202444700000100141","name":"음성야외음악당","lat":36.932789,"lng":127.69102,"roadAddr":"충청북도 음성군 음성읍 설성공원길 28","jibunAddr":"충청북도 음성군 음성읍 읍내리 817-242","openHours":"상시","maleToilets":2,"femaleToilets":0,"disabled":true,"diaperTable":false,"emergencyBell":true,"cctv":true,"source":"public","category":"public"},{"id":"202444700000100129","name":"음성문화예술회관","lat":36.931522,"lng":127.680605,"roadAddr":"충청북도 음성군 음성읍 예술로 102","jibunAddr":"충청북도 음성군 음성읍 읍내리 781-2","openHours":"09:00~18:00","maleToilets":12,"femaleToilets":1,"disabled":true,"diaperTable":true,"emergencyBell":true,"cctv":true,"source":"public","category":"public"},{"id":"202444700000100140","name":"음성 청소년문화의집","lat":36.931555,"lng":127.691306,"roadAddr":"충청북도 음성군 음성읍 설성공원길 16","jibunAddr":"충청북도 음성군 음성읍 읍내리 366-17","openHours":"09:00~18:00","maleToilets":4,"femaleToilets":0,"disabled":true,"diaperTable":true,"emergencyBell":true,"cctv":true,"source":"public","category":"public"},{"id":"202444700000100084","name":"음성군청(본청)","lat":36.940281,"lng":127.690514,"roadAddr":"충청북도 음성군 음성읍 중앙로 173","jibunAddr":"충청북도 음성군 음성읍 읍내리 621-1","openHours":"09:00~18:00","maleToilets":22,"femaleToilets":0,"disabled":true,"diaperTable":true,"emergencyBell":true,"cctv":true,"source":"public","category":"public"},{"id":"202444700000100132","name":"선거관리사무소","lat":36.930631,"lng":127.691249,"roadAddr":"충청북도 음성군 음성읍 설성공원길 6","jibunAddr":"충청북도 음성군 음성읍 읍내리 817-7","openHours":"09:00~18:00","maleToilets":6,"femaleToilets":0,"disabled":true,"diaperTable":false,"emergencyBell":true,"cctv":true,"source":"public","category":"public"},{"id":"202444700000100150","name":"음성읍사무소","lat":36.935119,"lng":127.690572,"roadAddr":"충청북도 음성군 음성읍 수정로 37","jibunAddr":"충청북도 음성군 음성읍 읍내리 536-6","openHours":"09:00~18:00","maleToilets":8,"femaleToilets":1,"disabled":true,"diaperTable":true,"emergencyBell":true,"cctv":true,"source":"public","category":"public"},{"id":"202444700000100147","name":"종합운동장","lat":36.931512,"lng":127.686649,"roadAddr":"충청북도 음성군 음성읍 설성로 47","jibunAddr":"충청북도 음성군 음성읍 읍내리 470","openHours":"09:00~18:00","maleToilets":6,"femaleToilets":0,"disabled":true,"diaperTable":false,"emergencyBell":true,"cctv":true,"source":"public","category":"public"},{"id":"202444700000100134","name":"대한지적공사","lat":36.925869,"lng":127.689357,"roadAddr":"충청북도 음성군 음성읍 중앙로 18","jibunAddr":"충청북도 음성군 음성읍 신천리 173","openHours":"09:00~18:00","maleToilets":3,"femaleToilets":0,"disabled":true,"diaperTable":false,"emergencyBell":true,"cctv":true,"source":"public","category":"public"},{"id":"202444700000100112","name":"음성 시장 화장실","lat":36.935759,"lng":127.692084,"roadAddr":"충청북도 음성군 음성읍 시장로 93-6","jibunAddr":"충청북도 음성군 음성읍 읍내리 319-1","openHours":"상시","maleToilets":2,"femaleToilets":0,"disabled":true,"diaperTable":false,"emergencyBell":true,"cctv":true,"source":"public","category":"public"},{"id":"202444700000100143","name":"수정산체육공원","lat":36.940107,"lng":127.70154,"roadAddr":"충청북도 음성군 음성읍 충청대로 1484","jibunAddr":"충청북도 음성군 음성읍 읍내리 산 13-1","openHours":"상시","maleToilets":1,"femaleToilets":0,"disabled":true,"diaperTable":false,"emergencyBell":false,"cctv":true,"source":"public","category":"public"},{"id":"202444700000100142","name":"향토자료전시관","lat":36.931297,"lng":127.691611,"roadAddr":"충청북도 음성군 음성읍 설성공원길 10-7","jibunAddr":"충청북도 음성군 음성읍 읍내리 817-12","openHours":"09:00~18:00","maleToilets":2,"femaleToilets":0,"disabled":true,"diaperTable":false,"emergencyBell":false,"cctv":true,"source":"public","category":"public"},{"id":"202444700000100148","name":"음성교육청","lat":36.930981,"lng":127.688635,"roadAddr":"충청북도 음성군 음성읍 설성로57번길 8","jibunAddr":"충청북도 음성군 음성읍 읍내리 467","openHours":"09:00~18:00","maleToilets":5,"femaleToilets":1,"disabled":true,"diaperTable":false,"emergencyBell":true,"cctv":true,"source":"public","category":"public"},{"id":"202444700000100144","name":"수도사업소","lat":36.930707,"lng":127.688945,"roadAddr":"충청북도 음성군 음성읍 중앙로 71","jibunAddr":"충청북도 음성군 음성읍 읍내리 467-3","openHours":"09:00~18:00","maleToilets":4,"femaleToilets":0,"disabled":true,"diaperTable":false,"emergencyBell":true,"cctv":true,"source":"public","category":"public"},{"id":"202444700000100145","name":"농업기술센터","lat":36.944949,"lng":127.684524,"roadAddr":"충청북도 음성군 음성읍 용광로 81-5","jibunAddr":"충청북도 음성군 음성읍 용산리 258","openHours":"09:00~18:00","maleToilets":3,"femaleToilets":0,"disabled":true,"diaperTable":false,"emergencyBell":true,"cctv":true,"source":"public","category":"public"},{"id":"202444700000100133","name":"여성회관","lat":36.931447,"lng":127.691966,"roadAddr":"충청북도 음성군 음성읍 음성천서길 103","jibunAddr":"충청북도 음성군 음성읍 읍내리 817-12","openHours":"09:00~18:00","maleToilets":4,"femaleToilets":2,"disabled":true,"diaperTable":true,"emergencyBell":true,"cctv":true,"source":"public","category":"public"}]