[{"id":"202543900000100087","name":"양지주유소","lat":36.962782,"lng":127.776062,"roadAddr":"충청북도 충주시 주덕읍 충청대로 2300","jibunAddr":"충청북도 충주시 주덕읍 창전리 178-1","openHours":"정시","maleToilets":3,"femaleToilets":2,"disabled":false,"diaperTable":false,"emergencyBell":false,"cctv":false,"managerTel":"0438425185","source":"public","category":"public"},{"id":"202543900000100162","name":"충주소방서 주덕안전센터 1층","lat":36.971123,"lng":127.791017,"roadAddr":"충청북도 충주시 주덕읍 신양로 35","jibunAddr":"충청북도 충주시 신양리 570-3","openHours":"정시","maleToilets":4,"femaleToilets":0,"disabled":false,"diaperTable":false,"emergencyBell":false,"cctv":false,"managerTel":"0438413122","source":"public","category":"public"},{"id":"202543900000100218","name":"충주시 농민문화체육센터","lat":36.972743,"lng":127.792202,"roadAddr":"충청북도 충주시 주덕읍 신양로 45","jibunAddr":"충청북도 충주시 주덕읍 신양리 560-6 농민문화체육센터","openHours":"정시","maleToilets":6,"femaleToilets":3,"disabled":true,"diaperTable":false,"emergencyBell":true,"cctv":false,"managerTel":"0438507985","source":"public","category":"public"},{"id":"202543900000100086","name":"주덕중앙주유소","lat":36.964213,"lng":127.785043,"roadAddr":"충청북도 충주시 주덕읍 충청대로 2382","jibunAddr":"충청북도 충주시 주덕읍 삼청리 303-2","openHours":"정시","maleToilets":2,"femaleToilets":2,"disabled":false,"diaperTable":false,"emergencyBell":false,"cctv":false,"managerTel":"0438460032","source":"public","category":"public"},{"id":"202543900000100153","name":"중원도서관","lat":36.971607,"lng":127.786964,"roadAddr":"충청북도 충주시 주덕읍 창전길 221","jibunAddr":"충청북도 충주시 주덕읍 신중리 130-3 중원도서관","openHours":"정시","maleToilets":8,"femaleToilets":6,"disabled":true,"diaperTable":false,"emergencyBell":false,"cctv":false,"managerTel":"0438460629","source":"public","category":"public"},{"id":"202543900000100088","name":"주덕농협클린주유소","lat":36.970215,"lng":127.792132,"roadAddr":"충청북도 충주시 주덕읍 신양로 34","jibunAddr":"충청북도 충주시 주덕읍 신양리 550 농협하나로마트","openHours":"정시","maleToilets":2,"femaleToilets":1,"disabled":false,"diaperTable":false,"emergencyBell":false,"cctv":false,"managerTel":"0438460516","source":"public","category":"public"},{"id":"202543900000100075","name":"S-OIL 월명주유소","lat":36.989093,"lng":127.757457,"roadAddr":"충청북도 충주시 신니면 신덕로 981","jibunAddr":"충청북도 충주시 신니면 견학리 361-1","openHours":"상시","maleToilets":2,"femaleToilets":1,"disabled":false,"diaperTable":false,"emergencyBell":false,"cctv":true,"managerTel":"0438522222","source":"public","category":"public"},{"id":"202543900000100085","name":"금강산주유소","lat":36.969973,"lng":127.787956,"roadAddr":"충청북도 충주시 주덕읍 충청대로 2453","jibunAddr":"충청북도 충주시 주덕읍 삼청리 217 금강산주유소","openHours":"상시","maleToilets":3,"femaleToilets":2,"disabled":false,"diaperTable":false,"emergencyBell":false,"cctv":false,"managerTel":"0438528057","source":"public","category":"public"}]