[{"id":"202543900000100060","name":"E1 중원 LPG 가스충전소","lat":37.053842,"lng":127.930496,"roadAddr":"충청북도 충주시 금가면 충원대로 1461","jibunAddr":"충청북도 충주시 금가면 도촌리 44-2","openHours":"정시","maleToilets":3,"femaleToilets":1,"disabled":false,"diaperTable":false,"emergencyBell":false,"cctv":false,"managerTel":"0438558588","source":"public","category":"public"},{"id":"202543900000100191","name":"충주시노인전문병원 화장실","lat":37.048295,"lng":127.930948,"roadAddr":"충청북도 충주시 동량면 충원대로 1398","jibunAddr":"충청북도 충주시 동량면 대전리 1686-28","openHours":"정시","maleToilets":5,"femaleToilets":2,"disabled":true,"diaperTable":false,"emergencyBell":true,"cctv":true,"managerTel":"0438559393","source":"public","category":"public"},{"id":"202543900000100062","name":"SK 왕대박 주유소 화장실","lat":37.048086,"lng":127.928193,"roadAddr":"충청북도 충주시 금가면 충원대로 1394","jibunAddr":"충청북도 충주시 금가면 도촌리 87-3","openHours":"정시","maleToilets":3,"femaleToilets":2,"disabled":false,"diaperTable":false,"emergencyBell":false,"cctv":false,"managerTel":"0438575188","source":"public","category":"public"},{"id":"202543900000100051","name":"GS칼텍스 천등산 주유소 화장실","lat":37.072593,"lng":127.932703,"roadAddr":"충청북도 충주시 산척면 충원대로 1680","jibunAddr":"충청북도 충주시 산척면 영덕리 1560-4","openHours":"상시","maleToilets":0,"femaleToilets":2,"disabled":false,"diaperTable":false,"emergencyBell":false,"cctv":false,"managerTel":"0438534591","source":"public","category":"public"},{"id":"202543900000100121","name":"동충주영업소","lat":37.065627,"lng":127.925956,"roadAddr":"충청북도 충주시 엄정면 평택제천고속도로 103-1","jibunAddr":"충청북도 충주시 엄정면 율능리 산 85-1","openHours":"상시","maleToilets":4,"femaleToilets":4,"disabled":true,"diaperTable":false,"emergencyBell":false,"cctv":false,"managerTel":"0437216600","source":"public","category":"public"},{"id":"202543900000100061","name":"만남주유소","lat":37.050484,"lng":127.928681,"roadAddr":"충청북도 충주시 금가면 충원대로 1419","jibunAddr":"충청북도 충주시 금가면 도촌리 68-3","openHours":"정시","maleToilets":2,"femaleToilets":1,"disabled":false,"diaperTable":false,"emergencyBell":false,"cctv":false,"managerTel":"0438557600","source":"public","category":"public"},{"id":"202543900000100213","name":"농업기술센터 본관 화장실(3개)","lat":37.046833,"lng":127.93033,"roadAddr":"충청북도 충주시 동량면 충원대로 1350","jibunAddr":"충청북도 충주시 동량면 대전리 1665-1","openHours":"정시","maleToilets":17,"femaleToilets":13,"disabled":true,"diaperTable":false,"emergencyBell":true,"cctv":false,"managerTel":"0438503564","source":"public","category":"public"},{"id":"202543900000100055","name":"천지인주유소 화장실","lat":37.077827,"lng":127.950176,"roadAddr":"충청북도 충주시 산척면 북부로 3007","jibunAddr":"충청북도 충주시 산척면 송강리 1517","openHours":"상시","maleToilets":2,"femaleToilets":2,"disabled":false,"diaperTable":false,"emergencyBell":false,"cctv":false,"managerTel":"0438533060","source":"public","category":"public"},{"id":"202543900000100054","name":"산척농협주유소 화장실","lat":37.084321,"lng":127.957679,"roadAddr":"충청북도 충주시 산척면 북부로 3108","jibunAddr":"충청북도 충주시 산척면 송강리 1189-1","openHours":"상시","maleToilets":3,"femaleToilets":2,"disabled":false,"diaperTable":false,"emergencyBell":false,"cctv":false,"managerTel":"0438538243","source":"public","category":"public"},{"id":"202543900000100306","name":"충주시립노인요양원·주야간보호센터공중화장실","lat":37.076691,"lng":127.957964,"roadAddr":"충청북도 충주시 산척면 월현길 40","jibunAddr":"충청북도 충주시 산척면 송강리 1355-3","openHours":"상시","maleToilets":1,"femaleToilets":3,"disabled":true,"diaperTable":false,"emergencyBell":true,"cctv":false,"managerTel":"0438513211","source":"public","category":"public"},{"id":"202543900000100123","name":"천등산(제천)휴게소","lat":37.061319,"lng":127.939699,"roadAddr":"충청북도 충주시 산척면 평택제천고속도로 106","jibunAddr":"충청북도 충주시 산척면 영덕리 1232","openHours":"정시","maleToilets":16,"femaleToilets":18,"disabled":true,"diaperTable":true,"emergencyBell":true,"cctv":true,"managerTel":"0438552953","source":"public","category":"public"},{"id":"202543900000100052","name":"SK엔크린 동서주유소 화장실","lat":37.06966,"lng":127.931033,"roadAddr":"충청북도 충주시 산척면 충원대로 1643","jibunAddr":"충청북도 충주시 산척면 영덕리 1548-6","openHours":"상시","maleToilets":3,"femaleToilets":2,"disabled":false,"diaperTable":false,"emergencyBell":false,"cctv":false,"managerTel":"0438575657","source":"public","category":"public"},{"id":"202543900000100208","name":"가공창업교육관","lat":37.046833,"lng":127.93033,"roadAddr":"충청북도 충주시 동량면 충원대로 1350","jibunAddr":"충청북도 충주시 동량면 대전리 1665-1","openHours":"정시","maleToilets":2,"femaleToilets":1,"disabled":false,"diaperTable":false,"emergencyBell":true,"cctv":false,"managerTel":"0438503564","source":"public","category":"public"},{"id":"202543900000100209","name":"미래농업생명관","lat":37.046833,"lng":127.93033,"roadAddr":"충청북도 충주시 동량면 충원대로 1350","jibunAddr":"충청북도 충주시 동량면 대전리 1665-1","openHours":"정시","maleToilets":5,"femaleToilets":5,"disabled":true,"diaperTable":false,"emergencyBell":true,"cctv":false,"managerTel":"0438503564","source":"public","category":"public"},{"id":"202543900000100210","name":"친환경미생물배양센터(2개)","lat":37.046833,"lng":127.93033,"roadAddr":"충청북도 충주시 동량면 충원대로 1350","jibunAddr":"충청북도 충주시 동량면 대전리 1665-1","openHours":"정시","maleToilets":9,"femaleToilets":4,"disabled":true,"diaperTable":false,"emergencyBell":true,"cctv":false,"managerTel":"0438503564","source":"public","category":"public"},{"id":"202543900000100143","name":"산척우체국 청사 뒤쪽","lat":37.079202,"lng":127.95569,"roadAddr":"충청북도 충주시 산척면 천등박달로 120","openHours":"정시","maleToilets":2,"femaleToilets":0,"disabled":false,"diaperTable":false,"emergencyBell":false,"cctv":false,"managerTel":"0438536427","source":"public","category":"public"},{"id":"202543900000100125","name":"엄정지사","lat":37.064563,"lng":127.927893,"roadAddr":"충청북도 충주시 엄정면 평택제천고속도로 103","jibunAddr":"충청북도 충주시 엄정면 율능리 78-13","openHours":"정시","maleToilets":12,"femaleToilets":2,"disabled":true,"diaperTable":false,"emergencyBell":false,"cctv":false,"managerTel":"0437216600","source":"public","category":"public"},{"id":"202543900000100211","name":"농산물가공체험교육관(2개)","lat":37.046833,"lng":127.93033,"roadAddr":"충청북도 충주시 동량면 충원대로 1350","jibunAddr":"충청북도 충주시 동량면 대전리 1665-1","openHours":"정시","maleToilets":5,"femaleToilets":5,"disabled":true,"diaperTable":false,"emergencyBell":true,"cctv":false,"managerTel":"0438503564","source":"public","category":"public"},{"id":"202543900000100056","name":"동충주주유소 화장실","lat":37.077417,"lng":127.950491,"roadAddr":"충청북도 충주시 산척면 북부로 3008","jibunAddr":"충청북도 충주시 산척면 송강리 1512-1","openHours":"상시","maleToilets":2,"femaleToilets":1,"disabled":false,"diaperTable":false,"emergencyBell":false,"cctv":false,"managerTel":"0438564098","source":"public","category":"public"},{"id":"202543900000100212","name":"친환경농업연구관 화장실(2개)","lat":37.046833,"lng":127.93033,"roadAddr":"충청북도 충주시 동량면 충원대로 1350","jibunAddr":"충청북도 충주시 동량면 대전리 1665-1","openHours":"정시","maleToilets":10,"femaleToilets":8,"disabled":true,"diaperTable":false,"emergencyBell":true,"cctv":false,"managerTel":"0438503564","source":"public","category":"public"},{"id":"202543900000100231","name":"산척면행정복지센터화장실","lat":37.081751,"lng":127.955774,"roadAddr":"충청북도 충주시 산척면 동산로 736","jibunAddr":"충청북도 충주시 산척면 송강리 1253-1","openHours":"정시","maleToilets":3,"femaleToilets":3,"disabled":true,"diaperTable":false,"emergencyBell":false,"cctv":false,"managerTel":"0438502403","source":"public","category":"public"},{"id":"202543900000100207","name":"석회유황합제제조실","lat":37.046833,"lng":127.93033,"roadAddr":"충청북도 충주시 동량면 충원대로 1350","jibunAddr":"충청북도 충주시 동량면 대전리 1665-1","openHours":"정시","maleToilets":2,"femaleToilets":0,"disabled":false,"diaperTable":false,"emergencyBell":true,"cctv":false,"managerTel":"0438503564","source":"public","category":"public"},{"id":"202543900000100059","name":"sk신정주유소","lat":37.055608,"lng":127.93071,"roadAddr":"충청북도 충주시 금가면 충원대로 1479","jibunAddr":"충청북도 충주시 금가면 도촌리 40-3 코알라주유소","openHours":"정시","maleToilets":3,"femaleToilets":1,"disabled":false,"diaperTable":false,"emergencyBell":false,"cctv":false,"managerTel":"0438484764","source":"public","category":"public"}]