[{"id":"202543900000100250","name":"충주시립도서관화장실(본관)(6개)","lat":36.97478,"lng":127.933806,"roadAddr":"충청북도 충주시 예성로 207(교현동)","jibunAddr":"충청북도 충주시 교현2동 365-3","openHours":"09:00~22:00(월요일)","maleToilets":35,"femaleToilets":19,"disabled":true,"diaperTable":true,"emergencyBell":true,"cctv":false,"managerTel":"0438503974","source":"public","category":"public"},{"id":"202543900000100201","name":"교현2동행정복지센터공중화장실(3개)","lat":36.981449,"lng":127.929093,"roadAddr":"충청북도 충주시 대흥길 46(교현동)","jibunAddr":"충청북도 충주시 교현동 1094 교현2동주민센터","openHours":"09:00~18:00","maleToilets":5,"femaleToilets":3,"disabled":true,"diaperTable":false,"emergencyBell":false,"cctv":false,"managerTel":"0438508363","source":"public","category":"public"},{"id":"202543900000100307","name":"충주시노인복지관 동부분관 공중화장실","lat":36.971845,"lng":127.94895,"roadAddr":"충청북도 충주시 어림5길 31(안림동)","jibunAddr":"충청북도 충주시 안림동 1071","openHours":"09:00~18:00","maleToilets":20,"femaleToilets":25,"disabled":true,"diaperTable":false,"emergencyBell":true,"cctv":true,"managerTel":"0437242323","source":"public","category":"public"},{"id":"202543900000100165","name":"충주소방서 연수안전센터 1층","lat":36.982752,"lng":127.935285,"roadAddr":"충청북도 충주시 동수10길 1","jibunAddr":"충청북도 충주시 연수동 452-32","openHours":"08:00~20:00","maleToilets":6,"femaleToilets":3,"disabled":false,"diaperTable":false,"emergencyBell":false,"cctv":false,"managerTel":"0438413122","source":"public","category":"public"},{"id":"202543900000100018","name":"㈜일광LPG충전소","lat":36.992373,"lng":127.925778,"roadAddr":"충청북도 충주시 팽고리산길 103(금릉동)","jibunAddr":"충청북도 충주시 금릉동 152-32","openHours":"상시","maleToilets":6,"femaleToilets":2,"disabled":false,"diaperTable":false,"emergencyBell":false,"cctv":false,"managerTel":"0438462915","source":"public","category":"public"},{"id":"202543900000100315","name":"교현근린공원화장실","lat":36.976943,"lng":127.933195,"roadAddr":"충청북도 충주시 봉현로 264","jibunAddr":"충청북도 충주시 교현동 640-9","openHours":"상시","maleToilets":2,"femaleToilets":2,"disabled":true,"diaperTable":true,"emergencyBell":true,"cctv":false,"managerTel":"0438506172","source":"public","category":"public"},{"id":"202543900000100270","name":"자유시장 화장실","lat":36.974078,"lng":127.928986,"roadAddr":"충청북도 충주시 공설시장길 13(충의동)","jibunAddr":"충청북도 충주시 충의동 231","openHours":"상시","maleToilets":7,"femaleToilets":4,"disabled":false,"diaperTable":false,"emergencyBell":true,"cctv":false,"managerTel":"0438508343","source":"public","category":"public"},{"id":"202543900000100283","name":"무학시장화장실(2)","lat":36.974534,"lng":127.928339,"roadAddr":"충청북도 충주시 무학천변길 87(봉방동)","jibunAddr":"충청북도 충주시 봉방동 1-2","openHours":"상시","maleToilets":4,"femaleToilets":2,"disabled":false,"diaperTable":false,"emergencyBell":true,"cctv":false,"managerTel":"0438482292","source":"public","category":"public"},{"id":"202543900000100249","name":"충주시립도서관화장실(구관)(2개)","lat":36.97478,"lng":127.933806,"roadAddr":"충청북도 충주시 예성로 207(교현동)","jibunAddr":"충청북도 충주시 교현2동 365-3","openHours":"09:00~22:00(월요일)","maleToilets":12,"femaleToilets":9,"disabled":true,"diaperTable":false,"emergencyBell":true,"cctv":false,"managerTel":"0438503974","source":"public","category":"public"},{"id":"202543900000100180","name":"호암체육관(4개)","lat":36.962719,"lng":127.926906,"roadAddr":"충청북도 충주시 중원대로 3306","jibunAddr":"충청북도 충주시 호암동 569","openHours":"09:00~22:00","maleToilets":28,"femaleToilets":10,"disabled":true,"diaperTable":false,"emergencyBell":true,"cctv":true,"managerTel":"0438309223","source":"public","category":"public"},{"id":"202543900000100015","name":"이강한방병원","lat":36.987493,"lng":127.929775,"roadAddr":"충청북도 충주시 번영대로 109-0 (연수동)","openHours":"09:00~18:00","maleToilets":16,"femaleToilets":13,"disabled":true,"diaperTable":false,"emergencyBell":false,"cctv":false,"managerTel":"0438552010","source":"public","category":"public"},{"id":"202543900000100195","name":"충주시건강복지타운보건동 화장실(4개)","lat":36.970862,"lng":127.928054,"roadAddr":"충청북도 충주시 사직산21길 34","jibunAddr":"충청북도 충주시 문화동 1655","openHours":"09:00~18:00","maleToilets":20,"femaleToilets":24,"disabled":true,"diaperTable":false,"emergencyBell":true,"cctv":true,"managerTel":"0438503495","source":"public","category":"public"},{"id":"202543900000100100","name":"국민건강보험공단 충주지사","lat":36.990388,"lng":127.927508,"roadAddr":"충청북도 충주시 금제13길 6","openHours":"09:00~18:00","maleToilets":2,"femaleToilets":1,"disabled":true,"diaperTable":false,"emergencyBell":false,"cctv":false,"managerTel":"0438404027","source":"public","category":"public"},{"id":"202543900000100228","name":"성내충인동 행정복지센터 화장실(2개)","lat":36.973425,"lng":127.933874,"roadAddr":"충청북도 충주시 충인 6길 46(성내동)","jibunAddr":"충청북도 충주시 성내동 1","openHours":"09:00~18:00","maleToilets":10,"femaleToilets":4,"disabled":true,"diaperTable":true,"emergencyBell":false,"cctv":true,"managerTel":"0438508343","source":"public","category":"public"},{"id":"202543900000100226","name":"용산동생활체육공원화장실","lat":36.966983,"lng":127.936203,"roadAddr":"충청북도 충주시 용정7길 25-1(용산동)","jibunAddr":"충청북도 충주시 용산동 157","openHours":"상시","maleToilets":2,"femaleToilets":2,"disabled":true,"diaperTable":false,"emergencyBell":true,"cctv":false,"managerTel":"0438508373","source":"public","category":"public"},{"id":"202543900000100004","name":"건국대학교충주병원","lat":36.979317,"lng":127.929074,"roadAddr":"충청북도 충주시 국원대로 82 (교현동)","openHours":"09:00~18:00","maleToilets":21,"femaleToilets":18,"disabled":true,"diaperTable":true,"emergencyBell":true,"cctv":false,"managerTel":"0438408200","source":"public","category":"public"},{"id":"202543900000100134","name":"충주경찰서 연수지구대","lat":36.989623,"lng":127.930428,"roadAddr":"충청북도 충주시 연수서편2길 8","openHours":"09:00~09:00","maleToilets":7,"femaleToilets":2,"disabled":false,"diaperTable":false,"emergencyBell":false,"cctv":false,"managerTel":"0438806723","source":"public","category":"public"},{"id":"202543900000100135","name":"충주경찰서","lat":36.976108,"lng":127.935536,"roadAddr":"충청북도 충주시 예성로 218","openHours":"09:00~09:00","maleToilets":10,"femaleToilets":5,"disabled":true,"diaperTable":false,"emergencyBell":false,"cctv":true,"managerTel":"0438806321","source":"public","category":"public"},{"id":"202543900000100008","name":"충주현대요양병원","lat":36.988582,"lng":127.930712,"roadAddr":"충청북도 충주시 연수상가3길 14 (연수동)","openHours":"09:00~18:00","maleToilets":0,"femaleToilets":0,"disabled":true,"diaperTable":false,"emergencyBell":true,"cctv":true,"managerTel":"0438578009","source":"public","category":"public"},{"id":"202543900000100279","name":"자유시장고객지원센터 화장실","lat":36.973931,"lng":127.930671,"roadAddr":"충청북도 충주시 충인6길 16(충의동)","jibunAddr":"충청북도 충주시 충의동 192 명인한의원","openHours":"09:00~18:00","maleToilets":4,"femaleToilets":7,"disabled":false,"diaperTable":false,"emergencyBell":true,"cctv":false,"managerTel":"0438471735","source":"public","category":"public"},{"id":"202543900000100042","name":"남산클린주유소 화장실","lat":36.966234,"lng":127.947385,"roadAddr":"충청북도 충주시 금봉대로 352(교현동)","jibunAddr":"충청북도 충주시 교현동 89-1","openHours":"00:00~23:30","maleToilets":2,"femaleToilets":1,"disabled":false,"diaperTable":false,"emergencyBell":false,"cctv":false,"managerTel":"0438513530","source":"public","category":"public"},{"id":"202543900000100204","name":"충주천 제1공영주차장 화장실","lat":36.972453,"lng":127.930544,"roadAddr":"충청북도 충주시 성서5길 7","jibunAddr":"충청북도 충주시 성서동 48-6","openHours":"상시","maleToilets":3,"femaleToilets":2,"disabled":false,"diaperTable":false,"emergencyBell":true,"cctv":false,"managerTel":"0438508343","source":"public","category":"public"},{"id":"202543900000100194","name":"충주시건강복지타운복지동 화장실(4개)","lat":36.970862,"lng":127.928054,"roadAddr":"충청북도 충주시 사직산21길 34","jibunAddr":"충청북도 충주시 문화동 1655","openHours":"09:00~18:00","maleToilets":21,"femaleToilets":31,"disabled":true,"diaperTable":false,"emergencyBell":true,"cctv":true,"managerTel":"0438503495","source":"public","category":"public"},{"id":"202543900000100104","name":"국립농산물품질관리원 충주사무소 1층 화장실","lat":36.981439,"lng":127.929371,"roadAddr":"충청북도 충주시 대흥4길 7","openHours":"09:00~18:00","maleToilets":2,"femaleToilets":2,"disabled":false,"diaperTable":false,"emergencyBell":false,"cctv":false,"managerTel":"0438490414","source":"public","category":"public"},{"id":"202543900000100329","name":"금제공원화장실","lat":36.989327,"lng":127.925449,"roadAddr":"충청북도 충주시 시청로 23","jibunAddr":"충청북도 충주시 금릉동 691","openHours":"상시","maleToilets":3,"femaleToilets":1,"disabled":true,"diaperTable":false,"emergencyBell":true,"cctv":false,"managerTel":"0438506172","source":"public","category":"public"},{"id":"202543900000100221","name":"연수동행정복지센터공중화장실(3개)","lat":36.986687,"lng":127.934158,"roadAddr":"충청북도 충주시 예성로 344","jibunAddr":"충청북도 충주시 연수동 529-1","openHours":"09:00~18:00","maleToilets":15,"femaleToilets":9,"disabled":true,"diaperTable":false,"emergencyBell":false,"cctv":false,"managerTel":"0438508953","source":"public","category":"public"},{"id":"202543900000100044","name":"희망주유소화장실","lat":36.970298,"lng":127.947051,"roadAddr":"충청북도 충주시 금봉대로 398(안림동)","jibunAddr":"충청북도 충주시 안림동 1090-5","openHours":"06:00-22:00","maleToilets":2,"femaleToilets":2,"disabled":false,"diaperTable":false,"emergencyBell":false,"cctv":false,"managerTel":"0438455651","source":"public","category":"public"},{"id":"202543900000100006","name":"의료법인중원의료재단충주중앙병원","lat":36.974045,"lng":127.933141,"roadAddr":"충청북도 충주시 충인1길 60 (충인동)","openHours":"09:00~18:00","maleToilets":4,"femaleToilets":1,"disabled":true,"diaperTable":false,"emergencyBell":false,"cctv":false,"managerTel":"0438562100","source":"public","category":"public"},{"id":"202543900000100009","name":"호암병원","lat":36.960413,"lng":127.928428,"roadAddr":"충청북도 충주시 예성로 16 (호암동)","jibunAddr":"충청북도 충주시 호암동 548-5","openHours":"09:00~18:00","maleToilets":27,"femaleToilets":11,"disabled":true,"diaperTable":false,"emergencyBell":false,"cctv":true,"managerTel":"0438523800","source":"public","category":"public"},{"id":"202543900000100166","name":"충주소방서 호암안전센터 1층","lat":36.959244,"lng":127.927947,"roadAddr":"충청북도 충주시 호암대로 13","jibunAddr":"충청북도 충주시 호암동 543-29","openHours":"08:00~20:00","maleToilets":0,"femaleToilets":0,"disabled":false,"diaperTable":false,"emergencyBell":false,"cctv":false,"managerTel":"0438413122","source":"public","category":"public"},{"id":"202543900000100316","name":"동수공원화장실","lat":36.985686,"lng":127.948768,"roadAddr":"충청북도 충주시 번영대로 270-10(연수동)","jibunAddr":"충청북도 충주시 연수동 산60-1","openHours":"상시","maleToilets":2,"femaleToilets":2,"disabled":true,"diaperTable":true,"emergencyBell":true,"cctv":false,"managerTel":"0438506172","source":"public","category":"public"},{"id":"202543900000100330","name":"충주문화회관 화장실","lat":36.970619,"lng":127.937221,"roadAddr":"충청북도 충주시 중앙로 128","jibunAddr":"충청북도 충주시 성내동 215","openHours":"06:00~18:00","maleToilets":4,"femaleToilets":3,"disabled":true,"diaperTable":false,"emergencyBell":true,"cctv":true,"managerTel":"0438503912","source":"public","category":"public"},{"id":"202543900000100265","name":"충주체육관 화장실(3개)","lat":36.981692,"lng":127.93658,"roadAddr":"충청북도 충주시 예성로 266(연수동)","jibunAddr":"충청북도 충주시 연수동 440 실내체육관","openHours":"08:00~20:00","maleToilets":36,"femaleToilets":28,"disabled":false,"diaperTable":false,"emergencyBell":true,"cctv":false,"managerTel":"0438503902","source":"public","category":"public"},{"id":"202543900000100203","name":"충주천 제2공영주차장 화장실","lat":36.970732,"lng":127.930577,"roadAddr":"충청북도 충주시 성서1길 42(성서동)","jibunAddr":"충청북도 충주시 성서동 447","openHours":"상시","maleToilets":3,"femaleToilets":3,"disabled":false,"diaperTable":false,"emergencyBell":true,"cctv":false,"managerTel":"0438508343","source":"public","category":"public"},{"id":"202543900000100285","name":"자유시장 주차장 공중화장실","lat":36.97421,"lng":127.932753,"roadAddr":"충청북도 충주시 충인4길 20","jibunAddr":"충청북도 충주시 충인동 291","openHours":"상시","maleToilets":6,"femaleToilets":4,"disabled":true,"diaperTable":false,"emergencyBell":true,"cctv":true,"managerTel":"0438508343","source":"public","category":"public"},{"id":"202543900000100099","name":"국민연금공단","lat":36.993188,"lng":127.928805,"roadAddr":"충청북도 충주시 국원대로 242","openHours":"09:00~18:00","maleToilets":5,"femaleToilets":3,"disabled":true,"diaperTable":false,"emergencyBell":false,"cctv":false,"managerTel":"0438400772","source":"public","category":"public"},{"id":"202543900000100090","name":"서림주유소화장실","lat":36.963097,"lng":127.93966,"roadAddr":"충청북도 충주시 형설로102(용산동)","jibunAddr":"충청북도 충주시 용산동 1527","openHours":"상시","maleToilets":2,"femaleToilets":1,"disabled":false,"diaperTable":false,"emergencyBell":false,"cctv":false,"managerTel":"0438529800","source":"public","category":"public"},{"id":"202543900000100149","name":"충주금릉동우체국 영업장 내부","lat":36.990425,"lng":127.927756,"roadAddr":"충청북도 충주시 금제13길 8","openHours":"09:00 ~ 18:00","maleToilets":2,"femaleToilets":1,"disabled":false,"diaperTable":false,"emergencyBell":false,"cctv":false,"managerTel":"0438546833","source":"public","category":"public"},{"id":"202543900000100227","name":"용산동 행정복지센터 화장실","lat":36.964223,"lng":127.938718,"roadAddr":"충청북도 충주시 거룡6길 35(용산동)","jibunAddr":"충청북도 충주시 용산동 613","openHours":"09:00~18:00","maleToilets":3,"femaleToilets":2,"disabled":true,"diaperTable":true,"emergencyBell":true,"cctv":false,"managerTel":"0438508373","source":"public","category":"public"},{"id":"202543900000100202","name":"교현안림동 행정복지센터화장실","lat":36.971534,"lng":127.947726,"roadAddr":"충청북도 충주시 금봉대로 410(안림동)","jibunAddr":"충청북도 충주시 안림동 1073 교현안림동주민센터","openHours":"09:00~18:00","maleToilets":7,"femaleToilets":10,"disabled":true,"diaperTable":true,"emergencyBell":false,"cctv":false,"managerTel":"0438502440","source":"public","category":"public"},{"id":"202543900000100150","name":"충주성내동우체국 뒷편 로비","lat":36.969966,"lng":127.935692,"roadAddr":"충청북도 충주시 관아1길 20","openHours":"09:00 ~ 18:00","maleToilets":2,"femaleToilets":1,"disabled":false,"diaperTable":false,"emergencyBell":false,"cctv":true,"managerTel":"0438473553","source":"public","category":"public"},{"id":"202543900000100324","name":"용산시민휴식공원","lat":36.966023,"lng":127.933446,"roadAddr":"충청북도 충주시 예성로 101(용산동)","jibunAddr":"충청북도 충주시 용산동 104","openHours":"상시","maleToilets":2,"femaleToilets":1,"disabled":true,"diaperTable":false,"emergencyBell":true,"cctv":false,"managerTel":"0438506172","source":"public","category":"public"},{"id":"202543900000100246","name":"충주시청","lat":36.990736,"lng":127.926555,"roadAddr":"충청북도 충주시 으뜸로 21(금릉동)","jibunAddr":"충청북도 충주시 금릉동 700번지","openHours":"09:00~18:00","maleToilets":153,"femaleToilets":51,"disabled":true,"diaperTable":true,"emergencyBell":false,"cctv":true,"managerTel":"0438505643","source":"public","category":"public"},{"id":"202543900000100257","name":"청소년수련원(1,2,3층)","lat":36.965023,"lng":127.926401,"roadAddr":"충청북도 충주시 중원대로 3324(호암동)","jibunAddr":"충청북도 충주시 호암동 562","openHours":"09:00~21:00(일요일)","maleToilets":26,"femaleToilets":14,"disabled":true,"diaperTable":false,"emergencyBell":true,"cctv":true,"managerTel":"0438506862","source":"public","category":"public"},{"id":"202543900000100175","name":"국민체육센터(2개)","lat":36.962719,"lng":127.926906,"roadAddr":"충청북도 충주시 중원대로 3306","jibunAddr":"충청북도 충주시 호암동 569","openHours":"06:00~21:00","maleToilets":5,"femaleToilets":2,"disabled":true,"diaperTable":false,"emergencyBell":true,"cctv":true,"managerTel":"0438309223","source":"public","category":"public"},{"id":"202543900000100326","name":"남양공원화장실","lat":36.984722,"lng":127.931468,"roadAddr":"충청북도 충주시 연원5길 38(연수동)","jibunAddr":"충청북도 충주시 연수동 929","openHours":"상시","maleToilets":2,"femaleToilets":1,"disabled":true,"diaperTable":false,"emergencyBell":true,"cctv":false,"managerTel":"0438506172","source":"public","category":"public"},{"id":"202543900000100308","name":"충주시노인복지관 남부분관 공중화장실","lat":36.958233,"lng":127.931034,"roadAddr":"충청북도 충주시 신촌8길 1(지현동)","jibunAddr":"충청북도 충주시 지현동 2161","openHours":"09:00~18:00","maleToilets":22,"femaleToilets":14,"disabled":true,"diaperTable":false,"emergencyBell":true,"cctv":true,"managerTel":"0437243345","source":"public","category":"public"},{"id":"202543900000100179","name":"호암체육관 야외화장실","lat":36.965023,"lng":127.926401,"roadAddr":"충청북도 충주시 중원대로 3324","jibunAddr":"충청북도 충주시 호암동 562","openHours":"상시","maleToilets":2,"femaleToilets":2,"disabled":true,"diaperTable":false,"emergencyBell":true,"cctv":true,"managerTel":"0438309223","source":"public","category":"public"},{"id":"202543900000100200","name":"충주천 제3공영주차장 화장실","lat":36.97113,"lng":127.929327,"roadAddr":"충청북도 충주시 사직산22길 14(지현동)","jibunAddr":"충청북도 충주시 지현동 4","openHours":"상시","maleToilets":3,"femaleToilets":3,"disabled":false,"diaperTable":false,"emergencyBell":true,"cctv":false,"managerTel":"0438502472","source":"public","category":"public"},{"id":"202543900000100043","name":"일광주유소화장실","lat":36.969848,"lng":127.95286,"roadAddr":"충청북도 충주시 안림로 54(안림동)","jibunAddr":"충청북도 충주시 안림동 523-3","openHours":"06:00-22:00","maleToilets":4,"femaleToilets":2,"disabled":false,"diaperTable":false,"emergencyBell":false,"cctv":false,"managerTel":"0438522918","source":"public","category":"public"},{"id":"202543900000100014","name":"김앤권병원","lat":36.987431,"lng":127.94429,"roadAddr":"충청북도 충주시 번영대로 239-0 (연수동)","openHours":"09:00~18:00","maleToilets":12,"femaleToilets":12,"disabled":true,"diaperTable":false,"emergencyBell":false,"cctv":false,"managerTel":"0438481123","source":"public","category":"public"},{"id":"202543900000100277","name":"근로자종합복지관 화장실","lat":36.975675,"lng":127.928787,"roadAddr":"충청북도 충주시 충인1길 16(충의동)","jibunAddr":"충청북도 충주시 충의동 14 충주시근로자종합복지관","openHours":"09:00~18:00","maleToilets":2,"femaleToilets":2,"disabled":false,"diaperTable":false,"emergencyBell":true,"cctv":false,"managerTel":"0438512839","source":"public","category":"public"},{"id":"202543900000100271","name":"성서동 공설시장 화장실","lat":36.972545,"lng":127.92962,"roadAddr":"충청북도 충주시 성서1길 63(성서동)","jibunAddr":"충청북도 충주시 성서동 13","openHours":"상시","maleToilets":3,"femaleToilets":2,"disabled":false,"diaperTable":false,"emergencyBell":true,"cctv":true,"managerTel":"0438508343","source":"public","category":"public"},{"id":"202543900000100045","name":"해운주유소화장실","lat":36.974851,"lng":127.94047,"roadAddr":"충청북도 충주시 갱고개로 44(교현동)","jibunAddr":"충청북도 충주시 교현동 168-4","openHours":"상시","maleToilets":2,"femaleToilets":1,"disabled":false,"diaperTable":false,"emergencyBell":false,"cctv":false,"managerTel":"0438529800","source":"public","category":"public"},{"id":"202543900000100181","name":"호암제2체육관(3개)","lat":36.962719,"lng":127.926906,"roadAddr":"충청북도 충주시 중원대로 3306","jibunAddr":"충청북도 충주시 호암동 560","openHours":"06:00~22:00","maleToilets":20,"femaleToilets":14,"disabled":true,"diaperTable":false,"emergencyBell":true,"cctv":true,"managerTel":"0438309223","source":"public","category":"public"},{"id":"202543900000100301","name":"남산등산로 공중화장실","lat":36.959386,"lng":127.954206,"roadAddr":"충청북도 충주시 남산1길 87","jibunAddr":"충청북도  충주시 용산동 산11","openHours":"상시","maleToilets":3,"femaleToilets":3,"disabled":true,"diaperTable":true,"emergencyBell":true,"cctv":false,"managerTel":"0438505832","source":"public","category":"public"},{"id":"202543900000100193","name":"충주시건강복지타운복지동 외부 화장실","lat":36.970862,"lng":127.928054,"roadAddr":"충청북도 충주시 사직산21길 34","jibunAddr":"충청북도 충주시 문화동 1655","openHours":"상시","maleToilets":1,"femaleToilets":2,"disabled":true,"diaperTable":false,"emergencyBell":true,"cctv":true,"managerTel":"0438503495","source":"public","category":"public"},{"id":"202543900000100133","name":"충주경찰서 중앙지구대","lat":36.972077,"lng":127.935617,"roadAddr":"충청북도 충주시 중앙로 109","openHours":"09:00~09:00","maleToilets":3,"femaleToilets":1,"disabled":false,"diaperTable":false,"emergencyBell":false,"cctv":false,"managerTel":"0438806713","source":"public","category":"public"},{"id":"202543900000100281","name":"무학시장화장실(1)","lat":36.973415,"lng":127.928922,"roadAddr":"충청북도 충주시 무학천변길 101(봉방동)","jibunAddr":"충청북도 충주시 봉방동 773-3","openHours":"상시","maleToilets":2,"femaleToilets":1,"disabled":false,"diaperTable":false,"emergencyBell":true,"cctv":false,"managerTel":"0438482292","source":"public","category":"public"},{"id":"202543900000100276","name":"무학시장 고객지원센터화장실","lat":36.974598,"lng":127.927263,"roadAddr":"충청북도 충주시 무학1길 19(봉방동)","jibunAddr":"충청북도 충주시 봉방동 8-6","openHours":"상시","maleToilets":4,"femaleToilets":2,"disabled":false,"diaperTable":false,"emergencyBell":true,"cctv":false,"managerTel":"0438482292","source":"public","category":"public"},{"id":"202543900000100041","name":"현대오일뱅크 새마을금고지현주유소 화장실","lat":36.96447,"lng":127.933838,"roadAddr":"충청북도 충주시 예성로 86(지현동)","jibunAddr":"충청북도 충주시 지현동 1455 오일뱅크셀프주유소","openHours":"상시","maleToilets":2,"femaleToilets":1,"disabled":false,"diaperTable":false,"emergencyBell":false,"cctv":false,"managerTel":"0438556704","source":"public","category":"public"},{"id":"202543900000100282","name":"무학시장화장실(3)","lat":36.974332,"lng":127.927961,"roadAddr":"충청북도 충주시 무학천변길 86-7(봉방동)","jibunAddr":"충청북도 충주시 봉방동 1-31","openHours":"상시","maleToilets":4,"femaleToilets":2,"disabled":false,"diaperTable":false,"emergencyBell":true,"cctv":false,"managerTel":"0438482292","source":"public","category":"public"},{"id":"202543900000100005","name":"의료법인 용은의료재단 충주요양병원","lat":36.973338,"lng":127.925499,"roadAddr":"충청북도 충주시 중심3길 4-2 (문화동)","openHours":"09:00~18:00","maleToilets":9,"femaleToilets":13,"disabled":true,"diaperTable":false,"emergencyBell":true,"cctv":false,"managerTel":"0438439300","source":"public","category":"public"},{"id":"202543900000100109","name":"청주지방검찰청 충주지청","lat":36.98316,"lng":127.925592,"roadAddr":"충청북도 충주시 계명대로 101","jibunAddr":"충청북도 충주시 교현2동 720-2","openHours":"09:00 ~ 18:00","maleToilets":4,"femaleToilets":2,"disabled":true,"diaperTable":false,"emergencyBell":false,"cctv":false,"managerTel":"0438414547","source":"public","category":"public"},{"id":"202543900000100344","name":"우륵당화장실","lat":36.965023,"lng":127.926401,"roadAddr":"충청북도 충주시 중원대로 3324(호암동)","jibunAddr":"충청북도 충주시 호암동 562","openHours":"10:00 ~ 18:00","maleToilets":16,"femaleToilets":7,"disabled":true,"diaperTable":false,"emergencyBell":true,"cctv":false,"managerTel":"0438505964","source":"public","category":"public"},{"id":"202543900000100178","name":"호암예술관(2개)","lat":36.962719,"lng":127.926906,"roadAddr":"충청북도 충주시 중원대로 3306","jibunAddr":"충청북도 충주시 호암동 569","openHours":"09:00~22:00","maleToilets":3,"femaleToilets":8,"disabled":true,"diaperTable":false,"emergencyBell":true,"cctv":true,"managerTel":"0438309223","source":"public","category":"public"},{"id":"202543900000100333","name":"택견전수관화장실","lat":36.965023,"lng":127.926401,"roadAddr":"충청북도 충주시 중원대로 3324(호암동)","jibunAddr":"충청북도 충주시 호암동 562","openHours":"10:00~18:00","maleToilets":7,"femaleToilets":3,"disabled":false,"diaperTable":false,"emergencyBell":true,"cctv":false,"managerTel":"0438505982","source":"public","category":"public"},{"id":"202543900000100284","name":"중소상인회관공중화장실","lat":36.975569,"lng":127.929548,"roadAddr":"충청북도 충주시 충인1길 22(충의동)","jibunAddr":"충청북도 충주시 충의동 35","openHours":"상시","maleToilets":11,"femaleToilets":7,"disabled":true,"diaperTable":false,"emergencyBell":true,"cctv":false,"managerTel":"0438471735","source":"public","category":"public"},{"id":"202543900000100046","name":"수채주유소화장실","lat":36.977659,"lng":127.940367,"roadAddr":"충청북도 충주시 갱고개로 74(교현동)","jibunAddr":"충청북도 충주시 교현동 446-1","openHours":"05:00~24:00","maleToilets":2,"femaleToilets":1,"disabled":false,"diaperTable":false,"emergencyBell":false,"cctv":false,"managerTel":"0438465777","source":"public","category":"public"},{"id":"202543900000100309","name":"충주시노인복지관 공중화장실","lat":36.980591,"lng":127.926455,"roadAddr":"충청북도 충주시 대가미13길 20(교현동)","jibunAddr":"충청북도 충주시 교현동 714","openHours":"09:00~18:00","maleToilets":12,"femaleToilets":8,"disabled":true,"diaperTable":false,"emergencyBell":true,"cctv":true,"managerTel":"0438578683","source":"public","category":"public"},{"id":"202543900000100332","name":"음악창작소 화장실","lat":36.967008,"lng":127.928198,"roadAddr":"충청북도 충주시 사직로 140(문화동)","jibunAddr":"충청북도 충주시 문화동 2789","openHours":"상시","maleToilets":3,"femaleToilets":3,"disabled":true,"diaperTable":false,"emergencyBell":true,"cctv":false,"managerTel":"0438425972","source":"public","category":"public"},{"id":"202543900000100225","name":"지현동 행정복지센터 화장실","lat":36.96833,"lng":127.932235,"roadAddr":"충청북도 충주시 지현천변1길 41(지현동)","jibunAddr":"충청북도 충주시 지현동 507","openHours":"09:00~18:00","maleToilets":7,"femaleToilets":3,"disabled":true,"diaperTable":true,"emergencyBell":false,"cctv":false,"managerTel":"0438502472","source":"public","category":"public"},{"id":"202543900000100327","name":"대가미공원화장실","lat":36.980591,"lng":127.926455,"roadAddr":"충청북도 충주시 대가미13길 20","jibunAddr":"충청북도 충주시 교현동 721-1","openHours":"상시","maleToilets":10,"femaleToilets":5,"disabled":true,"diaperTable":true,"emergencyBell":true,"cctv":false,"managerTel":"0438506172","source":"public","category":"public"},{"id":"202543900000100274","name":"연원시장 화장실","lat":36.989582,"lng":127.935557,"roadAddr":"충청북도 충주시 금곡로 37(연수동)","jibunAddr":"충청북도 충주시 연수동 550-1","openHours":"09:00~21:00","maleToilets":3,"femaleToilets":2,"disabled":false,"diaperTable":false,"emergencyBell":true,"cctv":false,"managerTel":"0438471735","source":"public","category":"public"},{"id":"202543900000100280","name":"충주누리센터 화장실","lat":36.975345,"lng":127.929032,"roadAddr":"충청북도 충주시 충인1길 12(충의동)","jibunAddr":"충청북도 충주시 충의동 18","openHours":"09:00~18:00","maleToilets":5,"femaleToilets":9,"disabled":false,"diaperTable":false,"emergencyBell":true,"cctv":false,"managerTel":"0438471735","source":"public","category":"public"},{"id":"202543900000100278","name":"자유시장 제5주차장 화장실","lat":36.973052,"lng":127.932253,"roadAddr":"충청북도 충주시 충인2길 6-7(충의동)","jibunAddr":"충청북도 충주시 충인동 323","openHours":"09:00~18:00","maleToilets":1,"femaleToilets":1,"disabled":false,"diaperTable":false,"emergencyBell":true,"cctv":false,"managerTel":"0438471735","source":"public","category":"public"},{"id":"202543900000100335","name":"관아공원화장실","lat":36.97035,"lng":127.935854,"roadAddr":"충청북도 충주시 관아1길 21(성내동)","jibunAddr":"충청북도 충주시 성내동 232-2","openHours":"상시","maleToilets":3,"femaleToilets":1,"disabled":true,"diaperTable":false,"emergencyBell":true,"cctv":false,"managerTel":"0438505982","source":"public","category":"public"},{"id":"202543900000100199","name":"문화동행정복지센터 화장실(2개)","lat":36.971685,"lng":127.92553,"roadAddr":"충청북도 충주시 사직산6길 46(문화동)","jibunAddr":"충청북도 충주시 문화동 1523","openHours":"09:00~18:00","maleToilets":10,"femaleToilets":4,"disabled":true,"diaperTable":false,"emergencyBell":false,"cctv":false,"managerTel":"0438508392","source":"public","category":"public"},{"id":"202543900000100320","name":"만리2호공원화장실","lat":36.97337,"lng":127.94108,"roadAddr":"충청북도 충주시 만리산 8길12(교현동)","jibunAddr":"충청북도 충주시 교현동 164-3","openHours":"상시","maleToilets":3,"femaleToilets":3,"disabled":false,"diaperTable":false,"emergencyBell":true,"cctv":false,"managerTel":"0438506172","source":"public","category":"public"}]