[{"id":"202543900000100234","name":"중앙탑면행정복지센터화장실","lat":37.02881,"lng":127.857331,"roadAddr":"충청북도 충주시 중앙탑길 247","jibunAddr":"충청북도 충주시 중앙탑면 탑평리 180-5","openHours":"09:00 ~ 18:00","maleToilets":5,"femaleToilets":2,"disabled":true,"diaperTable":false,"emergencyBell":false,"cctv":false,"managerTel":"0438502375","source":"public","category":"public"},{"id":"202543900000100262","name":"조정경기장 화장실","lat":37.023084,"lng":127.861925,"roadAddr":"충청북도 충주시 중앙탑면 중앙탑길 150","jibunAddr":"충청북도 충주시 중앙탑면 탑평리 137","openHours":"상시","maleToilets":3,"femaleToilets":7,"disabled":true,"diaperTable":true,"emergencyBell":true,"cctv":false,"managerTel":"0438502991","source":"public","category":"public"},{"id":"202543900000100334","name":"루암리고분군 화장실","lat":37.002027,"lng":127.865432,"roadAddr":"충청북도 충주시 중앙탑면 루암고분길 51","jibunAddr":"충청북도 충주시 중앙탑면 루암리 347","openHours":"상시","maleToilets":2,"femaleToilets":2,"disabled":true,"diaperTable":false,"emergencyBell":true,"cctv":false,"managerTel":"0438505982","source":"public","category":"public"},{"id":"202543900000100349","name":"중앙탑공원 소형주차장 화장실","lat":37.014971,"lng":127.866785,"roadAddr":"충청북도 충주시 중앙탑면 루암리115-1","jibunAddr":"충청북도 충주시 중앙탑면 루암리115-1","openHours":"상시","maleToilets":3,"femaleToilets":3,"disabled":true,"diaperTable":false,"emergencyBell":true,"cctv":false,"managerTel":"0438506753","source":"public","category":"public"},{"id":"202543900000100348","name":"중앙탑공원 야외화장실","lat":37.017844,"lng":127.866194,"roadAddr":"충청북도 충주시 중앙탑면 탑정안길 6","jibunAddr":"충청북도 충주시 중앙탑면 탑평리 19","openHours":"상시","maleToilets":5,"femaleToilets":3,"disabled":true,"diaperTable":false,"emergencyBell":true,"cctv":false,"managerTel":"0438506753","source":"public","category":"public"},{"id":"202543900000100256","name":"충주박물관 화장실(2개)","lat":37.016685,"lng":127.865127,"roadAddr":"충청북도 충주시 중앙탑면 중앙탑길 112-28","jibunAddr":"충청북도 충주시 중앙탑면 탑평리 47-5","openHours":"09:00~18:00(월요일)","maleToilets":8,"femaleToilets":5,"disabled":true,"diaperTable":false,"emergencyBell":true,"cctv":false,"managerTel":"0438503923","source":"public","category":"public"},{"id":"202543900000100066","name":"중앙알뜰주유소 화장실","lat":37.008713,"lng":127.86798,"roadAddr":"충청북도 충주시 중앙탑면 청금로 288","jibunAddr":"충청북도 충주시 중앙탑면 루암리 165-15","openHours":"09:00~18:00","maleToilets":2,"femaleToilets":1,"disabled":false,"diaperTable":false,"emergencyBell":false,"cctv":false,"managerTel":"0438567177","source":"public","category":"public"},{"id":"202543900000100115","name":"충주휴게소 화장실(양평방향) 주유소","lat":37.023217,"lng":127.839469,"roadAddr":"충청북도 충주시 중앙탑면 중부내륙고속도로 230","jibunAddr":"충청북도 충주시 중앙탑면 용전리 384-1 충주휴게소(양평방향)","openHours":"09:00~18:00","maleToilets":2,"femaleToilets":1,"disabled":false,"diaperTable":false,"emergencyBell":false,"cctv":false,"managerTel":"0438570772","source":"public","category":"public"},{"id":"202543900000100128","name":"충주경찰서 중앙탑파출소","lat":37.029286,"lng":127.856753,"roadAddr":"충청북도 충주시 중앙탑길 251","openHours":"09:00~09:00","maleToilets":2,"femaleToilets":1,"disabled":false,"diaperTable":false,"emergencyBell":false,"cctv":false,"managerTel":"0438806772","source":"public","category":"public"},{"id":"202543900000100117","name":"충주휴게소 화장실(창원방향) 주유소","lat":37.02097,"lng":127.838811,"roadAddr":"충청북도 충주시 중앙탑면 중부내륙고속도로 231-1","jibunAddr":"충청북도 충주시 중앙탑면 용전리 산50-3 충주휴게소-주유소(마산기점)","openHours":"09:00~18:00","maleToilets":2,"femaleToilets":1,"disabled":false,"diaperTable":false,"emergencyBell":false,"cctv":false,"managerTel":"0438577371","source":"public","category":"public"},{"id":"202543900000100116","name":"충주휴게소 화장실(양평방향)","lat":37.024059,"lng":127.838006,"roadAddr":"충청북도 충주시 중앙탑면 중부내륙고속도로 230-1","jibunAddr":"충청북도 충주시 중앙탑면 용전리 380-4","openHours":"상시","maleToilets":26,"femaleToilets":37,"disabled":true,"diaperTable":true,"emergencyBell":true,"cctv":true,"managerTel":"0438579229","source":"public","category":"public"},{"id":"202543900000100331","name":"고구려천문과학관화장실","lat":37.040259,"lng":127.848468,"roadAddr":"충청북도 충주시 중앙탑면 묘곡내동길 100","jibunAddr":"충청북도 충주시 중앙탑면 하구암리 143-3","openHours":"상시","maleToilets":6,"femaleToilets":4,"disabled":true,"diaperTable":false,"emergencyBell":true,"cctv":false,"managerTel":"0438505972","source":"public","category":"public"},{"id":"202543900000100187","name":"반천지구 화장실","lat":37.042446,"lng":127.860605,"jibunAddr":"충청북도 충주시 중앙탑면 장천리 산77-9","openHours":"상시","maleToilets":2,"femaleToilets":1,"disabled":false,"diaperTable":false,"emergencyBell":true,"cctv":false,"managerTel":"0438503642","source":"public","category":"public"},{"id":"202543900000100064","name":"금천주유소 화장실","lat":37.023513,"lng":127.84779,"roadAddr":"충청북도 충주시 중앙탑면 탄금대로 949","jibunAddr":"충청북도 충주시 중앙탑면 용전리 241-2 주유소","openHours":"09:00~18:00","maleToilets":2,"femaleToilets":1,"disabled":false,"diaperTable":false,"emergencyBell":false,"cctv":false,"managerTel":"0438556326","source":"public","category":"public"},{"id":"202543900000100118","name":"충주휴게소 화장실(창원방향)","lat":37.022387,"lng":127.836955,"roadAddr":"충청북도 충주시 중앙탑면 중부내륙고속도로 231","jibunAddr":"충청북도 충주시 중앙탑면 용전리 산50-3","openHours":"상시","maleToilets":45,"femaleToilets":45,"disabled":true,"diaperTable":true,"emergencyBell":true,"cctv":true,"managerTel":"0438579339","source":"public","category":"public"},{"id":"202543900000100339","name":"충주고구려비전시관화장실","lat":37.028291,"lng":127.848254,"roadAddr":"충청북도 충주시 중앙탑면 감노로2319","jibunAddr":"충청북도 충주시 중앙탑면 용전리 280-11","openHours":"상시","maleToilets":8,"femaleToilets":5,"disabled":true,"diaperTable":true,"emergencyBell":true,"cctv":false,"managerTel":"0438505982","source":"public","category":"public"}]