[{"id":"202543900000100130","name":"충주경찰서 엄정파출소","lat":37.086316,"lng":127.914342,"roadAddr":"충청북도 충주시 내창로 179","openHours":"09:00~09:00","maleToilets":0,"femaleToilets":0,"disabled":false,"diaperTable":false,"emergencyBell":false,"cctv":false,"managerTel":"0438806753","source":"public","category":"public"},{"id":"202543900000100272","name":"엄정내창시장거고객쉼터","lat":37.086147,"lng":127.916341,"roadAddr":"충청북도 충주시 엄정면 미내장터길 15","jibunAddr":"충청북도 충주시 엄정면 미내리 161-11","openHours":"09:00~18:00","maleToilets":2,"femaleToilets":1,"disabled":false,"diaperTable":false,"emergencyBell":true,"cctv":false,"managerTel":"0438413122","source":"public","category":"public"},{"id":"202543900000100205","name":"엄정면 행정복지센터(2개)","lat":37.086811,"lng":127.914994,"roadAddr":"충청북도 충주시 엄정면 내창로 185","jibunAddr":"충청북도 충주시 엄정면 용산리 465-4 엄정면사무소","openHours":"09:00~18:00","maleToilets":14,"femaleToilets":6,"disabled":true,"diaperTable":true,"emergencyBell":false,"cctv":false,"managerTel":"0438502412","source":"public","category":"public"},{"id":"202543900000100050","name":"태광주유소","lat":37.077366,"lng":127.910501,"roadAddr":"충청북도 충주시 엄정면 구룡로 214","jibunAddr":"충청북도 충주시 엄정면 율능리 556-3","openHours":"09:00~18:00","maleToilets":6,"femaleToilets":3,"disabled":false,"diaperTable":false,"emergencyBell":false,"cctv":false,"managerTel":"0438511270","source":"public","category":"public"},{"id":"202543900000100144","name":"엄정우체국 출입구 왼편","lat":37.085944,"lng":127.913304,"roadAddr":"충청북도 충주시 엄정면 내창로 171","openHours":"09:00 ~ 18:00","maleToilets":2,"femaleToilets":1,"disabled":true,"diaperTable":false,"emergencyBell":false,"cctv":false,"managerTel":"0438521104","source":"public","category":"public"},{"id":"202543900000100247","name":"엄정꿈터도서관 화장실","lat":37.086987,"lng":127.915345,"roadAddr":"충청북도 충주시 엄정면 자바위길 8","jibunAddr":"충청북도 충주시 엄정면 미내리 158-2 엄정꿈터도서관","openHours":"09:00~18:00","maleToilets":6,"femaleToilets":6,"disabled":true,"diaperTable":false,"emergencyBell":true,"cctv":false,"managerTel":"0438543031","source":"public","category":"public"}]