[{"id":"202543900000100145","name":"앙성우체국 내부","lat":37.108004,"lng":127.751338,"roadAddr":"충청북도 충주시 앙성면 가곡로 1014","openHours":"09:00 ~ 18:00","maleToilets":2,"femaleToilets":1,"disabled":false,"diaperTable":false,"emergencyBell":false,"cctv":false,"managerTel":"0438550011","source":"public","category":"public"},{"id":"202543900000100215","name":"앙성보건지소","lat":37.107473,"lng":127.752697,"roadAddr":"충청북도 충주시 앙성면 내용1길 8","jibunAddr":"충청북도 충주시 앙성면 용포리 96-6 앙성보건지소","openHours":"09:00~18:00","maleToilets":3,"femaleToilets":2,"disabled":false,"diaperTable":false,"emergencyBell":false,"cctv":false,"managerTel":"0438504932","source":"public","category":"public"},{"id":"202543900000100069","name":"오일뱅크앙성주유소","lat":37.102465,"lng":127.749228,"roadAddr":"충청북도 충주시 앙성면 북부로 1085","jibunAddr":"충청북도 충주시 앙성면 용대리 355-4 앙성주유소","openHours":"상시","maleToilets":2,"femaleToilets":1,"disabled":false,"diaperTable":false,"emergencyBell":false,"cctv":true,"managerTel":"0438545159","source":"public","category":"public"},{"id":"202543900000100011","name":"의료법인 목민의료재단 충주성모요양병원","lat":37.100493,"lng":127.790286,"roadAddr":"충청북도 충주시 앙성면 산전장수2길 55","jibunAddr":"충청북도 충주시 앙성면 돈산리 168-2","openHours":"09:00~17:00","maleToilets":6,"femaleToilets":3,"disabled":true,"diaperTable":false,"emergencyBell":true,"cctv":false,"managerTel":"0438442000","source":"public","category":"public"},{"id":"202543900000100161","name":"충주소방서 앙성안전센터 1층","lat":37.108692,"lng":127.752255,"roadAddr":"충청북도 충주시 앙성면 가곡로 1019","jibunAddr":"충청북도 충주시 용포리 479-44","openHours":"08:00~20:00","maleToilets":3,"femaleToilets":1,"disabled":false,"diaperTable":false,"emergencyBell":false,"cctv":false,"managerTel":"0438413122","source":"public","category":"public"},{"id":"202543900000100126","name":"충주경찰서 앙성파출소","lat":37.108198,"lng":127.753406,"roadAddr":"충청북도 충주시 가곡로 1029","openHours":"09:00~09:00","maleToilets":3,"femaleToilets":1,"disabled":false,"diaperTable":false,"emergencyBell":false,"cctv":false,"managerTel":"0438806782","source":"public","category":"public"},{"id":"202543900000100235","name":"앙성면행정복지센터화장실","lat":37.107704,"lng":127.752827,"roadAddr":"충청북도 충주시 앙성면 가곡로 1028","jibunAddr":"충청북도 충주시 앙성면 용포리 102-1","openHours":"09:00 ~ 18:00","maleToilets":14,"femaleToilets":6,"disabled":true,"diaperTable":true,"emergencyBell":false,"cctv":false,"managerTel":"0438502367","source":"public","category":"public"},{"id":"202543900000100155","name":"앙성온천역","lat":37.092264,"lng":127.787093,"roadAddr":"충청북도 충주시 앙성면 가곡로 1390-22","jibunAddr":"충청북도 충주시 앙성면 돈산리 317","openHours":"06:30-20:00","maleToilets":5,"femaleToilets":5,"disabled":true,"diaperTable":false,"emergencyBell":true,"cctv":true,"managerTel":"0436412915","source":"public","category":"public"}]