[{"id":"202238300000101866","name":"병목안시민공원매점옆공중화장실","lat":37.383545,"lng":126.910005,"jibunAddr":"경기도 안양시 만안구 안양동 산81-1","openHours":"00:00~24:00","maleToilets":6,"femaleToilets":5,"disabled":true,"diaperTable":true,"emergencyBell":true,"cctv":false,"managerTel":"03180455285","source":"public","category":"public"},{"id":"202438300000100015","name":"서조체육시설 관리동 화장실","lat":37.394061,"lng":126.892337,"roadAddr":"경기도 안양시 만안구 삼봉로 158 (박달동)","jibunAddr":"경기도 안양시 만안구 박달동 214","openHours":"05:00~24:00","maleToilets":4,"femaleToilets":1,"disabled":false,"diaperTable":false,"emergencyBell":false,"cctv":false,"managerTel":"0313897888","source":"public","category":"public"},{"id":"202238300000101936","name":"안양9동 행정복지센터 화장실","lat":37.391449,"lng":126.908422,"roadAddr":"경기도 안양시 만안구 병목안로142번길 12-9","jibunAddr":"경기도 안양시 만안구 안양동 995-27","openHours":"08:30~18:00","maleToilets":7,"femaleToilets":5,"disabled":true,"diaperTable":false,"emergencyBell":false,"cctv":false,"managerTel":"03180453680","source":"public","category":"public"},{"id":"202238300000101869","name":"병목안자연학습장 공중화장실","lat":37.380695,"lng":126.912405,"jibunAddr":"경기도 안양시 만안구 안양동 산81-7","openHours":"상시","maleToilets":2,"femaleToilets":2,"disabled":false,"diaperTable":false,"emergencyBell":true,"cctv":false,"managerTel":"03180453511","source":"public","category":"public"},{"id":"202438300000100016","name":"서조체육시설다목적구장 화장실","lat":37.394061,"lng":126.892337,"roadAddr":"경기도 안양시 만안구 삼봉로 158 (박달동)","jibunAddr":"경기도 안양시 만안구 박달동 214","openHours":"05:00~24:00","maleToilets":2,"femaleToilets":2,"disabled":true,"diaperTable":false,"emergencyBell":false,"cctv":false,"managerTel":"0313897889","source":"public","category":"public"},{"id":"202238300000101863","name":"병목안 담배촌휴게소 앞 공중화장실","lat":37.378516,"lng":126.905116,"roadAddr":"경기도 안양시 만안구 병목안로 311","jibunAddr":"경기도 안양시 만안구 안양동 1219-201","openHours":"00:00~24:00","maleToilets":2,"femaleToilets":2,"disabled":true,"diaperTable":false,"emergencyBell":true,"cctv":true,"managerTel":"03180452256","source":"public","category":"public"},{"id":"202238300000101864","name":"병목안 수리산약수터입구 공중화장실","lat":37.369104,"lng":126.900917,"roadAddr":"경기도 안양시 만안구 병목안로 475","jibunAddr":"경기도 안양시 만안구 안양동 산79-3","openHours":"00:00~24:00","maleToilets":5,"femaleToilets":5,"disabled":true,"diaperTable":false,"emergencyBell":true,"cctv":true,"managerTel":"03180452256","source":"public","category":"public"},{"id":"202238300000101868","name":"병목안 캠핑장","lat":37.38264,"lng":126.910551,"roadAddr":"경기도 안양시 만안구 병목안로 247번길 37","jibunAddr":"경기도 안양시 만안구 안양9동 산81-10","openHours":"상시","maleToilets":6,"femaleToilets":4,"disabled":true,"diaperTable":false,"emergencyBell":true,"cctv":false,"managerTel":"0313895293","source":"public","category":"public"},{"id":"202238300000101867","name":"병목안 주차장내 공중화장실","lat":37.372512,"lng":126.904548,"jibunAddr":"경기도 안양시 만안구 안양동 1146-2","openHours":"00:00~24:00","maleToilets":2,"femaleToilets":3,"disabled":false,"diaperTable":false,"emergencyBell":true,"cctv":true,"managerTel":"03180452256","source":"public","category":"public"},{"id":"202238300000101865","name":"병목안 시민공원 관리사무소 공중화장실","lat":37.385294,"lng":126.907689,"roadAddr":"경기도 안양시 만안구 병목안로 215","jibunAddr":"경기도 안양시 만안구 안양동 산82-2","openHours":"00:00~24:00","maleToilets":9,"femaleToilets":4,"disabled":true,"diaperTable":true,"emergencyBell":true,"cctv":true,"managerTel":"03180455285","source":"public","category":"public"},{"id":"202639300000100007","name":"안산농협 수암지점","lat":37.362392,"lng":126.875959,"roadAddr":"경기도 안산시 상록구 수인로 2006 (수암동)","jibunAddr":"경기도 안산시 상록구 수암동 503-8","openHours":"09:00 ~ 17:00, 주말 미개방","maleToilets":2,"femaleToilets":1,"disabled":true,"diaperTable":false,"emergencyBell":false,"cctv":true,"managerTel":"0314678636","source":"public","category":"public"},{"id":"202539300000100995","name":"수암봉화장실","lat":37.364375,"lng":126.883296,"roadAddr":"경기도 안산시 상록구 수암3길 39","jibunAddr":"경기도 안산시 상록구 수암동 280-2","openHours":"상시","maleToilets":7,"femaleToilets":7,"disabled":true,"diaperTable":false,"emergencyBell":true,"cctv":false,"managerTel":"0314812345","source":"public","category":"public"},{"id":"202539300000101071","name":"수암마을 전시관 화장실","lat":37.364585,"lng":126.880609,"roadAddr":"경기도 안산시 상록구 원당골3길 34","jibunAddr":"경기도 안산시 상록구 수암동 481-9","openHours":"10:00~17:00","maleToilets":2,"femaleToilets":2,"disabled":true,"diaperTable":false,"emergencyBell":true,"cctv":false,"managerTel":"0314813034","source":"public","category":"public"},{"id":"202539300000101656","name":"엠제이프라자","lat":37.362571,"lng":126.875086,"roadAddr":"경기도 안산시 상록구 갯다리길 7","jibunAddr":"경기도 안산시 상록구 수암동 504-3","openHours":"상시","maleToilets":2,"femaleToilets":1,"disabled":true,"diaperTable":false,"emergencyBell":false,"cctv":true,"source":"public","category":"public"},{"id":"202539300000101173","name":"안산동 행정복지센터 화장실","lat":37.361876,"lng":126.873352,"roadAddr":"경기도 안산시 상록구 장하로 315","jibunAddr":"경기도 안산시 상록구 수암동 506","openHours":"(평일)09:00~18:00","maleToilets":2,"femaleToilets":2,"disabled":true,"diaperTable":false,"emergencyBell":false,"cctv":false,"managerTel":"0314815399","source":"public","category":"public"},{"id":"202539300000101669","name":"수암주유소","lat":37.365164,"lng":126.877009,"roadAddr":"경기도 안산시 상록구 원당골1길 23-14","jibunAddr":"경기도 안산시 상록구 수암동 465","openHours":"상시","maleToilets":4,"femaleToilets":2,"disabled":false,"diaperTable":false,"emergencyBell":false,"cctv":false,"managerTel":"0314828118","source":"public","category":"public"}]