[{"id":"202335200000100211","name":"첨단산업클러스터단지1호공원","lat":37.362661,"lng":126.649721,"roadAddr":"인천광역시 연수구 첨댄대로 60번길","jibunAddr":"인천광역시 연수구 송도동 217-2","openHours":"상시","maleToilets":4,"femaleToilets":2,"disabled":true,"diaperTable":false,"emergencyBell":true,"cctv":false,"managerTel":"0327498699","source":"public","category":"public"},{"id":"202435200000100034","name":"센트럴파크2 중점개방화장실","lat":37.393786,"lng":126.641874,"roadAddr":"인천광역시 연수구 센트럴로 194 (송도동, 더샵 센트럴파크2)","jibunAddr":"인천광역시 연수구 송도동 23-4 더샵 센트럴파크2","openHours":"상시","maleToilets":12,"femaleToilets":8,"disabled":true,"diaperTable":false,"emergencyBell":true,"cctv":false,"managerTel":"07044327841","source":"public","category":"public"},{"id":"202335200000100175","name":"인천대입구역1-2","lat":37.386046,"lng":126.639389,"roadAddr":"인천광역시 연수구 인천타워대로 지하 155 (송도동, 인천대입구역)","jibunAddr":"인천광역시 연수구 송도동 48","openHours":"05:00~25:00","maleToilets":8,"femaleToilets":9,"disabled":true,"diaperTable":true,"emergencyBell":true,"cctv":true,"managerTel":"0324513656","source":"public","category":"public"},{"id":"202335200000100297","name":"솔찬공원(주차장)","lat":37.372537,"lng":126.627899,"roadAddr":"인천광역시 연수구 컨벤시아대로391번길 20, 전망대 겸 관리사무소 (송도동)","jibunAddr":"인천광역시 연수구 송도동 12-8 주차장","openHours":"상시","maleToilets":2,"femaleToilets":3,"disabled":true,"diaperTable":true,"emergencyBell":true,"cctv":false,"managerTel":"0324562860","source":"public","category":"public"},{"id":"202335200000100281","name":"센트럴파크(이동식 2, 한옥)","lat":37.392205,"lng":126.640702,"roadAddr":"인천광역시 연수구 센트럴로 229 (송도동)","jibunAddr":"인천광역시 연수구 송도동 24-5","openHours":"상시","maleToilets":3,"femaleToilets":2,"disabled":true,"diaperTable":false,"emergencyBell":true,"cctv":false,"managerTel":"0324562860","source":"public","category":"public"},{"id":"202335200000100283","name":"센트럴파크(방문자 센터)","lat":37.392205,"lng":126.640702,"roadAddr":"인천광역시 연수구 센트럴로 229 (송도동)","jibunAddr":"인천광역시 연수구 송도동 24-5","openHours":"상시","maleToilets":4,"femaleToilets":5,"disabled":true,"diaperTable":true,"emergencyBell":true,"cctv":false,"managerTel":"0324562860","source":"public","category":"public"},{"id":"202335200000100026","name":"송도4동행정복지센터","lat":37.388169,"lng":126.629784,"roadAddr":"인천광역시 연수구 컨벤시아대로252번길 79(송도동)","jibunAddr":"인천광역시 연수구 송도동 104-2","openHours":"(평일)09:00~18:00","maleToilets":16,"femaleToilets":16,"disabled":true,"diaperTable":true,"emergencyBell":true,"cctv":false,"managerTel":"0327496852","source":"public","category":"public"},{"id":"202335200000100285","name":"센트럴파크(보트하우스 1)","lat":37.392205,"lng":126.640702,"roadAddr":"인천광역시 연수구 센트럴로 229","jibunAddr":"인천광역시 연수구 송도동 24-5일원","openHours":"상시","maleToilets":4,"femaleToilets":5,"disabled":true,"diaperTable":true,"emergencyBell":true,"cctv":false,"managerTel":"0324562860","source":"public","category":"public"},{"id":"202335200000100272","name":"미추홀공원(다례원 내)","lat":37.382389,"lng":126.649499,"roadAddr":"인천광역시 연수구 해송로 59, 갯벌문화관 (송도동)","jibunAddr":"인천광역시 연수구 송도동 9-1 갯벌문화관","openHours":"미개방","maleToilets":2,"femaleToilets":2,"disabled":false,"diaperTable":false,"emergencyBell":true,"cctv":false,"managerTel":"0324562860","source":"public","category":"public"},{"id":"202335200000100298","name":"소리공원","lat":37.382592,"lng":126.638237,"roadAddr":"인천광역시 연수구 벤처로 11","jibunAddr":"인천광역시 연수구 송도동 10-29","openHours":"상시","maleToilets":6,"femaleToilets":5,"disabled":true,"diaperTable":true,"emergencyBell":true,"cctv":false,"managerTel":"0324537253","source":"public","category":"public"},{"id":"202435200000100026","name":"소리공원1","lat":37.380634,"lng":126.640124,"jibunAddr":"인천광역시 연수구 송도동 10-35 소리공원 공중화장실","openHours":"상시","maleToilets":1,"femaleToilets":2,"disabled":true,"diaperTable":true,"emergencyBell":true,"cctv":false,"managerTel":"0328308044","source":"public","category":"public"},{"id":"202435200000100020","name":"인천예송초등학교","lat":37.387463,"lng":126.630341,"roadAddr":"인천광역시 연수구 컨벤시아대로252번길 75, 인천예송초등학교 (송도동)","jibunAddr":"인천광역시 연수구 송도동 105 인천예송초등학교","openHours":"미개방","maleToilets":74,"femaleToilets":74,"disabled":true,"diaperTable":false,"emergencyBell":true,"cctv":false,"managerTel":"0324589249","source":"public","category":"public"},{"id":"202335200000100173","name":"센트럴파크역1-2","lat":37.39301,"lng":126.634731,"roadAddr":"인천광역시 연수구 인천타워대로 지하 240 (송도동, 센트럴파크역)","jibunAddr":"인천광역시 연수구 송도동 78","openHours":"05:00~25:00","maleToilets":15,"femaleToilets":15,"disabled":true,"diaperTable":true,"emergencyBell":true,"cctv":true,"managerTel":"0324513137","source":"public","category":"public"},{"id":"202335200000100282","name":"센트럴파크(이동식 1, 장승)","lat":37.392205,"lng":126.640702,"roadAddr":"인천광역시 연수구 센트럴로 229 (송도동)","jibunAddr":"인천광역시 연수구 송도동 24-5","openHours":"상시","maleToilets":3,"femaleToilets":2,"disabled":true,"diaperTable":false,"emergencyBell":true,"cctv":false,"managerTel":"0324562860","source":"public","category":"public"},{"id":"202335200000100270","name":"미추홀공원(갯벌문화 2층)","lat":37.382389,"lng":126.649499,"roadAddr":"인천광역시 연수구 해송로 59, 갯벌문화관 (송도동)","jibunAddr":"인천광역시 연수구 송도동 9-1 갯벌문화관","openHours":"(평일)09:00~18:00","maleToilets":4,"femaleToilets":4,"disabled":true,"diaperTable":false,"emergencyBell":true,"cctv":false,"managerTel":"0324562860","source":"public","category":"public"},{"id":"202335200000100274","name":"미추홀공원(누각 옆)","lat":37.382389,"lng":126.649499,"roadAddr":"인천광역시 연수구 해송로 59, 갯벌문화관 (송도동)","jibunAddr":"인천광역시 연수구 송도동 9-1 갯벌문화관","openHours":"상시","maleToilets":7,"femaleToilets":7,"disabled":true,"diaperTable":true,"emergencyBell":true,"cctv":false,"managerTel":"0324562860","source":"public","category":"public"},{"id":"202435200000100029","name":"송도건강생활지원센터","lat":37.379781,"lng":126.646573,"roadAddr":"인천광역시 연수구 인천타워대로54번길 19, 송도건강생활지원센터 (송도동)","jibunAddr":"인천광역시 연수구 송도동 9-11 송도건강생활지원센터","openHours":"업무시간","maleToilets":15,"femaleToilets":17,"disabled":true,"diaperTable":false,"emergencyBell":false,"cctv":false,"managerTel":"0328308023","source":"public","category":"public"},{"id":"202435200000100025","name":"꿈꾸는공원","lat":37.362661,"lng":126.649721,"jibunAddr":"인천광역시 연수구 송도동 217-2","openHours":"상시","maleToilets":2,"femaleToilets":1,"disabled":true,"diaperTable":false,"emergencyBell":true,"cctv":false,"managerTel":"0328308044","source":"public","category":"public"},{"id":"202435200000100021","name":"인천현송초등학교","lat":37.393892,"lng":126.620381,"roadAddr":"인천광역시 연수구 아카데미로312번길 96, 인천현송초등학교 (송도동)","jibunAddr":"인천광역시 연수구 송도동 399-10 인천현송초등학교","openHours":"미개방","maleToilets":73,"femaleToilets":83,"disabled":true,"diaperTable":false,"emergencyBell":true,"cctv":true,"managerTel":"0324528100","source":"public","category":"public"},{"id":"202335200000100279","name":"센트럴파크(이동식 3, 억새밭)","lat":37.392205,"lng":126.640702,"roadAddr":"인천광역시 연수구 센트럴로 229 (송도동)","jibunAddr":"인천광역시 연수구 송도동 24-5","openHours":"상시","maleToilets":2,"femaleToilets":2,"disabled":true,"diaperTable":true,"emergencyBell":true,"cctv":false,"managerTel":"0324562860","source":"public","category":"public"},{"id":"202335200000100271","name":"미추홀공원(갯벌문화 1층)","lat":37.382389,"lng":126.649499,"roadAddr":"인천광역시 연수구 해송로 59, 갯벌문화관 (송도동)","jibunAddr":"인천광역시 연수구 송도동 9-1 갯벌문화관","openHours":"(평일)09:00~18:00","maleToilets":4,"femaleToilets":4,"disabled":true,"diaperTable":false,"emergencyBell":true,"cctv":false,"managerTel":"0324562860","source":"public","category":"public"},{"id":"202335200000100296","name":"솔찬공원(풍차-관리사무소)","lat":37.372537,"lng":126.627899,"roadAddr":"인천광역시 연수구 컨벤시아대로391번길 20, 전망대 겸 관리사무소 (송도동)","jibunAddr":"인천광역시 연수구 송도동 12-8 전망대 겸 관리사무소","openHours":"상시","maleToilets":2,"femaleToilets":2,"disabled":true,"diaperTable":false,"emergencyBell":true,"cctv":false,"managerTel":"0324562860","source":"public","category":"public"},{"id":"202335200000100168","name":"송도복합문화시설","lat":37.379781,"lng":126.646573,"roadAddr":"인천광역시 연수구 인천타워대로54번길 19 (송도동, 송도건강생활지원센터)","jibunAddr":"인천광역시 연수구 송도동 9-11","openHours":"(평일)09:00~18:00","maleToilets":10,"femaleToilets":10,"disabled":true,"diaperTable":false,"emergencyBell":false,"cctv":false,"managerTel":"0327496914","source":"public","category":"public"},{"id":"202435200000100013","name":"랜드마크시티3호수변공원(워터)","lat":37.384036,"lng":126.619327,"roadAddr":"인천광역시 연수구 아카데미로271번길 32 (송도동)","jibunAddr":"인천광역시 연수구 송도동 116","openHours":"상시","maleToilets":2,"femaleToilets":3,"disabled":true,"diaperTable":true,"emergencyBell":true,"cctv":false,"managerTel":"0324562860","source":"public","category":"public"},{"id":"202335200000100280","name":"센트럴파크(해수처리장)","lat":37.380127,"lng":126.616728,"roadAddr":"인천광역시 연수구 아카데미로271번길 77, 송도중앙공원 해수기계실 (송도동)","jibunAddr":"인천광역시 연수구 송도동 118-1 송도중앙공원 해수기계실","openHours":"미개방,보안시설","maleToilets":1,"femaleToilets":0,"disabled":false,"diaperTable":false,"emergencyBell":false,"cctv":false,"managerTel":"0324562860","source":"public","category":"public"},{"id":"202335200000100284","name":"센트럴파크(보트하우스 2)","lat":37.393773,"lng":126.630225,"roadAddr":"인천광역시 연수구 인천타워대로 253-34, 웨스트보트하우스 (송도동)","jibunAddr":"인천광역시 연수구 송도동 31 웨스트보트하우스","openHours":"상시","maleToilets":4,"femaleToilets":5,"disabled":true,"diaperTable":true,"emergencyBell":true,"cctv":false,"managerTel":"0324562860","source":"public","category":"public"},{"id":"202335200000100176","name":"인천대입구역1-1","lat":37.386046,"lng":126.639389,"roadAddr":"인천광역시 연수구 인천타워대로 지하155, 인천대입구역 (송도동)","jibunAddr":"인천광역시 연수구 송도동 48 인천대입구역","openHours":"05:00~25:00","maleToilets":3,"femaleToilets":2,"disabled":false,"diaperTable":false,"emergencyBell":true,"cctv":true,"managerTel":"0324513136","source":"public","category":"public"},{"id":"202335200000100169","name":"지식정보단지역1-2","lat":37.37812,"lng":126.645383,"roadAddr":"인천광역시 연수구 인천타워대로 지하57, 지식정보단지역 (송도동)","jibunAddr":"인천광역시 연수구 송도동 48 지식정보단지역","openHours":"05:00~25:00","maleToilets":7,"femaleToilets":8,"disabled":true,"diaperTable":true,"emergencyBell":true,"cctv":true,"managerTel":"0324513135","source":"public","category":"public"},{"id":"202335200000100170","name":"지식정보단지역1-1","lat":37.37812,"lng":126.645383,"roadAddr":"인천광역시 연수구 인천타워대로 지하57, 지식정보단지역 (송도동)","jibunAddr":"인천광역시 연수구 송도동 48 지식정보단지역","openHours":"05:00~25:00","maleToilets":2,"femaleToilets":2,"disabled":true,"diaperTable":true,"emergencyBell":true,"cctv":true,"managerTel":"0324513135","source":"public","category":"public"},{"id":"202435200000100023","name":"인천현송중학교","lat":37.393109,"lng":126.619598,"roadAddr":"인천광역시 연수구 아카데미로312번길 84, 인천현송중학교 (송도동)","jibunAddr":"인천광역시 연수구 송도동 399-11 인천현송중학교","openHours":"미개방","maleToilets":99,"femaleToilets":99,"disabled":true,"diaperTable":false,"emergencyBell":true,"cctv":true,"managerTel":"0326106100","source":"public","category":"public"},{"id":"202335200000100273","name":"미추홀공원(다례원 옆)","lat":37.382389,"lng":126.649499,"roadAddr":"인천광역시 연수구 해송로 59, 갯벌문화관 (송도동)","jibunAddr":"인천광역시 연수구 송도동 9-1 갯벌문화관","openHours":"상시","maleToilets":7,"femaleToilets":6,"disabled":true,"diaperTable":true,"emergencyBell":true,"cctv":false,"managerTel":"0324562860","source":"public","category":"public"},{"id":"202335200000100174","name":"센트럴파크역1-1","lat":37.39301,"lng":126.634731,"roadAddr":"인천광역시 연수구 인천타워대로 지하 240 (송도동, 센트럴파크역)","jibunAddr":"인천광역시 연수구 송도동 78","openHours":"05:00~25:00","maleToilets":5,"femaleToilets":5,"disabled":true,"diaperTable":true,"emergencyBell":true,"cctv":true,"managerTel":"0324513137","source":"public","category":"public"}]