[{"id":"202435105000100685","name":"반려동물놀이터","lat":37.431942,"lng":126.671429,"roadAddr":"인천광역시 미추홀구 학익동 산59","jibunAddr":"인천광역시 미추홀구 학익동 산59","openHours":"상시","maleToilets":0,"femaleToilets":0,"disabled":false,"diaperTable":false,"emergencyBell":false,"cctv":false,"managerTel":"0322250248","source":"public","category":"public"},{"id":"202435105000100838","name":"학익1동 행정복지센터","lat":37.439838,"lng":126.664118,"roadAddr":"인천광역시 미추홀구 매소홀로 380 (학익동, 학익1동 행정복지센터)","jibunAddr":"인천광역시 미추홀구 학익동 689-10","openHours":"정시","maleToilets":5,"femaleToilets":4,"disabled":true,"diaperTable":true,"emergencyBell":false,"cctv":true,"managerTel":"0327286344","source":"public","category":"public"},{"id":"202435105000100782","name":"인천병무지청","lat":37.439764,"lng":126.657224,"roadAddr":"인천광역시 미추홀구 노적산로 76","jibunAddr":"인천광역시 미추홀구 학익동 545-1","openHours":"상시","maleToilets":6,"femaleToilets":1,"disabled":true,"diaperTable":false,"emergencyBell":false,"cctv":false,"managerTel":"0324542325","source":"public","category":"public"},{"id":"202435105000100844","name":"학익체육관","lat":37.438297,"lng":126.66378,"roadAddr":"인천광역시 미추홀구 햇골길 26 (학익동, 학익체육관)","jibunAddr":"인천광역시 미추홀구 학익동 174-3","openHours":"상시","maleToilets":3,"femaleToilets":2,"disabled":true,"diaperTable":true,"emergencyBell":true,"cctv":false,"managerTel":"0322250248","source":"public","category":"public"},{"id":"202435105000100896","name":"인천문학정보고등학교","lat":37.435748,"lng":126.686966,"roadAddr":"인천광역시 미추홀구 소성로350번길 29","jibunAddr":"인천광역시 미추홀구 문학동 394-4","openHours":"상시","maleToilets":0,"femaleToilets":0,"disabled":false,"diaperTable":false,"emergencyBell":false,"cctv":false,"source":"public","category":"public"},{"id":"202435105000100767","name":"인천미추홀경찰서문학지구대","lat":37.437243,"lng":126.684983,"roadAddr":"인천광역시 미추홀구 소성로 340","jibunAddr":"인천광역시 미추홀구 문학동 390-1","openHours":"상시","maleToilets":2,"femaleToilets":0,"disabled":true,"diaperTable":false,"emergencyBell":false,"cctv":false,"source":"public","category":"public"},{"id":"202435105000100928","name":"인천학익고등학교","lat":37.439031,"lng":126.663384,"roadAddr":"인천광역시 미추홀구 한나루로358번길 23-22","jibunAddr":"인천광역시 미추홀구 학익동 688-1","openHours":"상시","maleToilets":0,"femaleToilets":0,"disabled":false,"diaperTable":false,"emergencyBell":false,"cctv":false,"source":"public","category":"public"},{"id":"202435105000100850","name":"황금주유소","lat":37.438567,"lng":126.675935,"roadAddr":"인천광역시 미추홀구 소성로 253 (학익동)","jibunAddr":"인천광역시 미추홀구 학익동 663-4","openHours":"상시","maleToilets":5,"femaleToilets":1,"disabled":false,"diaperTable":false,"emergencyBell":false,"cctv":false,"source":"public","category":"public"},{"id":"202435105000100842","name":"학익배수지 테니스장","lat":37.437156,"lng":126.666225,"roadAddr":"인천광역시 미추홀구 햇골길1번길 3-43 (학익동)","jibunAddr":"인천광역시 미추홀구 학익동 158-26","openHours":"정시","maleToilets":3,"femaleToilets":2,"disabled":false,"diaperTable":false,"emergencyBell":true,"cctv":false,"source":"public","category":"public"},{"id":"202435105000100764","name":"인천무형문화재전수교육관","lat":37.438768,"lng":126.689825,"roadAddr":"인천광역시 미추홀구 매소홀로 599","jibunAddr":"인천광역시 미추홀구 문학동 349-6","openHours":"상시","maleToilets":3,"femaleToilets":5,"disabled":true,"diaperTable":false,"emergencyBell":false,"cctv":false,"managerTel":"0324408086","source":"public","category":"public"},{"id":"202435105000100641","name":"SK에너지(주)문학주유소","lat":37.438233,"lng":126.68579,"roadAddr":"인천광역시 미추홀구 매소홀로 574 (문학동)","jibunAddr":"인천광역시 미추홀구 문학동 379-8","openHours":"상시","maleToilets":4,"femaleToilets":1,"disabled":false,"diaperTable":false,"emergencyBell":false,"cctv":false,"source":"public","category":"public"},{"id":"202435105000100898","name":"인천백학초등학교","lat":37.438754,"lng":126.672576,"roadAddr":"인천광역시 미추홀구 매소홀로446번길 25","jibunAddr":"인천광역시 미추홀구 학익동 674","openHours":"상시","maleToilets":5,"femaleToilets":3,"disabled":true,"diaperTable":false,"emergencyBell":false,"cctv":false,"source":"public","category":"public"},{"id":"202435105000100878","name":"등대교회","lat":37.44065,"lng":126.681519,"roadAddr":"인천광역시 미추홀구 승학길 26번길 39(문학동)","jibunAddr":"인천광역시 미추홀구 문학동 333-11","openHours":"상시","maleToilets":0,"femaleToilets":0,"disabled":false,"diaperTable":false,"emergencyBell":false,"cctv":false,"source":"public","category":"public"},{"id":"202435105000100897","name":"인천문학초등학교","lat":37.439601,"lng":126.68239,"roadAddr":"인천광역시 미추홀구 매소홀로 553","jibunAddr":"인천광역시 미추홀구 문학동 343-2","openHours":"상시","maleToilets":0,"femaleToilets":0,"disabled":false,"diaperTable":false,"emergencyBell":false,"cctv":false,"source":"public","category":"public"},{"id":"202435105000100832","name":"SK큰나무셀프주유소","lat":37.438399,"lng":126.681424,"roadAddr":"인천광역시 미추홀구 매소홀로 536 (문학동)","jibunAddr":"인천광역시 미추홀구 문학동 366-1,4번지","openHours":"상시","maleToilets":3,"femaleToilets":2,"disabled":false,"diaperTable":false,"emergencyBell":false,"cctv":false,"managerTel":"0324395189","source":"public","category":"public"},{"id":"202435105000100773","name":"인천미추홀경찰서학동지구대","lat":37.439913,"lng":126.674651,"roadAddr":"인천광역시 미추홀구 학산소로63번길 92","jibunAddr":"인천광역시 미추홀구 학익동 52-19","openHours":"상시","maleToilets":2,"femaleToilets":0,"disabled":false,"diaperTable":false,"emergencyBell":false,"cctv":false,"managerTel":"0327179301","source":"public","category":"public"},{"id":"202435105000100670","name":"문학산 정상","lat":37.432169,"lng":126.676438,"roadAddr":"인천광역시 미추홀구 학익동 78-24","jibunAddr":"인천광역시 미추홀구 학익동 78-24","openHours":"상시","maleToilets":5,"femaleToilets":6,"disabled":true,"diaperTable":true,"emergencyBell":true,"cctv":true,"managerTel":"0322250248","source":"public","category":"public"},{"id":"202435105000100708","name":"수미정사 입구","lat":37.441341,"lng":126.686198,"roadAddr":"인천광역시 미추홀구 매소홀로561번길 26-93 (문학동, 수미정사)","jibunAddr":"인천광역시 미추홀구 문학동 252-3","openHours":"상시","maleToilets":2,"femaleToilets":1,"disabled":true,"diaperTable":true,"emergencyBell":true,"cctv":false,"managerTel":"0322250248","source":"public","category":"public"},{"id":"202435105000100793","name":"인천종합사회복지관","lat":37.438667,"lng":126.66683,"roadAddr":"인천광역시 미추홀구 매소홀로418번길 14-57","jibunAddr":"인천광역시 미추홀구 학익동 686-9","openHours":"상시","maleToilets":8,"femaleToilets":11,"disabled":true,"diaperTable":true,"emergencyBell":false,"cctv":false,"managerTel":"0328730541","source":"public","category":"public"},{"id":"202435105000100666","name":"문학경기장","lat":37.435082,"lng":126.69076,"roadAddr":"인천광역시 미추홀구 매소홀로 618","jibunAddr":"인천광역시 미추홀구 문학동 482","openHours":"상시","maleToilets":0,"femaleToilets":0,"disabled":false,"diaperTable":false,"emergencyBell":false,"cctv":false,"source":"public","category":"public"},{"id":"202435105000100763","name":"인천도호부관아(재현시설물)","lat":37.439391,"lng":126.686832,"roadAddr":"인천광역시 미추홀구 매소홀로 589","jibunAddr":"인천광역시 미추홀구 문학동 349-2","openHours":"상시","maleToilets":0,"femaleToilets":0,"disabled":false,"diaperTable":false,"emergencyBell":false,"cctv":false,"source":"public","category":"public"},{"id":"202435105000100668","name":"문학동 행정복지센터","lat":37.437685,"lng":126.685004,"roadAddr":"인천광역시 미추홀구 소성로 339 (문학동, 문학동행정복지센터)","jibunAddr":"인천광역시 미추홀구 문학동 385-6","openHours":"상시","maleToilets":0,"femaleToilets":2,"disabled":true,"diaperTable":true,"emergencyBell":false,"cctv":false,"managerTel":"0327286518","source":"public","category":"public"},{"id":"202435105000100732","name":"시각장애인복지관","lat":37.438118,"lng":126.656028,"roadAddr":"인천광역시 미추홀구 한나루로357번길 105-19","jibunAddr":"인천광역시 미추홀구 학익동 709-1","openHours":"상시","maleToilets":19,"femaleToilets":12,"disabled":true,"diaperTable":false,"emergencyBell":false,"cctv":false,"source":"public","category":"public"},{"id":"202435105000100669","name":"문학동우체국","lat":37.43758,"lng":126.68469,"roadAddr":"인천광역시 미추홀구 소성로 337","jibunAddr":"인천광역시 미추홀구 문학동 385-4","openHours":"상시","maleToilets":1,"femaleToilets":1,"disabled":false,"diaperTable":false,"emergencyBell":false,"cctv":false,"managerTel":"0324242205","source":"public","category":"public"},{"id":"202435105000100927","name":"인천학산초등학교","lat":37.439732,"lng":126.658065,"roadAddr":"인천광역시 미추홀구 한나루로357번길 66","jibunAddr":"인천광역시 미추홀구 학익동 721-7","openHours":"상시","maleToilets":94,"femaleToilets":81,"disabled":true,"diaperTable":false,"emergencyBell":false,"cctv":false,"source":"public","category":"public"},{"id":"202435105000100667","name":"문학도시자연공원","lat":37.435595,"lng":126.67048,"roadAddr":"인천광역시 미추홀구 학익동 96-7","jibunAddr":"인천광역시 미추홀구 학익동 96-7","openHours":"상시","maleToilets":0,"femaleToilets":0,"disabled":false,"diaperTable":false,"emergencyBell":false,"cctv":false,"source":"public","category":"public"},{"id":"202435105000100775","name":"인천미추홀소방서119구조대","lat":37.439278,"lng":126.672832,"roadAddr":"인천광역시 미추홀구 소성로 226-1","jibunAddr":"인천광역시 미추홀구 학익동 673-1","openHours":"상시","maleToilets":0,"femaleToilets":0,"disabled":false,"diaperTable":false,"emergencyBell":false,"cctv":false,"source":"public","category":"public"},{"id":"202335200000100142","name":"대학공원(2)","lat":37.421826,"lng":126.684984,"roadAddr":"인천광역시 연수구 함박뫼로 162 (연수동, 대학공원화장실)","jibunAddr":"인천광역시 연수구 연수동 580","openHours":"상시","maleToilets":2,"femaleToilets":2,"disabled":false,"diaperTable":false,"emergencyBell":false,"cctv":false,"managerTel":"0327498694","source":"public","category":"public"},{"id":"202435200000100030","name":"함박마을문화복지센터","lat":37.425988,"lng":126.687163,"roadAddr":"인천광역시 연수구 함박안로 217 (연수동)","jibunAddr":"인천광역시 연수구 연수동 652","openHours":"정시","maleToilets":7,"femaleToilets":13,"disabled":true,"diaperTable":false,"emergencyBell":true,"cctv":true,"managerTel":"0328308022","source":"public","category":"public"},{"id":"202335200000100240","name":"동춘2동행정복지센터","lat":37.402751,"lng":126.669322,"roadAddr":"인천광역시 연수구 먼우금로 41 (동춘동, 동춘2동 행정복지센터)","jibunAddr":"인천광역시 연수구 동춘동 943-3","openHours":"정시","maleToilets":12,"femaleToilets":6,"disabled":true,"diaperTable":false,"emergencyBell":false,"cctv":false,"managerTel":"0327496422","source":"public","category":"public"},{"id":"202335200000100248","name":"동막공원","lat":37.4036,"lng":126.673737,"roadAddr":"인천광역시 연수구 원인재로 39","jibunAddr":"인천광역시 연수구 동춘동 932-2","openHours":"상시","maleToilets":5,"femaleToilets":5,"disabled":true,"diaperTable":true,"emergencyBell":true,"cctv":false,"managerTel":"0327498694","source":"public","category":"public"},{"id":"202335200000100137","name":"문남공원","lat":37.426066,"lng":126.68502,"roadAddr":"인천광역시 연수구 함박뫼로84번길 29","jibunAddr":"인천광역시 연수구 연수동 519","openHours":"상시","maleToilets":5,"femaleToilets":4,"disabled":true,"diaperTable":true,"emergencyBell":true,"cctv":false,"managerTel":"0327498694","source":"public","category":"public"},{"id":"202335200000100133","name":"나사렛국제병원","lat":37.407949,"lng":126.670484,"roadAddr":"인천광역시 연수구 먼우금로 98 (동춘동, 나사렛국제병원)","jibunAddr":"인천광역시 연수구 동춘동 937-3","openHours":"정시","maleToilets":10,"femaleToilets":3,"disabled":true,"diaperTable":true,"emergencyBell":false,"cctv":false,"managerTel":"0328999840","source":"public","category":"public"},{"id":"202335200000100110","name":"송도국제어린이도서관","lat":37.397981,"lng":126.653649,"roadAddr":"인천광역시 연수구 컨벤시아대로 43 송도국제어린이도서관","jibunAddr":"인천광역시 연수구 송도동 2-1","openHours":"정시","maleToilets":10,"femaleToilets":4,"disabled":true,"diaperTable":true,"emergencyBell":true,"cctv":false,"managerTel":"0327498220","source":"public","category":"public"},{"id":"202335200000100114","name":"인천상륙작전기념관(전망대)","lat":37.419574,"lng":126.654236,"roadAddr":"인천광역시 연수구 청량로 138(옥련동, 인천상륙작전기념관)","jibunAddr":"인천광역시 연수구 옥련동 525-1","openHours":"상시","maleToilets":9,"femaleToilets":8,"disabled":true,"diaperTable":false,"emergencyBell":false,"cctv":false,"managerTel":"0328329412","source":"public","category":"public"},{"id":"202335200000100131","name":"옥련1동행정복지센터","lat":37.427375,"lng":126.655091,"roadAddr":"인천광역시 연수구 비류대로186번길 14","jibunAddr":"인천광역시 연수구 옥련동 643-1","openHours":"정시","maleToilets":13,"femaleToilets":7,"disabled":true,"diaperTable":false,"emergencyBell":false,"cctv":true,"managerTel":"0327496015","source":"public","category":"public"},{"id":"202335200000100139","name":"인천우체국 1층","lat":37.419326,"lng":126.690804,"roadAddr":"인천광역시 연수구 함박뫼로 226 (연수동, 인천우체국)","jibunAddr":"인천광역시 연수구 연수동 581-1","openHours":"정시","maleToilets":4,"femaleToilets":2,"disabled":true,"diaperTable":false,"emergencyBell":false,"cctv":false,"managerTel":"0328508183","source":"public","category":"public"},{"id":"202335200000100192","name":"솔밭공원","lat":37.416388,"lng":126.690319,"roadAddr":"인천광역시 연수구 새말로 122","jibunAddr":"인천광역시 연수구 연수동 582-1","openHours":"상시","maleToilets":3,"femaleToilets":2,"disabled":true,"diaperTable":false,"emergencyBell":true,"cctv":false,"managerTel":"0327498694","source":"public","category":"public"},{"id":"202335200000100196","name":"효정공원","lat":37.423268,"lng":126.671679,"roadAddr":"인천광역시 연수구 비류대로 320번길","jibunAddr":"인천광역시 연수구 연수동 537-1","openHours":"상시","maleToilets":5,"femaleToilets":5,"disabled":true,"diaperTable":false,"emergencyBell":true,"cctv":false,"managerTel":"0327498694","source":"public","category":"public"},{"id":"202335200000100249","name":"풍림공원","lat":37.399457,"lng":126.671477,"roadAddr":"인천광역시 연수구 경원대로 81번길","jibunAddr":"인천광역시 연수구 동춘동 929-1","openHours":"상시","maleToilets":3,"femaleToilets":3,"disabled":true,"diaperTable":true,"emergencyBell":true,"cctv":false,"managerTel":"0327498694","source":"public","category":"public"},{"id":"202335200000100245","name":"동남공원","lat":37.402446,"lng":126.669484,"roadAddr":"인천광역시 연수구 먼우금로 39","jibunAddr":"인천광역시 연수구 동춘동 943-1","openHours":"상시","maleToilets":4,"femaleToilets":5,"disabled":true,"diaperTable":false,"emergencyBell":true,"cctv":false,"managerTel":"0327498694","source":"public","category":"public"},{"id":"202335200000100253","name":"푸른송도배수지공원","lat":37.399338,"lng":126.665203,"roadAddr":"인천광역시 연수구 능허대로 446번길","jibunAddr":"인천광역시 연수구 동춘동 559-22","openHours":"상시","maleToilets":5,"femaleToilets":5,"disabled":true,"diaperTable":true,"emergencyBell":true,"cctv":false,"managerTel":"0327498694","source":"public","category":"public"},{"id":"202335200000100257","name":"동막역","lat":37.398231,"lng":126.673697,"roadAddr":"인천광역시 연수구 경원대로 지하 80 (동춘동, 동막역)","jibunAddr":"인천광역시 연수구 동춘동 동막역","openHours":"정시","maleToilets":6,"femaleToilets":6,"disabled":true,"diaperTable":true,"emergencyBell":true,"cctv":true,"managerTel":"0324513656","source":"public","category":"public"},{"id":"202435200000100014","name":"송도파크골프장(관리동)","lat":37.399104,"lng":126.656485,"roadAddr":"인천광역시 연수구 아암대로 764 (송도동)","jibunAddr":"인천광역시 연수구 송도동 1","openHours":"상시","maleToilets":4,"femaleToilets":3,"disabled":true,"diaperTable":false,"emergencyBell":true,"cctv":false,"managerTel":"0324562860","source":"public","category":"public"},{"id":"202335200000100179","name":"연수3동행정복지센터","lat":37.41933,"lng":126.691961,"roadAddr":"인천광역시 연수구 원인재로 283 (연수동, 연수3동주민센터)","jibunAddr":"인천광역시 연수구 연수동 533-2","openHours":"정시","maleToilets":12,"femaleToilets":6,"disabled":true,"diaperTable":false,"emergencyBell":false,"cctv":false,"managerTel":"0327496274","source":"public","category":"public"},{"id":"202335200000100293","name":"달빛공원(이동식2-연송고앞)","lat":37.399104,"lng":126.656485,"roadAddr":"인천광역시 연수구 아암대로 764 (송도동)","jibunAddr":"인천광역시 연수구 송도동 1","openHours":"상시","maleToilets":0,"femaleToilets":1,"disabled":true,"diaperTable":false,"emergencyBell":true,"cctv":false,"managerTel":"0324562860","source":"public","category":"public"},{"id":"202335200000100129","name":"인천광역시장애인종합복지관","lat":37.41218,"lng":126.659071,"roadAddr":"인천광역시 연수구 앵고개로 130(동춘동)","jibunAddr":"인천광역시 연수구 동춘동 778-1","openHours":"정시","maleToilets":10,"femaleToilets":4,"disabled":true,"diaperTable":true,"emergencyBell":true,"cctv":true,"managerTel":"0328333051","source":"public","category":"public"},{"id":"202335200000100121","name":"대한적십자사경인의료재활센터","lat":37.418428,"lng":126.689933,"roadAddr":"인천광역시 연수구 원인재로 263 (연수동)","jibunAddr":"인천광역시 연수구 연수동 220","openHours":"상시","maleToilets":10,"femaleToilets":10,"disabled":true,"diaperTable":false,"emergencyBell":false,"cctv":true,"managerTel":"0328994000","source":"public","category":"public"},{"id":"202335200000100125","name":"인천시립박물관","lat":37.420709,"lng":126.65318,"roadAddr":"인천광역시 연수구 옥련동 청량로 160번길 26","jibunAddr":"인천광역시 연수구 옥련동 525","openHours":"정시","maleToilets":16,"femaleToilets":10,"disabled":true,"diaperTable":true,"emergencyBell":true,"cctv":false,"managerTel":"0324406722","source":"public","category":"public"},{"id":"202435200000100033","name":"승기천 신연수역","lat":37.417959,"lng":126.693872,"roadAddr":"인천광역시 연수구 경원대로 지하368, 신연수역 (선학동)","jibunAddr":"인천광역시 연수구 선학동 384 신연수역","openHours":"상시","maleToilets":3,"femaleToilets":4,"disabled":true,"diaperTable":true,"emergencyBell":true,"cctv":false,"managerTel":"0327497920","source":"public","category":"public"},{"id":"202335200000100287","name":"새아침공원(테니스장 옆)","lat":37.397981,"lng":126.653649,"roadAddr":"인천광역시 연수구 컨벤시아대로 43, 송도국제어린이도서관 (송도동)","jibunAddr":"인천광역시 연수구 송도동 2-1 송도국제어린이도서관","openHours":"상시","maleToilets":4,"femaleToilets":5,"disabled":true,"diaperTable":false,"emergencyBell":true,"cctv":false,"managerTel":"0324562860","source":"public","category":"public"},{"id":"202335200000100295","name":"달빛공원(이동식-다목적운동장)","lat":37.399104,"lng":126.656485,"roadAddr":"인천광역시 연수구 아암대로 764 (송도동)","jibunAddr":"인천광역시 연수구 송도동 1","openHours":"상시","maleToilets":3,"femaleToilets":2,"disabled":true,"diaperTable":false,"emergencyBell":true,"cctv":false,"managerTel":"0324562860","source":"public","category":"public"},{"id":"202335200000100299","name":"연수청학도서관","lat":37.425591,"lng":126.660978,"roadAddr":"인천광역시 연수구 솔샘로 146 연수청학도서관","jibunAddr":"인천광역시 연수구 청학동 100-15","openHours":"정시","maleToilets":25,"femaleToilets":20,"disabled":true,"diaperTable":true,"emergencyBell":true,"cctv":false,"managerTel":"0327498270","source":"public","category":"public"},{"id":"202335200000100033","name":"동춘나래도서관","lat":37.407778,"lng":126.663924,"roadAddr":"인천광역시 연수구 봉재산로54번길 30, 연수구 국제언어체험센터 (동춘동)","jibunAddr":"인천광역시 연수구 동춘동 1138 연수구 국제언어체험센터","openHours":"정시","maleToilets":7,"femaleToilets":5,"disabled":true,"diaperTable":true,"emergencyBell":true,"cctv":false,"managerTel":"0327498240","source":"public","category":"public"},{"id":"202335200000100120","name":"인천적십자병원 본관1층","lat":37.418428,"lng":126.689933,"roadAddr":"인천광역시 연수구 원인재로 263 (연수동, 인천적십자병원)","jibunAddr":"인천광역시 연수구 연수동 220","openHours":"상시","maleToilets":9,"femaleToilets":4,"disabled":true,"diaperTable":false,"emergencyBell":true,"cctv":false,"managerTel":"0328994000","source":"public","category":"public"},{"id":"202335200000100254","name":"동춘다누리체육센터","lat":37.413908,"lng":126.667836,"roadAddr":"인천광역시 연수구 동곡재로 126","jibunAddr":"인천광역시 연수구 동춘동 190","openHours":"정시","maleToilets":4,"femaleToilets":3,"disabled":true,"diaperTable":false,"emergencyBell":true,"cctv":true,"managerTel":"0328308031","source":"public","category":"public"},{"id":"202335200000100250","name":"부수지공원","lat":37.408101,"lng":126.677859,"roadAddr":"인천광역시 연수구 원인재로 104","jibunAddr":"인천광역시 연수구 동춘동 925-4","openHours":"상시","maleToilets":5,"femaleToilets":5,"disabled":true,"diaperTable":true,"emergencyBell":true,"cctv":false,"managerTel":"0327498694","source":"public","category":"public"},{"id":"202335200000100261","name":"동춘역","lat":37.404908,"lng":126.680747,"roadAddr":"인천광역시 연수구 경원대로 지하 180 (동춘동, 동춘역)","jibunAddr":"인천광역시 연수구 동춘동 동춘역","openHours":"정시","maleToilets":9,"femaleToilets":9,"disabled":true,"diaperTable":true,"emergencyBell":true,"cctv":true,"managerTel":"0324513131","source":"public","category":"public"},{"id":"202435200000100009","name":"안골공원","lat":37.429648,"lng":126.66425,"jibunAddr":"인천광역시 연수구 청학동 530-9","openHours":"상시","maleToilets":1,"femaleToilets":2,"disabled":true,"diaperTable":false,"emergencyBell":true,"cctv":false,"managerTel":"0327498694","source":"public","category":"public"},{"id":"202435200000100005","name":"봉재산화장실","lat":37.409821,"lng":126.661273,"jibunAddr":"인천광역시 연수구 동춘동 259-8","openHours":"상시","maleToilets":3,"femaleToilets":3,"disabled":true,"diaperTable":false,"emergencyBell":false,"cctv":false,"managerTel":"0327498694","source":"public","category":"public"},{"id":"202335200000100294","name":"달빛공원(이동식-MTB장)","lat":37.399104,"lng":126.656485,"roadAddr":"인천광역시 연수구 아암대로 764 (송도동)","jibunAddr":"인천광역시 연수구 송도동 1","openHours":"상시","maleToilets":2,"femaleToilets":2,"disabled":false,"diaperTable":false,"emergencyBell":true,"cctv":false,"managerTel":"0324562860","source":"public","category":"public"},{"id":"202335200000100238","name":"연수역(수인선)","lat":37.417804,"lng":126.678964,"roadAddr":"인천광역시 연수구 벚꽃로 115 (연수동, 연수역)","jibunAddr":"인천광역시 연수구 연수동 589","openHours":"정시","maleToilets":19,"femaleToilets":16,"disabled":true,"diaperTable":true,"emergencyBell":true,"cctv":true,"managerTel":"03180775581","source":"public","category":"public"},{"id":"202335200000100148","name":"연수구자원봉사센터","lat":37.423071,"lng":126.653528,"roadAddr":"인천광역시 연수구 한나루로 143","jibunAddr":"인천광역시 연수구 옥련동 370-5","openHours":"정시","maleToilets":6,"femaleToilets":3,"disabled":true,"diaperTable":false,"emergencyBell":false,"cctv":false,"managerTel":"0328331365","source":"public","category":"public"},{"id":"202335200000100144","name":"연수1동행정복지센터","lat":37.422254,"lng":126.681056,"roadAddr":"인천광역시 연수구 함박뫼로 127 (연수동, 연수1동 행정복지센터(신축 주민센터))","jibunAddr":"인천광역시 연수구 청학동 535","openHours":"정시","maleToilets":18,"femaleToilets":19,"disabled":true,"diaperTable":true,"emergencyBell":false,"cctv":false,"managerTel":"0327496150","source":"public","category":"public"},{"id":"202335200000100140","name":"대한적십자사인천지사(혈액원)","lat":37.419619,"lng":126.690014,"roadAddr":"인천광역시 연수구 함박뫼로 220 (연수동, 대한적십자사인천지사)","jibunAddr":"인천광역시 연수구 연수동 581","openHours":"정시","maleToilets":5,"femaleToilets":2,"disabled":true,"diaperTable":false,"emergencyBell":true,"cctv":false,"managerTel":"0328101376","source":"public","category":"public"},{"id":"202335200000100189","name":"연수체육공원","lat":37.407859,"lng":126.685543,"roadAddr":"인천광역시 연수구 청능대로 205","jibunAddr":"인천광역시 연수구 연수동 636일원","openHours":"상시","maleToilets":6,"femaleToilets":3,"disabled":false,"diaperTable":true,"emergencyBell":true,"cctv":false,"managerTel":"0327498694","source":"public","category":"public"},{"id":"202335200000100181","name":"연수구의회","lat":37.409494,"lng":126.678338,"roadAddr":"인천광역시 연수구 원인재로 115(동춘동, 연수구청)","jibunAddr":"인천광역시 연수구 동춘동 923-6","openHours":"정시","maleToilets":16,"femaleToilets":7,"disabled":true,"diaperTable":false,"emergencyBell":true,"cctv":false,"managerTel":"0328308021","source":"public","category":"public"},{"id":"202335200000100185","name":"청룡공원","lat":37.423496,"lng":126.657957,"roadAddr":"인천광역시 연수구 청룡로 37","jibunAddr":"인천광역시 연수구 옥련동 산63-2","openHours":"상시","maleToilets":5,"femaleToilets":5,"disabled":true,"diaperTable":true,"emergencyBell":true,"cctv":false,"managerTel":"0327498694","source":"public","category":"public"},{"id":"202335200000100014","name":"송도파크골프장(이동식)","lat":37.399104,"lng":126.656485,"roadAddr":"인천광역시 연수구 아암대로 764 (송도동)","jibunAddr":"인천광역시 연수구 송도동 1","openHours":"상시","maleToilets":4,"femaleToilets":3,"disabled":true,"diaperTable":false,"emergencyBell":true,"cctv":false,"managerTel":"0324562860","source":"public","category":"public"},{"id":"202335200000100166","name":"홈플러스 인천연수점","lat":37.405998,"lng":126.683622,"roadAddr":"인천광역시 연수구 청능대로 210 (동춘동, 스퀘어원)","jibunAddr":"인천광역시 연수구 동춘동 926","openHours":"정시","maleToilets":16,"femaleToilets":17,"disabled":true,"diaperTable":true,"emergencyBell":true,"cctv":true,"managerTel":"0324308119","source":"public","category":"public"},{"id":"202335200000100229","name":"늘봄공원","lat":37.4132,"lng":126.678539,"roadAddr":"인천광역시 연수구 샘말로 37-7","jibunAddr":"인천광역시 연수구 연수동 603","openHours":"상시","maleToilets":4,"femaleToilets":5,"disabled":true,"diaperTable":true,"emergencyBell":true,"cctv":false,"managerTel":"0327498694","source":"public","category":"public"},{"id":"202435200000100028","name":"청학문화센터","lat":37.426306,"lng":126.667669,"roadAddr":"인천광역시 연수구 비류대로 299, 청학문화센터 (청학동)","jibunAddr":"인천광역시 연수구 청학동 239-4 청학문화센터","openHours":"정시","maleToilets":15,"femaleToilets":17,"disabled":true,"diaperTable":false,"emergencyBell":false,"cctv":true,"managerTel":"0328308031","source":"public","category":"public"},{"id":"202335200000100177","name":"연수종합사회복지관","lat":37.415015,"lng":126.687503,"roadAddr":"인천광역시 연수구 원인재로212 연수종합사회복지관","jibunAddr":"인천광역시 연수구 연수동 582-1","openHours":"정시","maleToilets":13,"femaleToilets":7,"disabled":true,"diaperTable":true,"emergencyBell":false,"cctv":true,"managerTel":"0328118012","source":"public","category":"public"},{"id":"202335200000100028","name":"함박종합사회복지관","lat":37.425988,"lng":126.687163,"roadAddr":"인천광역시 연수구 함박안로 217(연수동)","jibunAddr":"인천광역시 연수구 연수동 1","openHours":"정시","maleToilets":7,"femaleToilets":10,"disabled":true,"diaperTable":false,"emergencyBell":true,"cctv":false,"managerTel":"0327249965","source":"public","category":"public"},{"id":"202335200000100200","name":"인천여성의광장","lat":37.412133,"lng":126.665987,"roadAddr":"인천광역시 연수구 앵고개로 183 (동춘동, 인천여성의광장)","jibunAddr":"인천광역시 연수??? 동춘동 920","openHours":"정시","maleToilets":18,"femaleToilets":16,"disabled":true,"diaperTable":true,"emergencyBell":true,"cctv":false,"managerTel":"0324408974","source":"public","category":"public"},{"id":"202335200000100158","name":"용담공원","lat":37.419665,"lng":126.673818,"roadAddr":"인천광역시 연수구 용담로 49","jibunAddr":"인천광역시 연수구 청학동 467","openHours":"상시","maleToilets":7,"femaleToilets":3,"disabled":false,"diaperTable":true,"emergencyBell":true,"cctv":true,"managerTel":"0327498694","source":"public","category":"public"},{"id":"202335200000100201","name":"연수구청소년수련관","lat":37.412533,"lng":126.660621,"roadAddr":"인천광역시 연수구 앵고개로 132 (동춘동, 청소년수련관)","jibunAddr":"인천광역시 연수구 동춘동 778-4","openHours":"정시","maleToilets":5,"femaleToilets":3,"disabled":true,"diaperTable":false,"emergencyBell":true,"cctv":false,"managerTel":"0328332010","source":"public","category":"public"},{"id":"202335200000100034","name":"함박비류도서관","lat":37.425988,"lng":126.687163,"roadAddr":"인천광역시 연수구 함박안로 217(연수동)","jibunAddr":"인천광역시 연수구 연수동 1","openHours":"정시","maleToilets":6,"femaleToilets":6,"disabled":true,"diaperTable":true,"emergencyBell":true,"cctv":false,"managerTel":"0327496970","source":"public","category":"public"},{"id":"202435200000100002","name":"507문화벙커 생활문화센터","lat":37.416464,"lng":126.677705,"roadAddr":"인천광역시 연수구 먼우금로 218 (연수동, 연수푸르지오3단지)","jibunAddr":"인천광역시 연수구 청학동 499-3","openHours":"정시","maleToilets":2,"femaleToilets":2,"disabled":false,"diaperTable":false,"emergencyBell":true,"cctv":true,"managerTel":"0328221000","source":"public","category":"public"},{"id":"202435200000100006","name":"동곡공원","lat":37.411402,"lng":126.677595,"roadAddr":"인천광역시 연수구 청능대로 130-2, 구두수선대 (동춘동)","jibunAddr":"인천광역시 연수구 동춘동 56 일원","openHours":"상시","maleToilets":2,"femaleToilets":2,"disabled":true,"diaperTable":true,"emergencyBell":true,"cctv":false,"managerTel":"0327498694","source":"public","category":"public"},{"id":"202435200000100003","name":"옥련지구대","lat":37.427785,"lng":126.65893,"roadAddr":"인천광역시 연수구 비류대로 215, 옥련치안센터 (옥련동)","jibunAddr":"인천광역시 연수구 옥련동 318-1 옥련치안센터","openHours":"상시","maleToilets":4,"femaleToilets":1,"disabled":false,"diaperTable":false,"emergencyBell":false,"cctv":false,"managerTel":"0324530304","source":"public","category":"public"},{"id":"202335200000100286","name":"새아침공원(이동식, 도서관옆)","lat":37.397981,"lng":126.653649,"roadAddr":"인천광역시 연수구 컨벤시아대로 43, 송도국제어린이도서관 (송도동)","jibunAddr":"인천광역시 연수구 송도동 2-1 송도국제어린이도서관","openHours":"상시","maleToilets":2,"femaleToilets":2,"disabled":true,"diaperTable":false,"emergencyBell":true,"cctv":false,"managerTel":"0324562860","source":"public","category":"public"},{"id":"202435200000100004","name":"동춘2공원","lat":37.405084,"lng":126.667105,"roadAddr":"인천광역시 연수구 봉재산로 108 (동춘동)","jibunAddr":"인천광역시 연수구 동춘동 1145","openHours":"상시","maleToilets":5,"femaleToilets":5,"disabled":true,"diaperTable":false,"emergencyBell":false,"cctv":false,"source":"public","category":"public"},{"id":"202335200000100259","name":"신연수역","lat":37.417959,"lng":126.693872,"roadAddr":"인천광역시 연수구 경원대로 지하 368 (선학동, 신연수역)","jibunAddr":"인천광역시 연수구 선학동 신연수역","openHours":"정시","maleToilets":6,"femaleToilets":7,"disabled":true,"diaperTable":true,"emergencyBell":true,"cctv":true,"managerTel":"0324513129","source":"public","category":"public"},{"id":"202335200000100251","name":"청량공원","lat":37.411362,"lng":126.673549,"roadAddr":"인천광역시 연수구 먼우금로 150번길","jibunAddr":"인천광역시 연수구 동춘동 923-4","openHours":"상시","maleToilets":5,"femaleToilets":4,"disabled":true,"diaperTable":true,"emergencyBell":true,"cctv":false,"managerTel":"0327498694","source":"public","category":"public"},{"id":"202335200000100134","name":"연수꿈담도서관","lat":37.412385,"lng":126.674741,"roadAddr":"인천광역시 연수구 먼우금로 164, 연수어린이도서관 (동춘동)","jibunAddr":"인천광역시 연수구 동춘동 923-2 연수어린이도서관","openHours":"정시","maleToilets":14,"femaleToilets":10,"disabled":true,"diaperTable":true,"emergencyBell":false,"cctv":false,"managerTel":"0327498200","source":"public","category":"public"},{"id":"202335200000100157","name":"청담공원","lat":37.419273,"lng":126.67286,"roadAddr":"인천광역시 연수구 용담로 50","jibunAddr":"인천광역시 연수구 청학동 467","openHours":"상시","maleToilets":5,"femaleToilets":5,"disabled":true,"diaperTable":true,"emergencyBell":true,"cctv":false,"managerTel":"0327498694","source":"public","category":"public"},{"id":"202335200000100193","name":"문화공원2","lat":37.417616,"lng":126.681477,"roadAddr":"인천광역시 연수구 새말로 121","jibunAddr":"인천광역시 연수구 연수동 578","openHours":"상시","maleToilets":4,"femaleToilets":5,"disabled":true,"diaperTable":true,"emergencyBell":true,"cctv":false,"managerTel":"0327498694","source":"public","category":"public"},{"id":"202335200000100197","name":"연일공원","lat":37.419453,"lng":126.691615,"roadAddr":"인천광역시 연수구 함박뫼로 231","jibunAddr":"인천광역시 연수구 연수동 533-1","openHours":"상시","maleToilets":4,"femaleToilets":5,"disabled":true,"diaperTable":false,"emergencyBell":true,"cctv":false,"managerTel":"0327498694","source":"public","category":"public"},{"id":"202435200000100032","name":"승기천 원인재역","lat":37.407859,"lng":126.685543,"roadAddr":"인천광역시 연수구 청능대로 205, 연수체육공원 (연수동)","jibunAddr":"인천광역시 연수구 연수동 636 연수체육공원","openHours":"상시","maleToilets":2,"femaleToilets":2,"disabled":true,"diaperTable":true,"emergencyBell":true,"cctv":false,"managerTel":"0327497920","source":"public","category":"public"},{"id":"202335200000100155","name":"청학노인복지관","lat":37.427669,"lng":126.666594,"roadAddr":"인천광역시 연수구 청학로12번길 53 (청학노인문화센터)","jibunAddr":"인천광역시 연수구 청학동 539-3","openHours":"정시","maleToilets":18,"femaleToilets":10,"disabled":true,"diaperTable":false,"emergencyBell":true,"cctv":true,"managerTel":"0328317131","source":"public","category":"public"},{"id":"202335200000100159","name":"하나공원","lat":37.419221,"lng":126.67055,"roadAddr":"인천광역시 연수구 청능대로 23","jibunAddr":"인천광역시 연수구 청학동 465-1","openHours":"상시","maleToilets":4,"femaleToilets":3,"disabled":true,"diaperTable":true,"emergencyBell":true,"cctv":false,"managerTel":"0327498694","source":"public","category":"public"},{"id":"202335200000100156","name":"청학공원","lat":37.415673,"lng":126.674942,"roadAddr":"인천광역시 연수구 청명로4번길","jibunAddr":"인천광역시 연수구 청학동 501","openHours":"상시","maleToilets":5,"femaleToilets":6,"disabled":true,"diaperTable":true,"emergencyBell":true,"cctv":false,"managerTel":"0327498694","source":"public","category":"public"},{"id":"202335200000100252","name":"청은공원","lat":37.413271,"lng":126.672688,"roadAddr":"인천광역시 연수구 먼우금로 161번길","jibunAddr":"인천광역시 연수구 동춘동 917-1","openHours":"상시","maleToilets":3,"femaleToilets":2,"disabled":true,"diaperTable":true,"emergencyBell":true,"cctv":false,"managerTel":"0327498694","source":"public","category":"public"},{"id":"202335200000100288","name":"새아침공원(생태교육관 내)","lat":37.397981,"lng":126.653649,"roadAddr":"인천광역시 연수구 컨벤시아대로 43, 송도국제어린이도서관 (송도동)","jibunAddr":"인천광역시 연수구 송도동 2-1 송도국제어린이도서관","openHours":"정시","maleToilets":5,"femaleToilets":3,"disabled":true,"diaperTable":false,"emergencyBell":true,"cctv":false,"managerTel":"0324562860","source":"public","category":"public"},{"id":"202335200000100182","name":"연수구청","lat":37.409494,"lng":126.678338,"roadAddr":"인천광역시 연수구 원인재로 115 (동춘동, 연수구청)","jibunAddr":"인천광역시 연수구 동춘동 923-5","openHours":"정시","maleToilets":139,"femaleToilets":68,"disabled":true,"diaperTable":true,"emergencyBell":true,"cctv":true,"managerTel":"0328308021","source":"public","category":"public"},{"id":"202335200000100186","name":"옥련119안전센터","lat":37.420649,"lng":126.651928,"roadAddr":"인천광역시 연수구 옥련동 522-10","jibunAddr":"인천광역시 연수구 옥련동 522-10","openHours":"정시","maleToilets":5,"femaleToilets":2,"disabled":true,"diaperTable":false,"emergencyBell":false,"cctv":true,"managerTel":"0328320119","source":"public","category":"public"},{"id":"202335200000100191","name":"양지공원","lat":37.421478,"lng":126.669128,"roadAddr":"인천광역시 연수구 용담로 11번길","jibunAddr":"인천광역시 연수구 연수동 594-1","openHours":"상시","maleToilets":5,"femaleToilets":6,"disabled":true,"diaperTable":true,"emergencyBell":true,"cctv":true,"managerTel":"0327498694","source":"public","category":"public"},{"id":"202335200000100199","name":"동춘119안전센터","lat":37.40915,"lng":126.671289,"roadAddr":"인천광역시 연수구 앵고개로241","jibunAddr":"인천광역시 연수구 동춘동 924-2","openHours":"상시","maleToilets":5,"femaleToilets":5,"disabled":true,"diaperTable":false,"emergencyBell":false,"cctv":false,"managerTel":"0328132119","source":"public","category":"public"},{"id":"202335200000100195","name":"일단지공원","lat":37.420047,"lng":126.67805,"roadAddr":"인천광역시 연수구 먼우금로251번길","jibunAddr":"인천광역시 연수구 연수동 544-9","openHours":"상시","maleToilets":5,"femaleToilets":5,"disabled":true,"diaperTable":false,"emergencyBell":true,"cctv":false,"managerTel":"0327498694","source":"public","category":"public"},{"id":"202335200000100161","name":"성호공원","lat":37.423407,"lng":126.667897,"roadAddr":"인천광역시 연수구 솔샘로 5","jibunAddr":"인천광역시 연수구 청학동 449-1","openHours":"상시","maleToilets":5,"femaleToilets":5,"disabled":true,"diaperTable":true,"emergencyBell":true,"cctv":false,"managerTel":"0327498694","source":"public","category":"public"},{"id":"202335200000100246","name":"봉재공원","lat":37.406897,"lng":126.667921,"roadAddr":"인천광역시 연수구 먼우금로 83번길","jibunAddr":"인천광역시 연수구 동춘동 940-1","openHours":"상시","maleToilets":5,"femaleToilets":6,"disabled":true,"diaperTable":true,"emergencyBell":true,"cctv":false,"managerTel":"0327498694","source":"public","category":"public"},{"id":"202335200000100242","name":"동춘1동행정복지센터","lat":37.409601,"lng":126.670775,"roadAddr":"인천광역시 연수구 먼우금로 117 (동춘동, 동춘1동주민센터)","jibunAddr":"인천광역시 연수구 동춘동 921-2","openHours":"정시","maleToilets":6,"femaleToilets":6,"disabled":true,"diaperTable":true,"emergencyBell":false,"cctv":false,"managerTel":"0327496377","source":"public","category":"public"},{"id":"202335200000100183","name":"동춘3동행정복지센터","lat":37.408458,"lng":126.678326,"roadAddr":"인천광역시 연수구 원인재로 110 (동춘동, 동춘3동주민센터)","jibunAddr":"인천광역시 연수구 동춘동 925-2","openHours":"정시","maleToilets":8,"femaleToilets":6,"disabled":true,"diaperTable":true,"emergencyBell":false,"cctv":false,"managerTel":"0327496474","source":"public","category":"public"},{"id":"202335200000100239","name":"동춘지구대","lat":37.402927,"lng":126.669249,"roadAddr":"인천광역시 연수구 먼우금로45번길 5 (동춘동, 동춘지구대)","jibunAddr":"인천광역시 연수구 동춘동 943-2","openHours":"상시","maleToilets":3,"femaleToilets":2,"disabled":true,"diaperTable":false,"emergencyBell":true,"cctv":true,"managerTel":"0324530313","source":"public","category":"public"},{"id":"202335200000100231","name":"청학동행정복지센터","lat":37.426585,"lng":126.666903,"roadAddr":"인천광역시 연수구 비류대로 287, 청학동 행정복지센터(신 청사) (청학동)","jibunAddr":"인천광역시 연수구 청학동 170 청학동 행정복지센터(신 청사)","openHours":"정시","maleToilets":12,"femaleToilets":12,"disabled":true,"diaperTable":true,"emergencyBell":true,"cctv":false,"managerTel":"0327496300","source":"public","category":"public"},{"id":"202335200000100143","name":"연수구보건소","lat":37.419054,"lng":126.671115,"roadAddr":"인천광역시 연수구 함박뫼로 13, 연수보건소 (청학동)","jibunAddr":"인천광역시 연수구 청학동 465-4 연수보건소","openHours":"정시","maleToilets":16,"femaleToilets":16,"disabled":true,"diaperTable":true,"emergencyBell":true,"cctv":true,"managerTel":"0327498025","source":"public","category":"public"},{"id":"202335200000100233","name":"연수동우체국","lat":37.42381,"lng":126.683062,"roadAddr":"인천광역시 연수구 비류대로 436 (연수동)","jibunAddr":"인천광역시 연수구 연수동 534-1","openHours":"정시","maleToilets":1,"femaleToilets":1,"disabled":true,"diaperTable":false,"emergencyBell":false,"cctv":false,"managerTel":"0328122106","source":"public","category":"public"},{"id":"202335200000100237","name":"송도역(수인선)","lat":37.429936,"lng":126.654627,"roadAddr":"인천광역시 연수구 비류대로 175, 송도역 (옥련동)","jibunAddr":"인천광역시 연수구 옥련동 산 51-3 송도역","openHours":"정시","maleToilets":23,"femaleToilets":24,"disabled":true,"diaperTable":true,"emergencyBell":true,"cctv":true,"managerTel":"03180775593","source":"public","category":"public"},{"id":"202335200000100178","name":"세화종합사회복지관","lat":37.421322,"lng":126.690876,"roadAddr":"인천광역시 연수구 원인재로 315 (연수동, 주공아파트)","jibunAddr":"인천광역시 연수구 연수동 533","openHours":"정시","maleToilets":4,"femaleToilets":4,"disabled":true,"diaperTable":false,"emergencyBell":true,"cctv":false,"managerTel":"0328132791","source":"public","category":"public"},{"id":"202335200000100115","name":"인천상륙작전기념관(본관동)","lat":37.419574,"lng":126.654236,"roadAddr":"인천광역시 연수구 청량로 138(옥련동, 인천상륙작전기념관)","jibunAddr":"인천광역시 연수구 옥련동 525-1","openHours":"상시","maleToilets":5,"femaleToilets":3,"disabled":true,"diaperTable":false,"emergencyBell":false,"cctv":false,"managerTel":"0328329412","source":"public","category":"public"},{"id":"202335200000100247","name":"동춘공원","lat":37.408782,"lng":126.670183,"roadAddr":"인천광역시 연수구 먼우금로 107","jibunAddr":"인천광역시 연수구 동춘동 938-2","openHours":"상시","maleToilets":5,"femaleToilets":5,"disabled":true,"diaperTable":true,"emergencyBell":true,"cctv":false,"managerTel":"0327498694","source":"public","category":"public"},{"id":"202335200000100113","name":"진달래 생활문화센터","lat":37.414652,"lng":126.67628,"roadAddr":"인천광역시 연수구 먼우금로 193-2","jibunAddr":"인천광역시 연수구 청학동 507번지 청학중학교 앞 지하보도","openHours":"정시","maleToilets":3,"femaleToilets":2,"disabled":false,"diaperTable":false,"emergencyBell":true,"cctv":true,"managerTel":"0328221000","source":"public","category":"public"},{"id":"202335200000100062","name":"대학공원(1)","lat":37.421826,"lng":126.684984,"roadAddr":"인천광역시 연수구 함박뫼로 162, 대학공원화장실 (연수동)","jibunAddr":"인천광역시 연수구 연수동 580 대학공원화장실","openHours":"상시","maleToilets":12,"femaleToilets":7,"disabled":true,"diaperTable":false,"emergencyBell":true,"cctv":false,"managerTel":"0327498694","source":"public","category":"public"},{"id":"202335200000100190","name":"솔안공원","lat":37.412319,"lng":126.682841,"roadAddr":"인천광역시 연수구 원인재로 170","jibunAddr":"인천광역시 연수구 연수동 634-2","openHours":"상시","maleToilets":5,"femaleToilets":4,"disabled":true,"diaperTable":true,"emergencyBell":true,"cctv":true,"managerTel":"0327498694","source":"public","category":"public"},{"id":"202335200000100194","name":"문화공원1","lat":37.41812,"lng":126.682333,"roadAddr":"인천광역시 연수구 새말로 120","jibunAddr":"인천광역시 연수구 연수동 578","openHours":"상시","maleToilets":7,"femaleToilets":3,"disabled":true,"diaperTable":true,"emergencyBell":true,"cctv":false,"managerTel":"0327498694","source":"public","category":"public"},{"id":"202335200000100302","name":"동춘1공원","lat":37.408782,"lng":126.670183,"roadAddr":"인천광역시 연수구 먼우금로 107","jibunAddr":"인천광역시 연수구 동춘동 938-2","openHours":"상시","maleToilets":5,"femaleToilets":5,"disabled":true,"diaperTable":false,"emergencyBell":false,"cctv":false,"managerTel":"0327498694","source":"public","category":"public"},{"id":"202335200000100132","name":"원인재역(수인선)","lat":37.413273,"lng":126.68633,"roadAddr":"인천광역시 연수구 벚꽃로 195 (연수동, 원인재역(수인선))","jibunAddr":"인천광역시 연수구 연수동 585-1","openHours":"정시","maleToilets":9,"femaleToilets":14,"disabled":true,"diaperTable":true,"emergencyBell":true,"cctv":true,"managerTel":"03180775571","source":"public","category":"public"},{"id":"202335200000100136","name":"마리공원","lat":37.426219,"lng":126.681928,"roadAddr":"인천광역시 연수구 함박안로62번길 51-2 (연수동, 함박마을경로당)","jibunAddr":"인천광역시 연수구 연수동 514","openHours":"상시","maleToilets":5,"femaleToilets":5,"disabled":true,"diaperTable":false,"emergencyBell":true,"cctv":false,"managerTel":"0327498694","source":"public","category":"public"},{"id":"202335200000100141","name":"연수구노인복지관","lat":37.421102,"lng":126.687763,"roadAddr":"인천광역시 연수구 함박뫼로 194 (연수동, 노인복지회관)","jibunAddr":"인천광역시 연수구 연수동 580","openHours":"정시","maleToilets":20,"femaleToilets":14,"disabled":true,"diaperTable":false,"emergencyBell":true,"cctv":true,"managerTel":"0328112660","source":"public","category":"public"},{"id":"202335200000100145","name":"연수지구대","lat":37.418757,"lng":126.670917,"roadAddr":"인천광역시 연수구 함박뫼로 11-8 (청학동, 연수지구대)","jibunAddr":"인천광역시 연수구 청학동 465-3","openHours":"상시","maleToilets":2,"femaleToilets":0,"disabled":true,"diaperTable":true,"emergencyBell":true,"cctv":false,"managerTel":"0324530810","source":"public","category":"public"},{"id":"202335200000100180","name":"연수경찰서","lat":37.410167,"lng":126.681382,"roadAddr":"인천광역시 연수구 원인재로 138 (연수동, 연수경찰서)","jibunAddr":"인천광역시 연수구 동춘동 635-2","openHours":"상시","maleToilets":7,"femaleToilets":2,"disabled":true,"diaperTable":false,"emergencyBell":false,"cctv":false,"managerTel":"0324530321","source":"public","category":"public"},{"id":"202335200000100260","name":"원인재역","lat":37.412108,"lng":126.687628,"roadAddr":"인천광역시 연수구 경원대로 지하 285 (연수동, 원인재역)","jibunAddr":"인천광역시 연수구 연수동 원인재역","openHours":"정시","maleToilets":12,"femaleToilets":12,"disabled":true,"diaperTable":true,"emergencyBell":true,"cctv":true,"managerTel":"0324513130","source":"public","category":"public"},{"id":"202335200000100268","name":"연수2동행정복지센터","lat":37.411667,"lng":126.681835,"roadAddr":"인천광역시 연수구 원인재로158","jibunAddr":"인천광역시 연수구 송도동 634-4","openHours":"정시","maleToilets":8,"femaleToilets":3,"disabled":true,"diaperTable":false,"emergencyBell":false,"cctv":false,"managerTel":"0327496223","source":"public","category":"public"},{"id":"202535300000100002","name":"남동산단파출소","lat":37.409346,"lng":126.6936,"roadAddr":"인천광역시 남동구 남동대로239번길 112, 남동공단파출소 (논현동)","jibunAddr":"인천광역시 남동구 논현동 450-2 남동공단파출소","openHours":"상시","maleToilets":5,"femaleToilets":2,"disabled":true,"diaperTable":false,"emergencyBell":false,"cctv":false,"source":"public","category":"public"},{"id":"202435300000101354","name":"공단소방서(고잔119안전센터)","lat":37.408176,"lng":126.693,"roadAddr":"인천광역시 남동구 남동서로 208, 공단소방서 (고잔동)","jibunAddr":"인천광역시 남동구 고잔동 633 공단소방서","openHours":"상시","maleToilets":10,"femaleToilets":1,"disabled":true,"diaperTable":true,"emergencyBell":false,"cctv":false,"managerTel":"0327235521","source":"public","category":"public"},{"id":"202435300000101184","name":"근로자복지타운","lat":37.397986,"lng":126.689627,"roadAddr":"인천광역시 남동구 앵고개로 448","jibunAddr":"인천광역시 남동구 고잔동 690-15","openHours":"상시","maleToilets":6,"femaleToilets":3,"disabled":false,"diaperTable":false,"emergencyBell":false,"cctv":false,"source":"public","category":"public"},{"id":"202435300000101218","name":"현대오일뱅크㈜직영공단2주유소","lat":37.397853,"lng":126.691736,"roadAddr":"인천광역시 남동구 앵고개로 463","jibunAddr":"인천광역시 남동구 고잔동673-10","openHours":"정시","maleToilets":6,"femaleToilets":2,"disabled":false,"diaperTable":false,"emergencyBell":false,"cctv":false,"managerTel":"0324536124","source":"public","category":"public"},{"id":"202435300000101323","name":"남동공단파출소","lat":37.409346,"lng":126.6936,"roadAddr":"인천광역시 남동구 남동대로239번길 112","jibunAddr":"인천광역시 남동구 논현동 450-2","openHours":"상시","maleToilets":3,"femaleToilets":1,"disabled":true,"diaperTable":false,"emergencyBell":false,"cctv":false,"source":"public","category":"public"},{"id":"202435300000101106","name":"월례근린공원","lat":37.406764,"lng":126.689431,"roadAddr":"인천광역시 남동구 남동서로205번길 41","jibunAddr":"인천광역시 남동구 고잔동 626번지 7호","openHours":"상시","maleToilets":6,"femaleToilets":4,"disabled":true,"diaperTable":false,"emergencyBell":true,"cctv":false,"managerTel":"0324536107","source":"public","category":"public"},{"id":"202435300000101304","name":"인천공단소방서","lat":37.408176,"lng":126.693,"roadAddr":"인천광역시 남동구 남동서로 208","jibunAddr":"인천광역시 남동구 고잔동 633","openHours":"정시","maleToilets":9,"femaleToilets":1,"disabled":true,"diaperTable":false,"emergencyBell":false,"cctv":false,"managerTel":"0327235521","source":"public","category":"public"}]