[{"id":"202539300000100991","name":"하늘공원 화장실","lat":37.346532,"lng":126.870185,"roadAddr":"경기도 안산시 상록구 수인로 1824","jibunAddr":"경기도 안산시 상록구 부곡동 산12","openHours":"상시","maleToilets":7,"femaleToilets":4,"disabled":true,"diaperTable":false,"emergencyBell":false,"cctv":true,"managerTel":"0314812834","source":"public","category":"public"},{"id":"202539300000101241","name":"반월역","lat":37.312004,"lng":126.903795,"roadAddr":"경기도 안산시 상록구 건건로 119-10","jibunAddr":"경기도 안산시 상록구 건건동 산62-1","openHours":"정시","maleToilets":6,"femaleToilets":3,"disabled":true,"diaperTable":true,"emergencyBell":true,"cctv":true,"managerTel":"0314377730","source":"public","category":"public"},{"id":"202539300000100987","name":"근로복지공단 안산병원 화장실","lat":37.316787,"lng":126.873991,"roadAddr":"경기도 안산시 상록구 구룡로 87","jibunAddr":"경기도 안산시 상록구 일동 95","openHours":"정시","maleToilets":6,"femaleToilets":6,"disabled":true,"diaperTable":false,"emergencyBell":false,"cctv":false,"managerTel":"0315001264","source":"public","category":"public"},{"id":"202539300000100994","name":"부곡산림욕장 화장실","lat":37.340838,"lng":126.882195,"jibunAddr":"경기도 안산시 상록구 부곡동 산5-1","openHours":"상시","maleToilets":2,"femaleToilets":1,"disabled":false,"diaperTable":false,"emergencyBell":true,"cctv":false,"managerTel":"0314812406","source":"public","category":"public"},{"id":"202539300000101629","name":"성원충전소","lat":37.34919,"lng":126.871293,"roadAddr":"경기도 안산시 상록구 수인로 1848","jibunAddr":"경기도 안산시 상록구 장상동 431-3","openHours":"미개방","maleToilets":3,"femaleToilets":2,"disabled":false,"diaperTable":false,"emergencyBell":false,"cctv":false,"managerTel":"0314118831","source":"public","category":"public"},{"id":"202539300000101170","name":"남산뜰 화장실","lat":37.310776,"lng":126.895046,"roadAddr":"경기도 안산시 상록구 삼천리로 10","jibunAddr":"경기도 안산시 상록구 팔곡일동 129","openHours":"상시","maleToilets":2,"femaleToilets":2,"disabled":false,"diaperTable":false,"emergencyBell":true,"cctv":false,"managerTel":"0314811729","source":"public","category":"public"},{"id":"202539300000101623","name":"컴인워시 별빛전기충전소","lat":37.314323,"lng":126.907957,"roadAddr":"경기도 안산시 상록구 건건로 162","jibunAddr":"경기도 안산시 상록구 건건동 338-5","openHours":"미개방","maleToilets":2,"femaleToilets":2,"disabled":false,"diaperTable":false,"emergencyBell":false,"cctv":false,"source":"public","category":"public"},{"id":"202539300000100926","name":"47호 달빛공원 화장실","lat":37.3146,"lng":126.907257,"jibunAddr":"경기도 안산시 상록구 건건동 327-4","openHours":"상시","maleToilets":3,"femaleToilets":0,"disabled":true,"diaperTable":false,"emergencyBell":true,"cctv":false,"managerTel":"0314812468","source":"public","category":"public"},{"id":"202539300000101688","name":"대한불교천태종 안산 월강사","lat":37.316556,"lng":126.872603,"roadAddr":"경기도 안산시 상록구 구룡서길 79","jibunAddr":"경기도 안산시 상록구 일동 96","openHours":"상시","maleToilets":5,"femaleToilets":4,"disabled":false,"diaperTable":false,"emergencyBell":false,"cctv":false,"managerTel":"0314195048","source":"public","category":"public"},{"id":"202539300000101542","name":"상림주유소","lat":37.311709,"lng":126.912729,"roadAddr":"경기도 안산시 상록구 서해로 2921","jibunAddr":"경기도 안산시 상록구 건건동 435-1","openHours":"정시","maleToilets":3,"femaleToilets":2,"disabled":false,"diaperTable":false,"emergencyBell":false,"cctv":false,"managerTel":"0314375151","source":"public","category":"public"}]