[{"id":"202431400000103812","name":"목4동시장 고객지원센터","lat":37.537616,"lng":126.866218,"roadAddr":"서울특별시 양천구 목동중앙남로7길 8","jibunAddr":"서울특별시 양천구 목4동 726-18","openHours":"09시~19시","maleToilets":3,"femaleToilets":3,"disabled":false,"diaperTable":false,"emergencyBell":true,"cctv":true,"managerTel":"0226203426","source":"public","category":"public"},{"id":"202431400000103916","name":"플라트㈜ 서호주유소","lat":37.538583,"lng":126.827017,"roadAddr":"서울특별시 양천구 남부순환로 317(신월동)","openHours":"00:00~24:00 (05:00~24:00  매주월요일)","maleToilets":3,"femaleToilets":1,"disabled":false,"diaperTable":false,"emergencyBell":false,"cctv":false,"managerTel":"0226204874","source":"public","category":"public"},{"id":"202431400000103798","name":"서울삼일교회","lat":37.533171,"lng":126.828097,"roadAddr":"서울특별시 양천구 남부순환로50길 21","jibunAddr":"서울특별시 양천구 신월3동 164-10","openHours":"개관시간","maleToilets":6,"femaleToilets":4,"disabled":false,"diaperTable":false,"emergencyBell":false,"cctv":false,"managerTel":"0226203426","source":"public","category":"public"},{"id":"202431400000104138","name":"신월3동주민센터","lat":37.533632,"lng":126.829082,"roadAddr":"서울특별시 양천구 남부순환로54길 5(신월동)","openHours":"09~18시","maleToilets":6,"femaleToilets":6,"disabled":true,"diaperTable":false,"emergencyBell":false,"cctv":true,"managerTel":"0226204105","source":"public","category":"public"},{"id":"202431400000103941","name":"㈜새서울개발주차장\n(신월3동 공영주차장)","lat":37.532714,"lng":126.828598,"roadAddr":"서울특별시 양천구 남부순환로 380-1","jibunAddr":"서울특별시 양천구 신월3동 170-6","openHours":"상시","maleToilets":4,"femaleToilets":1,"disabled":false,"diaperTable":false,"emergencyBell":true,"cctv":false,"managerTel":"07049539825","source":"public","category":"public"},{"id":"202431400000103666","name":"신월5동주민센터","lat":37.538582,"lng":126.827174,"roadAddr":"서울특별시 양천구 화곡로4길 10","openHours":"09~18시","maleToilets":23,"femaleToilets":18,"disabled":true,"diaperTable":false,"emergencyBell":false,"cctv":false,"managerTel":"0226204143","source":"public","category":"public"},{"id":"202431400000104151","name":"신월보건지소","lat":37.531337,"lng":126.831823,"roadAddr":"서울특별시 양천구 남부순환로 407","openHours":"09~18시","maleToilets":3,"femaleToilets":3,"disabled":true,"diaperTable":true,"emergencyBell":true,"cctv":false,"managerTel":"0226204751","source":"public","category":"public"},{"id":"202431400000104115","name":"목동종합사회복지관","lat":37.54424,"lng":126.866376,"roadAddr":"서울특별시 양천구 목동중앙북로8길 104","jibunAddr":"서울특별시 양천구 목2동 552-1","openHours":"09:00-20:00","maleToilets":16,"femaleToilets":9,"disabled":true,"diaperTable":false,"emergencyBell":false,"cctv":true,"managerTel":"0226512332","source":"public","category":"public"},{"id":"202431400000103700","name":"대흥가스㈜","lat":37.531231,"lng":126.831791,"roadAddr":"서울특별시 양천구 남부순환로 411","openHours":"06:00~24:00","maleToilets":2,"femaleToilets":1,"disabled":false,"diaperTable":false,"emergencyBell":false,"cctv":false,"managerTel":"0226204874","source":"public","category":"public"},{"id":"202431400000103936","name":"비케이서비스산업","lat":37.538998,"lng":126.826735,"roadAddr":"서울특별시 양천구 남부순환로 311","openHours":"06:00~24:00","maleToilets":2,"femaleToilets":1,"disabled":false,"diaperTable":false,"emergencyBell":false,"cctv":false,"managerTel":"0226204874","source":"public","category":"public"},{"id":"202431400000103882","name":"양천구푸드마켓(신월점)","lat":37.53595,"lng":126.83377,"roadAddr":"서울특별시 양천구 곰달래로13길 73(신월동)","jibunAddr":"서울특별시 양천구 신월동 92-6","openHours":"09-18시","maleToilets":3,"femaleToilets":1,"disabled":true,"diaperTable":false,"emergencyBell":false,"cctv":true,"managerTel":"0226203343","source":"public","category":"public"},{"id":"202431400000104130","name":"목동어르신복지관","lat":37.536465,"lng":126.869268,"roadAddr":"서울특별시 양천구 목동중앙로3길 21","openHours":"09~18시","maleToilets":7,"femaleToilets":7,"disabled":true,"diaperTable":false,"emergencyBell":false,"cctv":true,"managerTel":"07077206729","source":"public","category":"public"},{"id":"202431400000103681","name":"㈜현대주유소","lat":37.53391,"lng":126.829178,"roadAddr":"서울특별시 양천구 남부순환로 372(신월동)","openHours":"상시","maleToilets":3,"femaleToilets":1,"disabled":false,"diaperTable":false,"emergencyBell":false,"cctv":false,"managerTel":"0226204874","source":"public","category":"public"},{"id":"202431400000103976","name":"신월1파출소 화장실","lat":37.532055,"lng":126.832252,"roadAddr":"서울특별시 양천구 남부순환로59길 8","jibunAddr":"서울특별시 양천구 신월동 132-3","openHours":"상시","maleToilets":1,"femaleToilets":0,"disabled":true,"diaperTable":false,"emergencyBell":true,"cctv":true,"managerTel":"0226020092","source":"public","category":"public"},{"id":"202431400000103660","name":"목4동주민센터","lat":37.532442,"lng":126.868423,"roadAddr":"서울특별시 양천구 목동중앙로 25","openHours":"09~18시","maleToilets":8,"femaleToilets":4,"disabled":true,"diaperTable":false,"emergencyBell":false,"cctv":false,"managerTel":"0226204005","source":"public","category":"public"},{"id":"202431400000103676","name":"목동보건지소","lat":37.540088,"lng":126.866973,"roadAddr":"서울특별시 양천구 목동중앙본로7가길11","openHours":"09~18시","maleToilets":4,"femaleToilets":2,"disabled":true,"diaperTable":false,"emergencyBell":false,"cctv":false,"managerTel":"0220845254","source":"public","category":"public"},{"id":"202431400000103563","name":"강서제일교회","lat":37.538197,"lng":126.831299,"roadAddr":"서울특별시 양천구 화곡로10길 19","jibunAddr":"서울특별시 양천구 신월5동 73-1","openHours":"개관시간","maleToilets":6,"femaleToilets":4,"disabled":false,"diaperTable":false,"emergencyBell":false,"cctv":true,"managerTel":"0226203426","source":"public","category":"public"},{"id":"202431400000103723","name":"서울신월3동우체국","lat":37.534673,"lng":126.82872,"roadAddr":"서울특별시 양천구 남부순환로 364","openHours":"09:00∼18:00","maleToilets":2,"femaleToilets":0,"disabled":false,"diaperTable":false,"emergencyBell":false,"cctv":false,"managerTel":"0226953482","source":"public","category":"public"},{"id":"202431400000104171","name":"형산석유㈜ 원주유소","lat":37.531159,"lng":126.831011,"roadAddr":"서울특별시 양천구 남부순환로 408(신월동)","openHours":"00:00~24:00","maleToilets":2,"femaleToilets":1,"disabled":false,"diaperTable":false,"emergencyBell":false,"cctv":false,"managerTel":"0226204874","source":"public","category":"public"},{"id":"202431400000103917","name":"에이치지 가로공원주유소","lat":37.53702,"lng":126.834299,"roadAddr":"서울특별시 양천구 가로공원로 165(신월동)","openHours":"상시","maleToilets":2,"femaleToilets":1,"disabled":false,"diaperTable":false,"emergencyBell":false,"cctv":false,"managerTel":"0226204874","source":"public","category":"public"},{"id":"202431400000103659","name":"목3동주민센터","lat":37.544741,"lng":126.864436,"roadAddr":"서울특별시 양천구 목동중앙남로16나길 55","openHours":"09~18시","maleToilets":14,"femaleToilets":12,"disabled":true,"diaperTable":false,"emergencyBell":false,"cctv":true,"managerTel":"0220845293","source":"public","category":"public"},{"id":"202431400000103892","name":"서서울어르신복지관","lat":37.534261,"lng":126.826766,"roadAddr":"서울특별시 양천구 가로공원로 60가길 16","openHours":"08~18시","maleToilets":12,"femaleToilets":13,"disabled":true,"diaperTable":true,"emergencyBell":true,"cctv":false,"managerTel":"0226084042","source":"public","category":"public"},{"id":"202431400000104102","name":"가로공원공영주차장","lat":37.535828,"lng":126.828984,"roadAddr":"서울특별시 양천구 가로공원로 116-1","jibunAddr":"서울특별시 양천구 신월동 263","openHours":"07시~21시","maleToilets":5,"femaleToilets":6,"disabled":true,"diaperTable":true,"emergencyBell":true,"cctv":true,"managerTel":"07049539827","source":"public","category":"public"},{"id":"202431400000104051","name":"신영시장 고객지원센터","lat":37.533014,"lng":126.836025,"roadAddr":"서울특별시 양천구 월정로 161-5","jibunAddr":"서울특별시 양천구 신월1동 114-18","openHours":"09:00~18:50","maleToilets":3,"femaleToilets":2,"disabled":true,"diaperTable":false,"emergencyBell":true,"cctv":true,"managerTel":"0226203426","source":"public","category":"public"},{"id":"202431400000103693","name":"양천구주유소","lat":37.530373,"lng":126.865512,"roadAddr":"서울특별시 양천구 국회대로 275(목동)","openHours":"08:00~익일05:00","maleToilets":3,"femaleToilets":1,"disabled":false,"diaperTable":false,"emergencyBell":false,"cctv":false,"managerTel":"0226204874","source":"public","category":"public"},{"id":"202431400000104052","name":"목동깨비시장 고객지원센터","lat":37.548185,"lng":126.865229,"roadAddr":"서울특별시 양천구 목동중앙북로6길 5","openHours":"09~19시","maleToilets":3,"femaleToilets":2,"disabled":true,"diaperTable":true,"emergencyBell":true,"cctv":true,"managerTel":"0226204826","source":"public","category":"public"},{"id":"202431400000104109","name":"목동문화체육센터","lat":37.542808,"lng":126.869088,"roadAddr":"서울특별시 양천구 목동중앙본로73","openHours":"07~21","maleToilets":7,"femaleToilets":7,"disabled":true,"diaperTable":true,"emergencyBell":true,"cctv":true,"managerTel":"07049539606","source":"public","category":"public"},{"id":"202431400000104025","name":"롯데리아목동사거리점","lat":37.532564,"lng":126.864029,"roadAddr":"서울특별시 양천구 등촌로 28(목동)","jibunAddr":"서울특별시 양천구 목4동 792-6","openHours":"정시(09~24시)","maleToilets":2,"femaleToilets":1,"disabled":false,"diaperTable":false,"emergencyBell":true,"cctv":true,"managerTel":"0226203426","source":"public","category":"public"},{"id":"202431400000103733","name":"양천경찰서 목2지구대","lat":37.544527,"lng":126.862364,"roadAddr":"서울특별시 양천구  등촌로 166","jibunAddr":"서울특별시 양천구 목3동 657-23","openHours":"09:00~18:00","maleToilets":3,"femaleToilets":1,"disabled":true,"diaperTable":false,"emergencyBell":false,"cctv":true,"managerTel":"0226520112","source":"public","category":"public"},{"id":"202431400000103550","name":"등촌빌딩","lat":37.545135,"lng":126.862608,"roadAddr":"서울특별시 양천구 등촌로 172(목동)","jibunAddr":"서울특별시 양천구 목3동 657-21","openHours":"상시","maleToilets":4,"femaleToilets":2,"disabled":false,"diaperTable":false,"emergencyBell":true,"cctv":true,"managerTel":"0226203426","source":"public","category":"public"},{"id":"202431400000104212","name":"신월5파출소 화장실","lat":37.539074,"lng":126.830674,"roadAddr":"서울특별시 양천구 남부순환로31길 37","jibunAddr":"서울특별시 양천구 59-5","openHours":"상시","maleToilets":2,"femaleToilets":1,"disabled":true,"diaperTable":false,"emergencyBell":false,"cctv":false,"managerTel":"0226930113","source":"public","category":"public"},{"id":"202431400000103899","name":"신월1동주민센터","lat":37.532806,"lng":126.831527,"roadAddr":"서울특별시 양천구 곰달래로1길 38","jibunAddr":"서울특별시 양천구 신월동 135-18","openHours":"09~18시","maleToilets":6,"femaleToilets":2,"disabled":true,"diaperTable":false,"emergencyBell":false,"cctv":true,"managerTel":"0226204048","source":"public","category":"public"},{"id":"202531500000100310","name":"공암나루근린공원 화장실","lat":37.570636,"lng":126.849088,"roadAddr":"서울특별시 강서구 강서로80길 117","jibunAddr":"서울특별시 강서구 가양1동 1459-9","openHours":"상시","maleToilets":8,"femaleToilets":6,"disabled":true,"diaperTable":true,"emergencyBell":true,"cctv":false,"managerTel":"0226004187","source":"public","category":"public"},{"id":"202531500000100277","name":"볏골공원공영주차장 화장실","lat":37.541816,"lng":126.844323,"roadAddr":"서울특별시 강서구 까치산로 4길 22","jibunAddr":"서울특별시 강서구 화곡동 98-99","openHours":"24시간","maleToilets":8,"femaleToilets":3,"disabled":true,"diaperTable":false,"emergencyBell":true,"cctv":false,"managerTel":"0220651575","source":"public","category":"public"},{"id":"202531500000100411","name":"(허준)박물관주유소 개방화장실","lat":37.567499,"lng":126.850302,"roadAddr":"서울특별시 강서구 양천로53길 97","jibunAddr":"서울특별시 강서구 가양동 26-1","openHours":"상시","maleToilets":2,"femaleToilets":1,"disabled":true,"diaperTable":false,"emergencyBell":false,"cctv":true,"managerTel":"0226004072","source":"public","category":"public"},{"id":"202531500000100408","name":"SK 가양주유소 개방화장실","lat":37.569737,"lng":126.841979,"roadAddr":"서울특별시 강서구 강서로 498","jibunAddr":"서울특별시 강서구 가양동 151-1","openHours":"상시","maleToilets":3,"femaleToilets":2,"disabled":false,"diaperTable":false,"emergencyBell":false,"cctv":false,"managerTel":"0226004072","source":"public","category":"public"},{"id":"202531500000100347","name":"서울식물원 습지원 화장실","lat":37.572244,"lng":126.832843,"roadAddr":"서울특별시 강서구 마곡동로 161","jibunAddr":"서울특별시 강서구 마곡동 812","openHours":"09:00~21:30","maleToilets":8,"femaleToilets":8,"disabled":true,"diaperTable":true,"emergencyBell":true,"cctv":true,"managerTel":"0221049725","source":"public","category":"public"},{"id":"202531500000100258","name":"가양도서관 화장실","lat":37.559587,"lng":126.865025,"roadAddr":"서울특별시 강서구 양천로61길 101","jibunAddr":"서울특별시 강서구 가양동 1493","openHours":"09:00~22:00","maleToilets":10,"femaleToilets":6,"disabled":true,"diaperTable":true,"emergencyBell":true,"cctv":true,"managerTel":"0226005424","source":"public","category":"public"},{"id":"202531500000100382","name":"옥천빌딩 개방화장실","lat":37.567873,"lng":126.841769,"roadAddr":"서울특별시 강서구 양천로 354, 옥천빌딩 (가양동)","jibunAddr":"서울특별시 강서구 가양동 133 옥천빌딩","openHours":"상시","maleToilets":4,"femaleToilets":2,"disabled":false,"diaperTable":false,"emergencyBell":false,"cctv":true,"managerTel":"0226004072","source":"public","category":"public"},{"id":"202531500000100312","name":"황금내근린공원 화장실","lat":37.561783,"lng":126.864102,"roadAddr":"서울특별시 강서구 허준로 221-40","jibunAddr":"서울특별시 강서구 가양3동 1485-5","openHours":"상시","maleToilets":5,"femaleToilets":5,"disabled":true,"diaperTable":true,"emergencyBell":true,"cctv":false,"managerTel":"0226004187","source":"public","category":"public"},{"id":"202531500000100224","name":"화곡1동주민센터 화장실","lat":37.530509,"lng":126.841592,"roadAddr":"서울특별시 강서구 곰달래로 79","jibunAddr":"서울특별시 강서구 화곡동 425-4","openHours":"09:00~18:00","maleToilets":13,"femaleToilets":5,"disabled":true,"diaperTable":false,"emergencyBell":true,"cctv":true,"managerTel":"0226007525","source":"public","category":"public"},{"id":"202531500000100394","name":"대지산업빌딩 개방화장실","lat":37.554543,"lng":126.855167,"roadAddr":"서울특별시 강서구 공항대로 434","jibunAddr":"서울특별시 강서구 화곡동 1125-15","openHours":"05:30~20:00","maleToilets":5,"femaleToilets":2,"disabled":false,"diaperTable":false,"emergencyBell":false,"cctv":false,"managerTel":"0226004072","source":"public","category":"public"},{"id":"202531500000100433","name":"서부교회 개방화장실","lat":37.536035,"lng":126.860243,"roadAddr":"서울특별시 강서구 등촌로13길59","jibunAddr":"서울특별시 강서구 화곡4동 814-3","openHours":"상시","maleToilets":1,"femaleToilets":1,"disabled":false,"diaperTable":false,"emergencyBell":false,"cctv":false,"managerTel":"0226004072","source":"public","category":"public"},{"id":"202531500000100222","name":"등촌3동주민센터 화장실","lat":37.558888,"lng":126.847919,"roadAddr":"서울특별시 강서구 화곡로63길 96","jibunAddr":"서울특별시 강서구 등촌동 705-4","openHours":"09:00~18:00","maleToilets":14,"femaleToilets":5,"disabled":true,"diaperTable":false,"emergencyBell":true,"cctv":false,"managerTel":"0226007472","source":"public","category":"public"},{"id":"202531500000100393","name":"VIP오피스텔 개방화장실","lat":37.554832,"lng":126.85423,"roadAddr":"서울특별시 강서구 공항대로 426","jibunAddr":"서울특별시 강서구 화곡동 1107","openHours":"08:00~20:00","maleToilets":2,"femaleToilets":1,"disabled":false,"diaperTable":false,"emergencyBell":true,"cctv":false,"managerTel":"0226004072","source":"public","category":"public"},{"id":"202531500000100303","name":"염창산 화장실 화장실","lat":37.557803,"lng":126.868088,"roadAddr":"서울특별시 강서구 염창동 산 30-62","jibunAddr":"서울특별시 강서구 염창동 산30-62","openHours":"상시","maleToilets":1,"femaleToilets":1,"disabled":true,"diaperTable":true,"emergencyBell":true,"cctv":false,"managerTel":"0226004187","source":"public","category":"public"},{"id":"202531500000100404","name":"맥도날드 우장산점 개방화장실","lat":37.545103,"lng":126.83743,"roadAddr":"서울특별시 강서구 강서로 216","jibunAddr":"서울특별시 강서구 화곡동 1026","openHours":"08:00~익일02:00","maleToilets":3,"femaleToilets":2,"disabled":false,"diaperTable":false,"emergencyBell":false,"cctv":false,"managerTel":"0226004072","source":"public","category":"public"},{"id":"202531500000100395","name":"화곡빌딩 개방화장실","lat":37.541254,"lng":126.83989,"roadAddr":"서울특별시 강서구 화곡로 164","jibunAddr":"서울특별시 강서구 화곡동 1075","openHours":"07:00~24:00","maleToilets":3,"femaleToilets":1,"disabled":false,"diaperTable":false,"emergencyBell":true,"cctv":false,"managerTel":"0226004072","source":"public","category":"public"},{"id":"202531500000100245","name":"강서아트리움 화장실","lat":37.537543,"lng":126.837642,"roadAddr":"서울특별시 강서구 가로공원로 195","jibunAddr":"서울특별시 강서구 화곡동 379-68","openHours":"(평일)10:00-20:00+(주말)10:00-17:00","maleToilets":5,"femaleToilets":5,"disabled":true,"diaperTable":true,"emergencyBell":true,"cctv":true,"managerTel":"0226924986","source":"public","category":"public"},{"id":"202531500000100268","name":"강서청소년회관 화장실","lat":37.556479,"lng":126.844286,"roadAddr":"서울특별시 강서구 공항대로42길 23-19","jibunAddr":"서울특별시 강서구 내발산동 산4-5","openHours":"09:00~21:00","maleToilets":13,"femaleToilets":8,"disabled":true,"diaperTable":false,"emergencyBell":false,"cctv":true,"managerTel":"0226006970","source":"public","category":"public"},{"id":"202531500000100262","name":"강서영어도서관 화장실","lat":37.534802,"lng":126.860749,"roadAddr":"서울특별시 강서구 곰달래로57가길 26","jibunAddr":"서울특별시 강서구 화곡동 809-3","openHours":"09:00~18:00","maleToilets":4,"femaleToilets":2,"disabled":true,"diaperTable":false,"emergencyBell":true,"cctv":true,"managerTel":"0226005424","source":"public","category":"public"},{"id":"202531500000100426","name":"뉴신정주유소 개방화장실","lat":37.531562,"lng":126.856035,"roadAddr":"서울특별시 강서구 곰달래로 207","jibunAddr":"서울특별시 강서구 화곡동 862-16","openHours":"상시","maleToilets":3,"femaleToilets":1,"disabled":false,"diaperTable":false,"emergencyBell":false,"cctv":false,"managerTel":"0226004072","source":"public","category":"public"},{"id":"202531500000100227","name":"화곡4동주민센터 화장실","lat":37.534802,"lng":126.860749,"roadAddr":"서울특별시 강서구 곰달래로57가길 26","jibunAddr":"서울특별시 강서구 화곡동 804-6","openHours":"09:00~18:00","maleToilets":15,"femaleToilets":8,"disabled":true,"diaperTable":true,"emergencyBell":true,"cctv":true,"managerTel":"0226007603","source":"public","category":"public"},{"id":"202531500000100367","name":"9호선 등촌역 역사 내 화장실","lat":37.551117,"lng":126.86495,"roadAddr":"서울특별시 강서구?공항대로?지하529","jibunAddr":"서울특별시 강서구 등촌동 666-94","openHours":"(평일)05:30-익일01:00+(주말)05:30~24:00","maleToilets":6,"femaleToilets":11,"disabled":true,"diaperTable":true,"emergencyBell":true,"cctv":true,"managerTel":"0226560909","source":"public","category":"public"},{"id":"202531500000100284","name":"수명산다목적체육관 화장실","lat":37.550558,"lng":126.828831,"roadAddr":"서울특별시 강서구 강서로 45길 131-11","jibunAddr":"서울특별시 강서구 내발산동 748","openHours":"상시","maleToilets":3,"femaleToilets":2,"disabled":true,"diaperTable":true,"emergencyBell":true,"cctv":true,"managerTel":"0262296682","source":"public","category":"public"},{"id":"202531500000100428","name":"GS칼텍스(주)경인고속주유소 개방화장실","lat":37.529645,"lng":126.859835,"roadAddr":"서울특별시 강서구 국회대로 225","jibunAddr":"서울특별시 강서구 화곡동 843-4","openHours":"상시","maleToilets":3,"femaleToilets":1,"disabled":false,"diaperTable":false,"emergencyBell":false,"cctv":false,"managerTel":"0226004072","source":"public","category":"public"},{"id":"202531500000100365","name":"9호선 가양역 역사 내 화장실","lat":37.561554,"lng":126.854388,"roadAddr":"서울특별시 강서구?양천로?지하485","jibunAddr":"서울특별시 강서구 가양동 14-61","openHours":"(평일)05:30-익일01:00+(주말)05:30~24:00","maleToilets":7,"femaleToilets":11,"disabled":true,"diaperTable":true,"emergencyBell":true,"cctv":true,"managerTel":"0226560907","source":"public","category":"public"},{"id":"202531500000100355","name":"5호선 우장산역 화장실","lat":37.549225,"lng":126.836414,"roadAddr":"서울특별시 강서구 지하 262","jibunAddr":"서울특별시 강서구 화곡동 1089-3 우장산역","openHours":"05:00~24:00","maleToilets":6,"femaleToilets":6,"disabled":true,"diaperTable":true,"emergencyBell":true,"cctv":true,"managerTel":"0263115161","source":"public","category":"public"},{"id":"202531500000100409","name":"세원1주유소 개방화장실","lat":37.570496,"lng":126.838076,"roadAddr":"서울특별시 강서구 양천로 311","jibunAddr":"서울특별시 강서구 가양동 272-31","openHours":"상시","maleToilets":2,"femaleToilets":1,"disabled":false,"diaperTable":false,"emergencyBell":false,"cctv":false,"managerTel":"0226004072","source":"public","category":"public"},{"id":"202531500000100348","name":"서울식물원 식물문화센터 화장실","lat":37.572244,"lng":126.832843,"roadAddr":"서울특별시 강서구 마곡동로 161","jibunAddr":"서울특별시 강서구 마곡동 812","openHours":"09:00~21:30","maleToilets":52,"femaleToilets":65,"disabled":true,"diaperTable":true,"emergencyBell":true,"cctv":false,"managerTel":"0221049725","source":"public","category":"public"},{"id":"202531500000100336","name":"백석어린이공원 화장실","lat":37.552611,"lng":126.863329,"roadAddr":"서울특별시 강서구 공항대로57길 31","jibunAddr":"서울특별시 강서구 등촌동 646-41","openHours":"상시","maleToilets":3,"femaleToilets":3,"disabled":true,"diaperTable":true,"emergencyBell":true,"cctv":true,"managerTel":"0226004187","source":"public","category":"public"},{"id":"202531500000100271","name":"강서보건소 화장실","lat":37.549648,"lng":126.86828,"roadAddr":"서울특별시 강서구 공항대로 561","jibunAddr":"서울특별시 강서구 염창동 275-12","openHours":"09:00~18:00","maleToilets":20,"femaleToilets":8,"disabled":true,"diaperTable":true,"emergencyBell":true,"cctv":false,"managerTel":"0226004072","source":"public","category":"public"},{"id":"202531500000100391","name":"디지털프라자(강서본점) 개방화장실","lat":37.549193,"lng":126.869037,"roadAddr":"서울특별시 강서구 공항대로 571","jibunAddr":"서울특별시 강서구 염창동 277 1층","openHours":"06:30~21:00","maleToilets":8,"femaleToilets":4,"disabled":false,"diaperTable":false,"emergencyBell":false,"cctv":false,"managerTel":"0226004072","source":"public","category":"public"},{"id":"202531500000100251","name":"발산어르신행복센터 화장실","lat":37.553151,"lng":126.832262,"roadAddr":"서울특별시 강서구 강서로 47길72","jibunAddr":"서울특별시 강서구 내발산동 686-8","openHours":"09:00~18:00","maleToilets":4,"femaleToilets":4,"disabled":false,"diaperTable":false,"emergencyBell":true,"cctv":false,"managerTel":"0226006728","source":"public","category":"public"},{"id":"202531500000100223","name":"화곡본동주민센터 화장실","lat":37.544048,"lng":126.847663,"roadAddr":"서울특별시 강서구 초록마을로5길 29","jibunAddr":"서울특별시 강서구 화곡동 46-148","openHours":"09:00~18:00","maleToilets":11,"femaleToilets":8,"disabled":false,"diaperTable":false,"emergencyBell":true,"cctv":false,"managerTel":"0226007485","source":"public","category":"public"},{"id":"202531500000100302","name":"봉제산 오리나무쉼터 화장실","lat":37.545739,"lng":126.854435,"roadAddr":"서울특별시 강서구 화곡동 42-134","jibunAddr":"서울특별시 강서구 화곡동 42-134","openHours":"상시","maleToilets":4,"femaleToilets":4,"disabled":false,"diaperTable":true,"emergencyBell":true,"cctv":false,"managerTel":"0226004187","source":"public","category":"public"},{"id":"202531500000100298","name":"봉제산 장수동산 화장실","lat":37.540332,"lng":126.859605,"roadAddr":"서울특별시 강서구 화곡동 산 5-4","jibunAddr":"서울특별시 강서구 화곡4동 산5-4","openHours":"상시","maleToilets":3,"femaleToilets":2,"disabled":true,"diaperTable":true,"emergencyBell":true,"cctv":false,"managerTel":"0226004187","source":"public","category":"public"},{"id":"202531500000100275","name":"화곡6-1공영주차장 화장실","lat":37.553032,"lng":126.848514,"roadAddr":"서울특별시 강서구 우장산로 114","jibunAddr":"서울특별시 강서구 화곡동 1103-6","openHours":"09:00~18:00","maleToilets":16,"femaleToilets":7,"disabled":false,"diaperTable":false,"emergencyBell":true,"cctv":false,"managerTel":"0226079113","source":"public","category":"public"},{"id":"202531500000100305","name":"궁산 다목적체욱관화장실","lat":37.572667,"lng":126.838365,"roadAddr":"서울특별시 강서구 양천로49길 106","jibunAddr":"서울특별시 강서구 가양1동 산3","openHours":"상시","maleToilets":7,"femaleToilets":4,"disabled":true,"diaperTable":true,"emergencyBell":true,"cctv":true,"managerTel":"0226004187","source":"public","category":"public"},{"id":"202531500000100389","name":"하바나빌딩 개방화장실","lat":37.558112,"lng":126.837758,"roadAddr":"서울특별시 강서구 공항대로 272","jibunAddr":"서울특별시 강서구 내발산동 644-2","openHours":"08:30~00:00","maleToilets":3,"femaleToilets":2,"disabled":false,"diaperTable":false,"emergencyBell":false,"cctv":false,"managerTel":"0226004072","source":"public","category":"public"},{"id":"202531500000100297","name":"봉제산 강서다목적체육관 화장실","lat":37.539505,"lng":126.85596,"roadAddr":"서울특별시 강서구 화곡동 산 22-32","jibunAddr":"서울특별시 강서구 화곡4동 산22-32","openHours":"상시","maleToilets":3,"femaleToilets":2,"disabled":false,"diaperTable":true,"emergencyBell":true,"cctv":false,"managerTel":"0226004187","source":"public","category":"public"},{"id":"202531500000100372","name":"서울화곡우체국 화장실","lat":37.54401,"lng":126.845667,"roadAddr":"서울특별시 강서구 까치산로 55","jibunAddr":"서울특별시 강서구 화곡동 24-254","openHours":"(평일)09:00~18:00","maleToilets":2,"femaleToilets":3,"disabled":true,"diaperTable":false,"emergencyBell":false,"cctv":true,"managerTel":"0226020014","source":"public","category":"public"},{"id":"202531500000100416","name":"경서에너지 공항로충전소 개방화장실","lat":37.553339,"lng":126.858632,"roadAddr":"서울특별시 강서구 공항대로 468","jibunAddr":"서울특별시 강서구 등촌동 269-8","openHours":"상시","maleToilets":4,"femaleToilets":2,"disabled":false,"diaperTable":false,"emergencyBell":false,"cctv":false,"managerTel":"0226004072","source":"public","category":"public"},{"id":"202531500000100254","name":"발음경로당 외부 화장실","lat":37.552043,"lng":126.833205,"roadAddr":"서울특별시 강서구 강서로 47길 61-21","jibunAddr":"서울특별시 강서구 내발산동 697","openHours":"09:00~18:00","maleToilets":0,"femaleToilets":0,"disabled":false,"diaperTable":false,"emergencyBell":true,"cctv":false,"managerTel":"0226006752","source":"public","category":"public"},{"id":"202531500000100401","name":"남부골목시장 개방화장실","lat":37.533182,"lng":126.860019,"roadAddr":"서울특별시 강서구 등촌로5길 62-4","jibunAddr":"서울특별시 강서구 화곡동 801-9","openHours":"08:30~21:00","maleToilets":4,"femaleToilets":3,"disabled":false,"diaperTable":false,"emergencyBell":false,"cctv":false,"managerTel":"0226004072","source":"public","category":"public"},{"id":"202531500000100291","name":"우장산 관리사무실 화장실","lat":37.55282,"lng":126.843808,"roadAddr":"서울특별시 강서구 우장산로 72","jibunAddr":"서울특별시 강서구 우장산동 산60-1","openHours":"상시","maleToilets":5,"femaleToilets":3,"disabled":false,"diaperTable":false,"emergencyBell":true,"cctv":true,"managerTel":"0226004187","source":"public","category":"public"},{"id":"202531500000100252","name":"강서50플러스센터 화장실","lat":37.566813,"lng":126.842095,"roadAddr":"서울특별시 강서구 강서로56가길 166","jibunAddr":"서울특별시 강서구 등촌동 685","openHours":"09:00~18:00","maleToilets":17,"femaleToilets":12,"disabled":true,"diaperTable":false,"emergencyBell":true,"cctv":true,"managerTel":"0226001850","source":"public","category":"public"},{"id":"202531500000100228","name":"화곡6동주민센터 화장실","lat":37.551542,"lng":126.850961,"roadAddr":"서울특별시 강서구 공항대로46길 105","jibunAddr":"서울특별시 강서구 화곡동 1176-1","openHours":"09:00~18:00","maleToilets":21,"femaleToilets":13,"disabled":true,"diaperTable":false,"emergencyBell":true,"cctv":false,"managerTel":"0226007665","source":"public","category":"public"},{"id":"202531500000100350","name":"5호선 발산역 화장실","lat":37.559029,"lng":126.837311,"roadAddr":"서울특별시 강서구 공항대로 지하 267","jibunAddr":"서울특별시 강서구 가양동 967-3 발산역","openHours":"05:00~24:00","maleToilets":7,"femaleToilets":8,"disabled":true,"diaperTable":true,"emergencyBell":true,"cctv":true,"managerTel":"0263115151","source":"public","category":"public"},{"id":"202531500000100375","name":"서울발산동우체국 화장실","lat":37.551069,"lng":126.836025,"roadAddr":"서울특별시 강서구 강서로 283","jibunAddr":"서울특별시 강서구 내발산동701-13","openHours":"(평일)09:00~18:00","maleToilets":0,"femaleToilets":0,"disabled":false,"diaperTable":false,"emergencyBell":false,"cctv":false,"managerTel":"0226632530","source":"public","category":"public"},{"id":"202531500000100296","name":"봉제산 담소터 화장실","lat":37.539228,"lng":126.851968,"roadAddr":"서울특별시 강서구 화곡동 산 22-83","jibunAddr":"서울특별시 강서구 화곡본동 산22-83","openHours":"상시","maleToilets":5,"femaleToilets":5,"disabled":true,"diaperTable":true,"emergencyBell":true,"cctv":false,"managerTel":"0226004187","source":"public","category":"public"},{"id":"202531500000100419","name":"대성주유소 화장실","lat":37.566243,"lng":126.840421,"roadAddr":"서울특별시 강서구 강서로 457","jibunAddr":"서울특별시 강서구 마곡동 784-1","openHours":"상시","maleToilets":2,"femaleToilets":2,"disabled":true,"diaperTable":false,"emergencyBell":false,"cctv":true,"managerTel":"0226004072","source":"public","category":"public"},{"id":"202531500000100299","name":"봉제산 법성사 옆 화장실","lat":37.545066,"lng":126.857793,"roadAddr":"서울특별시 등촌로39가길 46","jibunAddr":"서울특별시 강서구 등촌2동 산23-4","openHours":"상시","maleToilets":3,"femaleToilets":3,"disabled":false,"diaperTable":false,"emergencyBell":true,"cctv":false,"managerTel":"0226004187","source":"public","category":"public"},{"id":"202531500000100431","name":"가양현대주유소 개방화장실","lat":37.540242,"lng":126.841164,"roadAddr":"서울특별시 강서구 강서로 151","jibunAddr":"서울특별시 강서구 화곡동 402-1","openHours":"상시","maleToilets":3,"femaleToilets":1,"disabled":false,"diaperTable":false,"emergencyBell":false,"cctv":false,"managerTel":"0226004072","source":"public","category":"public"},{"id":"202531500000100279","name":"강서구민올림픽체육센터 화장실","lat":37.55967,"lng":126.850584,"roadAddr":"서울특별시 강서구 화곡로 65길 62","jibunAddr":"서울특별시 강서구 등촌동 707-3","openHours":"(평일)06:00~22:00+(주말)07:00~17:00","maleToilets":34,"femaleToilets":16,"disabled":true,"diaperTable":true,"emergencyBell":true,"cctv":true,"managerTel":"0236611999","source":"public","category":"public"},{"id":"202531500000100244","name":"강서구자원봉사센터 화장실","lat":37.552504,"lng":126.862313,"roadAddr":"서울특별시 강서구 공항대로 501","jibunAddr":"서울특별시 강서구 등촌동 649-10","openHours":"09:00~18:00","maleToilets":6,"femaleToilets":3,"disabled":false,"diaperTable":false,"emergencyBell":true,"cctv":false,"managerTel":"0226005328","source":"public","category":"public"},{"id":"202531500000100429","name":"하이웨이주유소 개방화장실","lat":37.55454,"lng":126.854952,"roadAddr":"서울특별시 강서구 공항대로 432","jibunAddr":"서울특별시 강서구 화곡동 1125","openHours":"상시","maleToilets":3,"femaleToilets":1,"disabled":false,"diaperTable":false,"emergencyBell":false,"cctv":false,"managerTel":"0226004072","source":"public","category":"public"},{"id":"202531500000100357","name":"5호선 까치산역 화장실","lat":37.53254,"lng":126.846261,"roadAddr":"서울특별시 강서구 지하 54","jibunAddr":"서울특별시 강서구 화곡동 662-5 까치산역(5호선)","openHours":"05:00~24:00","maleToilets":15,"femaleToilets":16,"disabled":true,"diaperTable":true,"emergencyBell":true,"cctv":true,"managerTel":"0263115181","source":"public","category":"public"},{"id":"202531500000100221","name":"등촌2동주민센터 화장실","lat":37.542658,"lng":126.862504,"roadAddr":"서울특별시 강서구 등촌로 143","jibunAddr":"서울특별시 강서구 등촌동 560-12","openHours":"09:00~18:00","maleToilets":5,"femaleToilets":4,"disabled":false,"diaperTable":false,"emergencyBell":true,"cctv":false,"managerTel":"0226007390","source":"public","category":"public"},{"id":"202531500000100220","name":"등촌1동주민센터 화장실","lat":37.555829,"lng":126.85891,"roadAddr":"서울특별시 강서구 공항대로53가길 55","jibunAddr":"서울특별시 강서구 등촌동 642-1","openHours":"09:00~18:00","maleToilets":12,"femaleToilets":6,"disabled":false,"diaperTable":false,"emergencyBell":true,"cctv":true,"managerTel":"0226007365","source":"public","category":"public"},{"id":"202531500000100255","name":"등빛도서관 화장실","lat":37.562455,"lng":126.842375,"roadAddr":"서울특별시 강서구 강서로62길 48","jibunAddr":"서울특별시 강서구 등촌동 690-1","openHours":"08:00~22:00","maleToilets":13,"femaleToilets":15,"disabled":true,"diaperTable":false,"emergencyBell":true,"cctv":true,"managerTel":"0226005424","source":"public","category":"public"},{"id":"202531500000100410","name":"현대오일뱅크(주)가양주유소 개방화장실","lat":37.566442,"lng":126.845859,"roadAddr":"서울특별시 강서구 양천로 391","jibunAddr":"서울특별시 강서구 가양동 58-2","openHours":"상시","maleToilets":2,"femaleToilets":1,"disabled":false,"diaperTable":false,"emergencyBell":false,"cctv":false,"managerTel":"0226004072","source":"public","category":"public"},{"id":"202531500000100366","name":"9호선 증미역 역사 내 화장실","lat":37.557719,"lng":126.861247,"roadAddr":"서울특별시 강서구?양천로?지하560","jibunAddr":"서울특별시 강서구 등촌동 666-40","openHours":"(평일)05:30-익일01:00+(주말)05:30~24:00","maleToilets":6,"femaleToilets":11,"disabled":true,"diaperTable":true,"emergencyBell":true,"cctv":true,"managerTel":"0226560908","source":"public","category":"public"},{"id":"202531500000100379","name":"서울등촌동우체국 화장실","lat":37.558836,"lng":126.848204,"roadAddr":"서울특별시 강서구 화곡로63길 90","jibunAddr":"서울특별시 강서구 등촌동 705-5","openHours":"(평일)09:00~18:00","maleToilets":2,"femaleToilets":1,"disabled":true,"diaperTable":false,"emergencyBell":false,"cctv":false,"managerTel":"0226582004","source":"public","category":"public"},{"id":"202531500000100300","name":"봉제산 등촌동 숲속놀이터 화장실","lat":37.546525,"lng":126.856935,"roadAddr":"서울특별시 등촌동 산 24-31","jibunAddr":"서울특별시 강서구 등촌동 산24-31","openHours":"상시","maleToilets":1,"femaleToilets":1,"disabled":true,"diaperTable":true,"emergencyBell":true,"cctv":false,"managerTel":"0226004187","source":"public","category":"public"},{"id":"202531500000100385","name":"에이스빌딩 개방화장실","lat":37.558298,"lng":126.843902,"roadAddr":"서울특별시 강서구 공항대로 325","jibunAddr":"서울특별시 강서구 등촌동 668-10","openHours":"09:00~18:00","maleToilets":3,"femaleToilets":1,"disabled":false,"diaperTable":false,"emergencyBell":false,"cctv":false,"managerTel":"0226004072","source":"public","category":"public"},{"id":"202531500000100280","name":"가양레포츠센터 화장실","lat":37.559587,"lng":126.865025,"roadAddr":"서울특별시 강서구 양천로 61길 101","jibunAddr":"서울특별시 강서구 가양동 1439","openHours":"(평일)08:00~22:00+(주말)06:00~22:00","maleToilets":16,"femaleToilets":15,"disabled":true,"diaperTable":true,"emergencyBell":true,"cctv":false,"managerTel":"0236629081","source":"public","category":"public"},{"id":"202531500000100304","name":"염창 다목적체육관 화장실","lat":37.557947,"lng":126.867126,"roadAddr":"서울특별시 강서구 양천로63길 42-21","jibunAddr":"서울특별시 강서구 염창동 산30-66","openHours":"상시","maleToilets":2,"femaleToilets":2,"disabled":true,"diaperTable":true,"emergencyBell":true,"cctv":false,"managerTel":"0226004187","source":"public","category":"public"},{"id":"202531500000100388","name":"우리벤처타운 개방화장실","lat":37.566899,"lng":126.841426,"roadAddr":"서울특별시 강서구 강서로 466","jibunAddr":"서울특별시 강서구 등촌동 684-2","openHours":"06:00~22:00","maleToilets":5,"femaleToilets":2,"disabled":false,"diaperTable":false,"emergencyBell":false,"cctv":false,"managerTel":"0226004072","source":"public","category":"public"},{"id":"202531500000100325","name":"아름어린이공원 화장실","lat":37.568627,"lng":126.849037,"roadAddr":"서울특별시 강서구 허준로 64","jibunAddr":"서울특별시 강서구 가양동 1465","openHours":"상시","maleToilets":3,"femaleToilets":2,"disabled":true,"diaperTable":true,"emergencyBell":true,"cctv":false,"managerTel":"0226004187","source":"public","category":"public"},{"id":"202531500000100344","name":"서울식물원 방문자센터 화장실","lat":37.572244,"lng":126.832843,"roadAddr":"서울특별시 강서구 마곡동로 161","jibunAddr":"서울특별시 강서구 마곡동 812","openHours":"09:00~21:30","maleToilets":10,"femaleToilets":10,"disabled":true,"diaperTable":true,"emergencyBell":true,"cctv":false,"managerTel":"0221049725","source":"public","category":"public"},{"id":"202531500000100282","name":"마곡레포츠센터 화장실","lat":37.573155,"lng":126.832149,"roadAddr":"서울특별시 강서구 양천로 251","jibunAddr":"서울특별시 강서구 마곡동 56-22","openHours":"06:00~22:00","maleToilets":18,"femaleToilets":10,"disabled":false,"diaperTable":true,"emergencyBell":true,"cctv":true,"managerTel":"0236637171","source":"public","category":"public"},{"id":"202531500000100319","name":"까치산근린공원(화곡터널상부) 화장실","lat":37.535283,"lng":126.844594,"roadAddr":"서울특별시 강서구 화곡동 산 163-3","jibunAddr":"서울특별시 강서구 화곡동 산 163-3","openHours":"상시","maleToilets":3,"femaleToilets":2,"disabled":true,"diaperTable":true,"emergencyBell":true,"cctv":true,"managerTel":"0226004187","source":"public","category":"public"},{"id":"202531500000100396","name":"롯데리아 화곡시장점 개방화장실","lat":37.534534,"lng":126.837818,"roadAddr":"서울특별시 강서구 가로공원로76길 56","jibunAddr":"서울특별시 강서구 화곡동 373-12","openHours":"08:00~22:00","maleToilets":2,"femaleToilets":1,"disabled":false,"diaperTable":false,"emergencyBell":false,"cctv":false,"managerTel":"0226004072","source":"public","category":"public"},{"id":"202531500000100295","name":"봉제산 화곡배수지 화장실","lat":37.542224,"lng":126.855354,"roadAddr":"서울특별시 강서구 초록마을로15길 81","jibunAddr":"서울특별시 강서구 화곡본동 산22-80","openHours":"상시","maleToilets":5,"femaleToilets":5,"disabled":false,"diaperTable":false,"emergencyBell":true,"cctv":false,"managerTel":"0226004187","source":"public","category":"public"},{"id":"202531500000100399","name":"유정빌딩 개방화장실","lat":37.55187,"lng":126.85087,"roadAddr":"서울특별시 강서구 공항대로46길 97","jibunAddr":"서울특별시 강서구 화곡동 1118-3","openHours":"상시","maleToilets":3,"femaleToilets":1,"disabled":false,"diaperTable":false,"emergencyBell":true,"cctv":false,"managerTel":"0226004072","source":"public","category":"public"},{"id":"202531500000100418","name":"등촌주유소 개방화장실","lat":37.54686,"lng":126.862515,"roadAddr":"서울특별시 강서구 등촌로 189","jibunAddr":"서울특별시 강서구 등촌동 511-5","openHours":"상시","maleToilets":3,"femaleToilets":1,"disabled":false,"diaperTable":false,"emergencyBell":false,"cctv":false,"managerTel":"0226004072","source":"public","category":"public"},{"id":"202531500000100301","name":"봉제산 무궁화공원 화장실","lat":37.545737,"lng":126.851682,"roadAddr":"서울특별시 강서구 까치산로18길 62","jibunAddr":"서울특별시 강서구 화곡본동 산47-16","openHours":"상시","maleToilets":3,"femaleToilets":3,"disabled":true,"diaperTable":true,"emergencyBell":true,"cctv":false,"managerTel":"0226004187","source":"public","category":"public"},{"id":"202531500000100424","name":"대흥에너지산업 충전소 개방화장실","lat":37.530201,"lng":126.847273,"roadAddr":"서울특별시 강서구 강서로 25","jibunAddr":"서울특별시 강서구 화곡동 898-3","openHours":"상시","maleToilets":6,"femaleToilets":3,"disabled":false,"diaperTable":false,"emergencyBell":false,"cctv":false,"managerTel":"0226004072","source":"public","category":"public"},{"id":"202531500000100436","name":"화곡로31길 43 개방화장실","lat":37.544403,"lng":126.841031,"roadAddr":"서울특별시 강서구 화곡로31길 43","jibunAddr":"서울특별시 강서구 화곡동 1057-1","openHours":"상시","maleToilets":2,"femaleToilets":1,"disabled":false,"diaperTable":false,"emergencyBell":false,"cctv":false,"managerTel":"0226004072","source":"public","category":"public"},{"id":"202531500000100324","name":"꽃동네어린이공원 화장실","lat":37.570096,"lng":126.847133,"roadAddr":"서울특별시 강서구 허준로 47-1","jibunAddr":"서울특별시 강서구 가양동 1461-1","openHours":"상시","maleToilets":3,"femaleToilets":2,"disabled":true,"diaperTable":true,"emergencyBell":true,"cctv":false,"managerTel":"0226004187","source":"public","category":"public"},{"id":"202531500000100313","name":"서낭당근린공원 화장실","lat":37.558864,"lng":126.849986,"roadAddr":"서울특별시 강서구 공항대로43길 46","jibunAddr":"서울특별시 강서구 등촌3동 706","openHours":"상시","maleToilets":5,"femaleToilets":5,"disabled":true,"diaperTable":true,"emergencyBell":true,"cctv":false,"managerTel":"0226004187","source":"public","category":"public"},{"id":"202531500000100247","name":"겸재정선미술관 화장실","lat":37.572228,"lng":126.838413,"roadAddr":"서울특별시 강서구 양천로47길 36","jibunAddr":"서울특별시 강서구 마곡동 815","openHours":"(평일)10:00-17:00","maleToilets":3,"femaleToilets":4,"disabled":true,"diaperTable":true,"emergencyBell":true,"cctv":true,"managerTel":"0226592206","source":"public","category":"public"},{"id":"202531500000100345","name":"서울식물원 주제원 화장실","lat":37.572244,"lng":126.832843,"roadAddr":"서울특별시 강서구 마곡동로 161","jibunAddr":"서울특별시 강서구 마곡동 812","openHours":"09:00~21:30","maleToilets":6,"femaleToilets":6,"disabled":true,"diaperTable":true,"emergencyBell":true,"cctv":false,"managerTel":"0221049725","source":"public","category":"public"},{"id":"202531500000100434","name":"두산위브센티움 개방화장실","lat":37.557087,"lng":126.861331,"roadAddr":"서울특별시 강서구 양천로 564","jibunAddr":"서울특별시 강서구 등촌동 631","openHours":"상시","maleToilets":6,"femaleToilets":3,"disabled":false,"diaperTable":false,"emergencyBell":false,"cctv":false,"managerTel":"0226004072","source":"public","category":"public"},{"id":"202531500000100317","name":"까치산근린공원(관리사무소 옆) 화장실","lat":37.536939,"lng":126.843936,"roadAddr":"서울특별시 강서구 까치산로2길 95","jibunAddr":"서울특별시 강서구 화곡동 산162-1","openHours":"상시","maleToilets":5,"femaleToilets":3,"disabled":true,"diaperTable":false,"emergencyBell":true,"cctv":true,"managerTel":"0226004187","source":"public","category":"public"},{"id":"202531500000100242","name":"강서구청 가양동별관 화장실","lat":37.560598,"lng":126.85968,"roadAddr":"서울특별시 강서구 양천로59길 38","jibunAddr":"서울특별시 강서구 가양동 1488-9","openHours":"09:00~18:00","maleToilets":24,"femaleToilets":16,"disabled":false,"diaperTable":true,"emergencyBell":true,"cctv":true,"managerTel":"0226004007","source":"public","category":"public"},{"id":"202531500000100427","name":"목화(self)주유소 개방화장실","lat":37.530055,"lng":126.862834,"roadAddr":"서울특별시 강서구 국회대로 251","jibunAddr":"서울특별시 강서구 화곡동 785-2","openHours":"상시","maleToilets":2,"femaleToilets":1,"disabled":false,"diaperTable":false,"emergencyBell":false,"cctv":true,"managerTel":"0226004072","source":"public","category":"public"},{"id":"202531500000100363","name":"9호선 마곡나루역 역사 내 화장실","lat":37.566793,"lng":126.827518,"roadAddr":"서울특별시 강서구?마곡중앙5로?지하2","jibunAddr":"서울특별시 강서구 마곡동 760-3","openHours":"(평일)05:30-익일01:00+(주말)05:30~24:00","maleToilets":7,"femaleToilets":11,"disabled":true,"diaperTable":true,"emergencyBell":true,"cctv":true,"managerTel":"0226560905","source":"public","category":"public"},{"id":"202531500000100397","name":"송화시장진흥협동조합 개방화장실","lat":37.549216,"lng":126.834568,"roadAddr":"서울특별시 강서구 강서로263-29","jibunAddr":"서울특별시 강서구 내발산동 720-4","openHours":"08:30~21:00","maleToilets":2,"femaleToilets":2,"disabled":false,"diaperTable":false,"emergencyBell":false,"cctv":false,"managerTel":"0226004072","source":"public","category":"public"},{"id":"202531500000100430","name":"강서제일셀프주유소 현대오일뱅크(주) 개방화장실","lat":37.549279,"lng":126.846965,"roadAddr":"서울특별시 강서구 화곡로 273","jibunAddr":"서울특별시 강서구 화곡동 983-1","openHours":"상시","maleToilets":3,"femaleToilets":2,"disabled":false,"diaperTable":false,"emergencyBell":false,"cctv":true,"managerTel":"0226004072","source":"public","category":"public"},{"id":"202531500000100225","name":"화곡2동주민센터 화장실","lat":37.531828,"lng":126.854488,"roadAddr":"서울특별시 강서구 곰달래로37길 13","jibunAddr":"서울특별시 강서구 화곡동 860-4","openHours":"09:00~18:00","maleToilets":13,"femaleToilets":7,"disabled":true,"diaperTable":false,"emergencyBell":true,"cctv":false,"managerTel":"0226007532","source":"public","category":"public"},{"id":"202531500000100270","name":"강서구의회 화장실","lat":37.546485,"lng":126.862301,"roadAddr":"서울특별시 강서구 등촌로 185","jibunAddr":"서울특별시 강서구 등촌동 512-1","openHours":"09:00~18:00","maleToilets":4,"femaleToilets":2,"disabled":true,"diaperTable":true,"emergencyBell":true,"cctv":true,"managerTel":"0226001708","source":"public","category":"public"},{"id":"202531500000100403","name":"화곡중앙골목시장 고객지원센터 개방화장실","lat":37.534884,"lng":126.839506,"roadAddr":"서울특별시 강서구 월정로30길 66","jibunAddr":"서울특별시 강서구 화곡동 362-144","openHours":"08:30~21:00","maleToilets":2,"femaleToilets":1,"disabled":false,"diaperTable":false,"emergencyBell":false,"cctv":false,"managerTel":"0226004072","source":"public","category":"public"},{"id":"202531500000100229","name":"화곡8동주민센터 화장실","lat":37.532696,"lng":126.84833,"roadAddr":"서울특별시 강서구 곰달래로25길 45","jibunAddr":"서울특별시 강서구 화곡동 341-4","openHours":"09:00~18:00","maleToilets":9,"femaleToilets":6,"disabled":false,"diaperTable":false,"emergencyBell":true,"cctv":true,"managerTel":"0226007696","source":"public","category":"public"},{"id":"202531500000100392","name":"롯데리아 까치산역점 개방화장실","lat":37.530891,"lng":126.846955,"roadAddr":"서울특별시 강서구 강서로 35","jibunAddr":"서울특별시 강서구 화곡동 343-60","openHours":"상시","maleToilets":2,"femaleToilets":1,"disabled":false,"diaperTable":false,"emergencyBell":true,"cctv":false,"managerTel":"0226004072","source":"public","category":"public"},{"id":"202531500000100364","name":"9호선 양천향교역 역사 내 화장실","lat":37.568761,"lng":126.840818,"roadAddr":"서울특별시 강서구?양천로?지하341","jibunAddr":"서울특별시 강서구 가양동 159-3","openHours":"(평일)05:30-익일01:00+(주말)05:30~24:00","maleToilets":7,"femaleToilets":11,"disabled":true,"diaperTable":true,"emergencyBell":true,"cctv":true,"managerTel":"0226560906","source":"public","category":"public"},{"id":"202531500000100374","name":"서울화곡4동우체국 화장실","lat":37.532435,"lng":126.862512,"roadAddr":"서울특별시 강서구 곰달래로 265","jibunAddr":"서울특별시 강서구 화곡동 778-5","openHours":"(평일)09:00~18:00","maleToilets":2,"femaleToilets":0,"disabled":false,"diaperTable":false,"emergencyBell":false,"cctv":false,"managerTel":"0226530004","source":"public","category":"public"},{"id":"202531500000100320","name":"수명산근린공원(테니스장 옆) 화장실","lat":37.550558,"lng":126.828831,"roadAddr":"서울특별시 강서구 강서로45길 131-11","jibunAddr":"서울특별시 강서구 내발산동 748","openHours":"상시","maleToilets":2,"femaleToilets":1,"disabled":true,"diaperTable":false,"emergencyBell":true,"cctv":false,"managerTel":"0226004187","source":"public","category":"public"},{"id":"202531500000100233","name":"가양3동주민센터 화장실","lat":37.561087,"lng":126.860558,"roadAddr":"서울특별시 강서구 허준로 202","jibunAddr":"서울특별시 강서구 가양동 1488-1","openHours":"09:00~18:00","maleToilets":11,"femaleToilets":6,"disabled":true,"diaperTable":false,"emergencyBell":true,"cctv":false,"managerTel":"0226007833","source":"public","category":"public"},{"id":"202531500000100281","name":"강서다목적체육관 화장실","lat":37.539705,"lng":126.855852,"roadAddr":"서울특별시 강서구 등촌로13자길 20","jibunAddr":"서울특별시 강서구 화곡동 산22-3","openHours":"(평일)09:00~22:00+(주말)09:00~17:00","maleToilets":2,"femaleToilets":2,"disabled":false,"diaperTable":false,"emergencyBell":false,"cctv":true,"managerTel":"0263467686","source":"public","category":"public"},{"id":"202531500000100321","name":"마곡나루근린공원 4호 화장실","lat":37.572073,"lng":126.837067,"roadAddr":"서울특별시 강서구 마곡동 32-17","jibunAddr":"서울특별시 강서구 마곡동 32-17","openHours":"상시","maleToilets":6,"femaleToilets":6,"disabled":true,"diaperTable":true,"emergencyBell":true,"cctv":false,"managerTel":"0226004187","source":"public","category":"public"},{"id":"202531500000100377","name":"서울가양동우체국 화장실","lat":37.567233,"lng":126.851557,"roadAddr":"서울특별시 강서구 허준로 95-5","jibunAddr":"서울특별시 강서구 가양동 1472-2","openHours":"(평일)09:00~18:00","maleToilets":2,"femaleToilets":1,"disabled":false,"diaperTable":false,"emergencyBell":false,"cctv":false,"managerTel":"0226680100","source":"public","category":"public"},{"id":"202531500000100386","name":"화인빌딩 개방화장실","lat":37.558981,"lng":126.839698,"roadAddr":"서울특별시 강서구 공항대로 287","jibunAddr":"서울특별시 강서구 등촌동 673-5","openHours":"09:00~18:00","maleToilets":9,"femaleToilets":4,"disabled":false,"diaperTable":false,"emergencyBell":false,"cctv":false,"managerTel":"0226004072","source":"public","category":"public"},{"id":"202531500000100274","name":"강서구민회관 화장실","lat":37.553436,"lng":126.843649,"roadAddr":"서울특별시 강서구 우장산로 66","jibunAddr":"서울특별시 강서구 내발산동 산 19-1","openHours":"09:00~18:00","maleToilets":38,"femaleToilets":13,"disabled":true,"diaperTable":true,"emergencyBell":true,"cctv":false,"managerTel":"0236646046","source":"public","category":"public"},{"id":"202531500000100318","name":"까치산근린공원(게이트볼장 앞) 화장실","lat":37.537869,"lng":126.843991,"roadAddr":"서울특별시 강서구 화곡동 105-561","jibunAddr":"서울특별시 강서구 화곡동 105-561","openHours":"상시","maleToilets":2,"femaleToilets":2,"disabled":false,"diaperTable":false,"emergencyBell":true,"cctv":true,"managerTel":"0226004187","source":"public","category":"public"},{"id":"202531500000100283","name":"마곡실내배드민턴장 화장실","lat":37.573155,"lng":126.832149,"roadAddr":"서울특별시 강서구 양천로 251","jibunAddr":"서울특별시 강서구 마곡동 56-22","openHours":"06:00~22:00","maleToilets":5,"femaleToilets":5,"disabled":false,"diaperTable":false,"emergencyBell":true,"cctv":true,"managerTel":"0220633990","source":"public","category":"public"},{"id":"202531500000100278","name":"가양동견인차량보관소 화장실","lat":37.560205,"lng":126.859703,"roadAddr":"서울특별시 강서구 양천로59길 16-9","jibunAddr":"서울특별시 강서구 가양동 451-7","openHours":"24시간","maleToilets":2,"femaleToilets":1,"disabled":false,"diaperTable":false,"emergencyBell":true,"cctv":false,"managerTel":"0226079113","source":"public","category":"public"},{"id":"202531500000100432","name":"화곡역주유소 개방화장실","lat":37.540768,"lng":126.841472,"roadAddr":"서울특별시 강서구 강서로 154","jibunAddr":"서울특별시 강서구 화곡동 1076-14","openHours":"상시","maleToilets":3,"femaleToilets":1,"disabled":false,"diaperTable":false,"emergencyBell":true,"cctv":true,"managerTel":"0226004072","source":"public","category":"public"},{"id":"202531500000100341","name":"서울식물원 어린이정원학교 화장실","lat":37.572244,"lng":126.832843,"roadAddr":"서울특별시 강서구 마곡동로 161","jibunAddr":"서울특별시 강서구 마곡동 812","openHours":"10:00~17:00","maleToilets":6,"femaleToilets":6,"disabled":true,"diaperTable":true,"emergencyBell":true,"cctv":false,"managerTel":"0221049725","source":"public","category":"public"},{"id":"202531500000100293","name":"우장산 힐링센터 화장실","lat":37.55282,"lng":126.843808,"roadAddr":"서울특별시 강서구 우장산로 72","jibunAddr":"서울특별시 강서구 우장산동 산60-1","openHours":"상시","maleToilets":3,"femaleToilets":3,"disabled":true,"diaperTable":true,"emergencyBell":true,"cctv":true,"managerTel":"0226004187","source":"public","category":"public"},{"id":"202531500000100405","name":"퀸즈파크 나인 개방화장실","lat":37.559314,"lng":126.835239,"roadAddr":"서울특별시 강서구 공항대로 247","jibunAddr":"서울특별시 강서구 마곡동 797-1","openHours":"08:00~22:00","maleToilets":6,"femaleToilets":0,"disabled":true,"diaperTable":false,"emergencyBell":true,"cctv":false,"managerTel":"0226004072","source":"public","category":"public"},{"id":"202531500000100256","name":"푸른들청소년도서관 화장실","lat":37.544657,"lng":126.835171,"roadAddr":"서울특별시 강서구 강서로45다길 71","jibunAddr":"서울특별시 강서구 화곡동 1019","openHours":"09:00~22:00","maleToilets":4,"femaleToilets":4,"disabled":true,"diaperTable":false,"emergencyBell":true,"cctv":true,"managerTel":"0226005424","source":"public","category":"public"},{"id":"202531500000100327","name":"곰돌이어린이공원 화장실","lat":37.561846,"lng":126.856801,"roadAddr":"서울특별시 강서구 허준로 176","jibunAddr":"서울특별시 강서구 가양동 1482-1","openHours":"상시","maleToilets":2,"femaleToilets":2,"disabled":true,"diaperTable":true,"emergencyBell":true,"cctv":false,"managerTel":"0226004187","source":"public","category":"public"},{"id":"202531500000100342","name":"서울식물원 숲문화학교 화장실","lat":37.572244,"lng":126.832843,"roadAddr":"서울특별시 강서구 마곡동로 161","jibunAddr":"서울특별시 강서구 마곡동 812","openHours":"09:00~21:30","maleToilets":6,"femaleToilets":6,"disabled":true,"diaperTable":true,"emergencyBell":true,"cctv":false,"managerTel":"0221049725","source":"public","category":"public"},{"id":"202531500000100402","name":"까치산시장 고객만족센터 개방화장실","lat":37.531531,"lng":126.84786,"roadAddr":"서울특별시 강서구 강서로12길 14","jibunAddr":"서울특별시 강서구 화곡동 342-16","openHours":"08:30~21:00","maleToilets":2,"femaleToilets":3,"disabled":false,"diaperTable":false,"emergencyBell":true,"cctv":false,"managerTel":"0226004072","source":"public","category":"public"},{"id":"202531500000100387","name":"에이스테크노타워 개방화장실","lat":37.567185,"lng":126.84149,"roadAddr":"서울특별시 강서구 강서로 468","jibunAddr":"서울특별시 강서구 등촌동 684-1","openHours":"07:00~20:00","maleToilets":7,"femaleToilets":4,"disabled":false,"diaperTable":false,"emergencyBell":false,"cctv":false,"managerTel":"0226004072","source":"public","category":"public"},{"id":"202531500000100294","name":"봉제산 책쉼터 화장실","lat":37.542327,"lng":126.85196,"roadAddr":"서울특별시 강서구 화곡동 산 41-6","jibunAddr":"서울특별시 강서구 화곡본동 산41-6","openHours":"상시","maleToilets":6,"femaleToilets":5,"disabled":true,"diaperTable":true,"emergencyBell":true,"cctv":false,"managerTel":"0226004187","source":"public","category":"public"},{"id":"202531500000100383","name":"마곡보타닉 투웨니퍼스트 개방화장실","lat":37.570993,"lng":126.838117,"roadAddr":"서울특별시 강서구 양천로47길 12, 마곡 보타닉 투웨니퍼스트 (가양동)","jibunAddr":"서울특별시 강서구 가양동 257-1 마곡 보타닉 투웨니퍼스트","openHours":"상시","maleToilets":3,"femaleToilets":1,"disabled":false,"diaperTable":false,"emergencyBell":false,"cctv":true,"managerTel":"0226004072","source":"public","category":"public"},{"id":"202531500000100241","name":"강서구청 화곡동별관 화장실","lat":37.549776,"lng":126.850965,"roadAddr":"서울특별시 강서구 화곡로44나길 72","jibunAddr":"서울특별시 강서구 화곡동 980-29","openHours":"상시","maleToilets":3,"femaleToilets":3,"disabled":true,"diaperTable":false,"emergencyBell":false,"cctv":false,"managerTel":"0226006028","source":"public","category":"public"},{"id":"202531500000100276","name":"가로공원지하주차장 화장실","lat":37.537235,"lng":126.837039,"roadAddr":"서울특별시 강서구 가로공원로 지하 189","jibunAddr":"서울특별시 강서구 화곡동 662-19","openHours":"24시간","maleToilets":11,"femaleToilets":11,"disabled":true,"diaperTable":true,"emergencyBell":true,"cctv":false,"managerTel":"0220651575","source":"public","category":"public"},{"id":"202531500000100315","name":"원당근린공원 화장실","lat":37.559748,"lng":126.842566,"roadAddr":"서울특별시 강서구 강서로56길 49","jibunAddr":"서울특별시 강서구 등촌3동 690-5","openHours":"상시","maleToilets":3,"femaleToilets":3,"disabled":true,"diaperTable":true,"emergencyBell":true,"cctv":true,"managerTel":"0226004187","source":"public","category":"public"},{"id":"202531500000100248","name":"봉제산노인복지센터 화장실","lat":37.541523,"lng":126.851408,"roadAddr":"서울특별시 강서구 초록마을로15길 12","jibunAddr":"서울특별시 강서구 화곡동 산41-16","openHours":"09:00~18:00","maleToilets":3,"femaleToilets":2,"disabled":true,"diaperTable":true,"emergencyBell":true,"cctv":true,"managerTel":"0226006758","source":"public","category":"public"},{"id":"202531500000100253","name":"능안경로당 외부 화장실","lat":37.54664,"lng":126.859907,"roadAddr":"서울특별시 강서구 등촌로39마길 3","jibunAddr":"서울특별시 강서구 등촌동 517-1","openHours":"09:00~18:00","maleToilets":0,"femaleToilets":0,"disabled":false,"diaperTable":false,"emergencyBell":true,"cctv":false,"managerTel":"0226006752","source":"public","category":"public"},{"id":"202531500000100272","name":"화곡보건분소 화장실","lat":37.535468,"lng":126.841099,"roadAddr":"서울특별시 강서구 월정로30길 96","jibunAddr":"서울특별시 강서구 화곡동 366-1","openHours":"09:00~18:00","maleToilets":5,"femaleToilets":3,"disabled":true,"diaperTable":false,"emergencyBell":true,"cctv":false,"managerTel":"0226004072","source":"public","category":"public"},{"id":"202531500000100413","name":"우장산주유소 개방화장실","lat":37.551803,"lng":126.836681,"roadAddr":"서울특별시 강서구 강서로 292","jibunAddr":"서울특별시 강서구 내발산동 702-5","openHours":"상시","maleToilets":2,"femaleToilets":1,"disabled":false,"diaperTable":false,"emergencyBell":false,"cctv":true,"managerTel":"0226004072","source":"public","category":"public"},{"id":"202531500000100356","name":"5호선 화곡역 화장실","lat":37.541234,"lng":126.840796,"roadAddr":"서울특별시 강서구 지하 168","jibunAddr":"서울특별시 강서구 화곡동 1089-54 화곡역","openHours":"05:00~24:00","maleToilets":11,"femaleToilets":11,"disabled":true,"diaperTable":true,"emergencyBell":true,"cctv":true,"managerTel":"0263115171","source":"public","category":"public"},{"id":"202531500000100246","name":"허준박물관 화장실","lat":37.567872,"lng":126.851031,"roadAddr":"서울특별시 강서구 허준로 87","jibunAddr":"서울특별시 강서구 가양동 26-5","openHours":"(평일)10:00-17:00","maleToilets":10,"femaleToilets":7,"disabled":true,"diaperTable":true,"emergencyBell":true,"cctv":true,"managerTel":"0236618686","source":"public","category":"public"},{"id":"202531500000100346","name":"서울식물원 호수원 화장실","lat":37.572244,"lng":126.832843,"roadAddr":"서울특별시 강서구 마곡동로 161","jibunAddr":"서울특별시 강서구 마곡동 812","openHours":"09:00~21:30","maleToilets":8,"femaleToilets":8,"disabled":true,"diaperTable":true,"emergencyBell":true,"cctv":false,"managerTel":"0221049725","source":"public","category":"public"},{"id":"202531500000100371","name":"서울강서우체국 화장실","lat":37.565226,"lng":126.840912,"roadAddr":"서울특별시 강서구 강서로 448","jibunAddr":"서울특별시 강서구 등촌3동 681","openHours":"(평일)09:00~18:00","maleToilets":35,"femaleToilets":10,"disabled":true,"diaperTable":false,"emergencyBell":false,"cctv":false,"managerTel":"0226608976","source":"public","category":"public"},{"id":"202531500000100311","name":"허준근린공원 화장실","lat":37.567598,"lng":126.85373,"roadAddr":"서울특별시 강서구 허준로5길 42","jibunAddr":"서울특별시 강서구 가양2동 1471","openHours":"상시","maleToilets":6,"femaleToilets":2,"disabled":true,"diaperTable":true,"emergencyBell":true,"cctv":false,"managerTel":"0226004187","source":"public","category":"public"},{"id":"202531500000100240","name":"강서구청 별관 화장실","lat":37.550966,"lng":126.849532,"roadAddr":"서울특별시 강서구 화곡로 302","jibunAddr":"서울특별시 강서구 화곡동 980-16","openHours":"상시","maleToilets":17,"femaleToilets":11,"disabled":false,"diaperTable":false,"emergencyBell":false,"cctv":false,"managerTel":"0226006028","source":"public","category":"public"},{"id":"202531500000100331","name":"꿈돌이어린이공원 화장실","lat":37.546097,"lng":126.84533,"roadAddr":"서울특별시 강서구 화곡로 234","jibunAddr":"서울특별시 강서구 화곡동 24-128","openHours":"상시","maleToilets":4,"femaleToilets":3,"disabled":true,"diaperTable":false,"emergencyBell":true,"cctv":false,"managerTel":"0226004187","source":"public","category":"public"},{"id":"202531500000100330","name":"풀피리어린이공원 화장실","lat":37.563596,"lng":126.8546,"roadAddr":"서울특별시 강서구 양천로57길 36-1","jibunAddr":"서울특별시 강서구 가양동 1481-1","openHours":"상시","maleToilets":3,"femaleToilets":2,"disabled":true,"diaperTable":true,"emergencyBell":true,"cctv":false,"managerTel":"0226004187","source":"public","category":"public"},{"id":"202531500000100239","name":"강서구청 본관 화장실","lat":37.550966,"lng":126.849532,"roadAddr":"서울특별시 강서구 화곡로 302","jibunAddr":"서울특별시 강서구 화곡동 980-16","openHours":"상시","maleToilets":56,"femaleToilets":18,"disabled":true,"diaperTable":true,"emergencyBell":true,"cctv":false,"managerTel":"0226006028","source":"public","category":"public"},{"id":"202531500000100230","name":"우장산동주민센터 화장실","lat":37.548289,"lng":126.841836,"roadAddr":"서울특별시 강서구 우현로 34","jibunAddr":"서울특별시 강서구 화곡동 1159-4","openHours":"09:00~18:00","maleToilets":6,"femaleToilets":5,"disabled":true,"diaperTable":false,"emergencyBell":true,"cctv":false,"managerTel":"0226007732","source":"public","category":"public"},{"id":"202531500000100314","name":"등촌근린공원 화장실","lat":37.563682,"lng":126.841392,"roadAddr":"서울특별시 강서구 강서로62길 35","jibunAddr":"서울특별시 강서구 등촌3동 687-4","openHours":"상시","maleToilets":3,"femaleToilets":3,"disabled":true,"diaperTable":true,"emergencyBell":true,"cctv":true,"managerTel":"0226004187","source":"public","category":"public"},{"id":"202531500000100414","name":"대성석유(주)관문주유소 개방화장실","lat":37.557842,"lng":126.842395,"roadAddr":"서울특별시 강서구 공항대로 314","jibunAddr":"서울특별시 강서구 내발산동 648-3","openHours":"상시","maleToilets":3,"femaleToilets":1,"disabled":false,"diaperTable":false,"emergencyBell":false,"cctv":false,"managerTel":"0226004072","source":"public","category":"public"},{"id":"202531500000100261","name":"우장산숲속도서관 화장실","lat":37.548289,"lng":126.841836,"roadAddr":"서울특별시 강서구 우현로 34","jibunAddr":"서울특별시 강서구 화곡동 1159-4","openHours":"09:00~22:00","maleToilets":5,"femaleToilets":4,"disabled":true,"diaperTable":true,"emergencyBell":true,"cctv":true,"managerTel":"0226005424","source":"public","category":"public"},{"id":"202531500000100326","name":"무지개어린이공원 화장실","lat":37.565938,"lng":126.852047,"roadAddr":"서울특별시 강서구 양천로 57길 37","jibunAddr":"서울특별시 강서구 가양동 1478","openHours":"상시","maleToilets":3,"femaleToilets":2,"disabled":true,"diaperTable":true,"emergencyBell":true,"cctv":false,"managerTel":"0226004187","source":"public","category":"public"},{"id":"202531500000100292","name":"우장산 농구장 위 화장실","lat":37.55282,"lng":126.843808,"roadAddr":"서울특별시 강서구 우장산로 72","jibunAddr":"서울특별시 강서구 우장산동 산60-1","openHours":"상시","maleToilets":5,"femaleToilets":5,"disabled":true,"diaperTable":true,"emergencyBell":true,"cctv":true,"managerTel":"0226004187","source":"public","category":"public"},{"id":"202531500000100231","name":"가양1동주민센터 화장실","lat":37.569488,"lng":126.844705,"roadAddr":"서울특별시 강서구 허준로 30","jibunAddr":"서울특별시 강서구 가양동 1462-3","openHours":"09:00~18:00","maleToilets":21,"femaleToilets":11,"disabled":true,"diaperTable":true,"emergencyBell":true,"cctv":true,"managerTel":"0226007785","source":"public","category":"public"},{"id":"202531500000100290","name":"우장산 어울림화장실","lat":37.553436,"lng":126.843649,"roadAddr":"서울특별시 강서구 우장산로 66","jibunAddr":"서울특별시 강서구 내발산동 산19-1","openHours":"상시","maleToilets":6,"femaleToilets":5,"disabled":true,"diaperTable":true,"emergencyBell":true,"cctv":true,"managerTel":"0226004187","source":"public","category":"public"},{"id":"202531500000100334","name":"나들이어린이공원 화장실","lat":37.572038,"lng":126.844161,"roadAddr":"서울특별시 강서구 허준로 9","jibunAddr":"서울특별시 강서구 가양동 1459-1","openHours":"상시","maleToilets":2,"femaleToilets":1,"disabled":true,"diaperTable":false,"emergencyBell":true,"cctv":true,"managerTel":"0226004187","source":"public","category":"public"},{"id":"202531500000100343","name":"서울식물원 티하우스 화장실","lat":37.572244,"lng":126.832843,"roadAddr":"서울특별시 강서구 마곡동로 161","jibunAddr":"서울특별시 강서구 마곡동 812","openHours":"10:00~17:00","maleToilets":5,"femaleToilets":6,"disabled":true,"diaperTable":true,"emergencyBell":true,"cctv":false,"managerTel":"0221049725","source":"public","category":"public"},{"id":"202531500000100415","name":"㈜오일사랑 청룡주유소 개방화장실","lat":37.556724,"lng":126.862736,"roadAddr":"서울특별시 강서구 양천로 576","jibunAddr":"서울특별시 강서구 등촌동 631-7","openHours":"상시","maleToilets":2,"femaleToilets":2,"disabled":false,"diaperTable":false,"emergencyBell":false,"cctv":true,"managerTel":"0226004072","source":"public","category":"public"},{"id":"202531500000100234","name":"발산1동주민센터 화장실","lat":37.553116,"lng":126.833177,"roadAddr":"서울특별시 강서구 강서로47길 54","jibunAddr":"서울특별시 강서구 내발산동 681-5","openHours":"09:00~18:00","maleToilets":20,"femaleToilets":8,"disabled":true,"diaperTable":false,"emergencyBell":true,"cctv":true,"managerTel":"0226007895","source":"public","category":"public"},{"id":"202531500000100417","name":"GS칼텍스강서열린주유소 개방화장실","lat":37.548735,"lng":126.862989,"roadAddr":"서울특별시 강서구 등촌로 213","jibunAddr":"서울특별시 강서구 등촌동 510-13","openHours":"상시","maleToilets":3,"femaleToilets":1,"disabled":false,"diaperTable":false,"emergencyBell":false,"cctv":true,"managerTel":"0226004072","source":"public","category":"public"},{"id":"202531500000100332","name":"구름어린이공원 화장실","lat":37.543304,"lng":126.84419,"roadAddr":"서울특별시 강서구 초록마을로4길 32-1","jibunAddr":"서울특별시 강서구 화곡동 98-22","openHours":"상시","maleToilets":2,"femaleToilets":2,"disabled":true,"diaperTable":true,"emergencyBell":true,"cctv":true,"managerTel":"0226004187","source":"public","category":"public"},{"id":"202531500000100335","name":"비둘기어린이공원 화장실","lat":37.559503,"lng":126.862943,"roadAddr":"서울특별시 강서구 허준로 230","jibunAddr":"서울특별시 강서구 가양동 1489-1","openHours":"상시","maleToilets":3,"femaleToilets":3,"disabled":true,"diaperTable":true,"emergencyBell":true,"cctv":false,"managerTel":"0226004187","source":"public","category":"public"},{"id":"202531500000100232","name":"가양2동주민센터 화장실","lat":37.567399,"lng":126.851271,"roadAddr":"서울특별시 강서구 허준로93","jibunAddr":"서울특별시 강서구 가양동 1472-4","openHours":"09:00~18:00","maleToilets":9,"femaleToilets":6,"disabled":false,"diaperTable":true,"emergencyBell":true,"cctv":false,"managerTel":"0226007825","source":"public","category":"public"},{"id":"202531500000100249","name":"연지노인복지센터 화장실","lat":37.552415,"lng":126.852663,"roadAddr":"서울특별시 강서구 화곡로58길 30-7","jibunAddr":"서울특별시 강서구 화곡동 1121-19","openHours":"09:00~18:00","maleToilets":8,"femaleToilets":4,"disabled":true,"diaperTable":false,"emergencyBell":true,"cctv":true,"managerTel":"0226006758","source":"public","category":"public"},{"id":"202531500000100226","name":"화곡3동주민센터 화장실","lat":37.542526,"lng":126.838414,"roadAddr":"서울특별시 강서구 강서로33가길 17","jibunAddr":"서울특별시 강서구 화곡동 1050-3","openHours":"09:00~18:00","maleToilets":19,"femaleToilets":9,"disabled":true,"diaperTable":false,"emergencyBell":true,"cctv":false,"managerTel":"0226007564","source":"public","category":"public"}]