[{"id":"202435400000100309","name":"부들공원","lat":37.515271,"lng":126.748548,"roadAddr":"인천광역시 부평구 체육관로174번길49-4","jibunAddr":"인천광역시 부평구 삼산동106-52","openHours":"상시","maleToilets":9,"femaleToilets":8,"disabled":true,"diaperTable":true,"emergencyBell":true,"cctv":true,"managerTel":"0322629244","source":"public","category":"public"},{"id":"202435400000100120","name":"부평구 시설관리공단 2층","lat":37.50182,"lng":126.743284,"roadAddr":"인천광역시 부평구 수변로 175","jibunAddr":"인천광역시 부평구 부개동 499-7","openHours":"09:00~18:00","maleToilets":5,"femaleToilets":2,"disabled":false,"diaperTable":false,"emergencyBell":false,"cctv":true,"managerTel":"15668578","source":"public","category":"public"},{"id":"202435400000100144","name":"부흥지구대","lat":37.497708,"lng":126.739727,"roadAddr":"인천광역시 부평구 부개로 4","jibunAddr":"인천광역시 부평구 부개동 501-10","openHours":"상시","maleToilets":4,"femaleToilets":1,"disabled":true,"diaperTable":false,"emergencyBell":false,"cctv":true,"managerTel":"0325090302","source":"public","category":"public"},{"id":"202435400000100328","name":"후정공원","lat":37.523494,"lng":126.742977,"roadAddr":"인천광역시 부평구 영성서로58","jibunAddr":"인천광역시 부평구 삼산동386","openHours":"상시","maleToilets":4,"femaleToilets":1,"disabled":true,"diaperTable":false,"emergencyBell":true,"cctv":true,"managerTel":"0322629244","source":"public","category":"public"},{"id":"202435400000100324","name":"영성공원","lat":37.521968,"lng":126.740606,"roadAddr":"인천광역시 부평구 부평북로426","jibunAddr":"인천광역시 부평구 삼산동388-2","openHours":"상시","maleToilets":4,"femaleToilets":2,"disabled":true,"diaperTable":true,"emergencyBell":true,"cctv":true,"managerTel":"0322629244","source":"public","category":"public"},{"id":"202435400000100157","name":"삼산체육관역(7호선)","lat":37.506583,"lng":126.741907,"roadAddr":"인천광역시 부평구 길주로713(삼산동)","jibunAddr":"인천광역시 부평구 삼산동 466","openHours":"상시","maleToilets":9,"femaleToilets":9,"disabled":true,"diaperTable":true,"emergencyBell":true,"cctv":true,"managerTel":"0324511363","source":"public","category":"public"},{"id":"202435400000100327","name":"청운공원","lat":37.502971,"lng":126.742764,"roadAddr":"인천광역시 부평구 수변로189","jibunAddr":"인천광역시 부평구 부개동199-6","openHours":"상시","maleToilets":4,"femaleToilets":2,"disabled":true,"diaperTable":true,"emergencyBell":true,"cctv":true,"managerTel":"0322629244","source":"public","category":"public"},{"id":"202435400000100164","name":"부개역 고객화장실","lat":37.488318,"lng":126.740251,"roadAddr":"인천광역시 부평구 수변로 22","jibunAddr":"인천광역시 부평구 부개동 468","openHours":"상시","maleToilets":9,"femaleToilets":6,"disabled":true,"diaperTable":true,"emergencyBell":true,"cctv":true,"managerTel":"0325177788","source":"public","category":"public"},{"id":"202435400000100176","name":"SK에너지㈜ 삼성self주유소","lat":37.516151,"lng":126.751339,"roadAddr":"인천광역시 부평구 평천로 546(삼산동)","jibunAddr":"인천광역시 부평구 삼산동 106-38","openHours":"상시","maleToilets":4,"femaleToilets":3,"disabled":false,"diaperTable":false,"emergencyBell":false,"cctv":true,"managerTel":"0325096594","source":"public","category":"public"},{"id":"202435400000100262","name":"부개도서관","lat":37.491021,"lng":126.73951,"roadAddr":"인천광역시 부평구 부일로 83번길 46","jibunAddr":"인천광역시 부평구 부개동 513-3","openHours":"09:00~22:00","maleToilets":10,"femaleToilets":11,"disabled":true,"diaperTable":true,"emergencyBell":false,"cctv":true,"managerTel":"0325050062","source":"public","category":"public"},{"id":"202435400000100113","name":"청소년수련관","lat":37.5083,"lng":126.740248,"roadAddr":"인천광역시 부평구 체육관로 76","jibunAddr":"인천광역시 부평구 삼산동 458-2","openHours":"09:00~18:00","maleToilets":4,"femaleToilets":4,"disabled":true,"diaperTable":true,"emergencyBell":true,"cctv":true,"managerTel":"0325096532","source":"public","category":"public"},{"id":"202435400000100135","name":"부개119안전센터","lat":37.497921,"lng":126.739714,"roadAddr":"인천광역시 부평구 부개로 6","jibunAddr":"인천광역시 부평구 부개동 501-9","openHours":"상시","maleToilets":4,"femaleToilets":1,"disabled":true,"diaperTable":false,"emergencyBell":false,"cctv":false,"managerTel":"0327235357","source":"public","category":"public"},{"id":"202435400000100306","name":"방촌공원","lat":37.497808,"lng":126.739016,"roadAddr":"인천광역시 부평구 부흥로425","jibunAddr":"인천광역시 부평구 부평동500-7","openHours":"상시","maleToilets":3,"femaleToilets":4,"disabled":true,"diaperTable":true,"emergencyBell":true,"cctv":true,"managerTel":"0322629244","source":"public","category":"public"},{"id":"202435400000100308","name":"부개공원","lat":37.506046,"lng":126.741172,"roadAddr":"인천광역시 부평구 길주로708","jibunAddr":"인천광역시 부평구 부개동497-2","openHours":"상시","maleToilets":4,"femaleToilets":2,"disabled":true,"diaperTable":true,"emergencyBell":true,"cctv":true,"managerTel":"0322629244","source":"public","category":"public"},{"id":"202435400000100139","name":"부개동우체국","lat":37.500779,"lng":126.739405,"roadAddr":"인천광역시 부평구 부흥북로 153","jibunAddr":"인천광역시 부평구 부개동 498-14","openHours":"09:00~18:00","maleToilets":3,"femaleToilets":1,"disabled":true,"diaperTable":true,"emergencyBell":false,"cctv":true,"managerTel":"0323612006","source":"public","category":"public"},{"id":"202435400000100299","name":"마분공원","lat":37.485379,"lng":126.740524,"roadAddr":"인천광역시 부평구 경인로1092번길 19","jibunAddr":"인천광역시 부평구 부개동331","openHours":"상시","maleToilets":3,"femaleToilets":3,"disabled":true,"diaperTable":true,"emergencyBell":true,"cctv":true,"managerTel":"0322629244","source":"public","category":"public"},{"id":"202435400000100217","name":"㈜에스엠에너지직영 삼산충전소","lat":37.516226,"lng":126.749123,"roadAddr":"인천광역시 부평구 평천로 524(삼산동)","jibunAddr":"인천광역시 부평구 삼산동 106-43","openHours":"상시","maleToilets":6,"femaleToilets":1,"disabled":false,"diaperTable":false,"emergencyBell":false,"cctv":true,"managerTel":"0325096594","source":"public","category":"public"},{"id":"202435400000100310","name":"부이공원","lat":37.490766,"lng":126.739892,"roadAddr":"인천광역시 부평구 37번길15-5","jibunAddr":"인천광역시 부평구 부개동514","openHours":"상시","maleToilets":2,"femaleToilets":2,"disabled":true,"diaperTable":true,"emergencyBell":true,"cctv":true,"managerTel":"0322629244","source":"public","category":"public"},{"id":"202435400000100267","name":"삼산도서관","lat":37.522173,"lng":126.743069,"roadAddr":"인천광역시 부평구 부평북로 445","jibunAddr":"인천광역시 부평구 삼산동 390-2","openHours":"09:00~22:00","maleToilets":12,"femaleToilets":8,"disabled":true,"diaperTable":true,"emergencyBell":false,"cctv":true,"managerTel":"0323307014","source":"public","category":"public"},{"id":"202435400000100312","name":"분수공원","lat":37.508159,"lng":126.741194,"roadAddr":"인천광역시 부평구 수변로249","jibunAddr":"인천광역시 부평구 부평동458-4","openHours":"상시","maleToilets":5,"femaleToilets":4,"disabled":true,"diaperTable":false,"emergencyBell":true,"cctv":true,"managerTel":"0322629244","source":"public","category":"public"},{"id":"202435400000100285","name":"삼산유수지체육공원","lat":37.514355,"lng":126.743267,"roadAddr":"인천광역시 부평구 체육관로 161(삼산동)","jibunAddr":"인천광역시 부평구 삼산동 450-1","openHours":"상시","maleToilets":3,"femaleToilets":5,"disabled":true,"diaperTable":true,"emergencyBell":true,"cctv":true,"managerTel":"0322629288","source":"public","category":"public"},{"id":"202435400000100118","name":"삼산농산물도매시장","lat":37.521821,"lng":126.749009,"roadAddr":"인천광역시 부평구 영성동로 46","jibunAddr":"인천광역시 부평구 삼산동 7-1","openHours":"상시","maleToilets":151,"femaleToilets":72,"disabled":true,"diaperTable":true,"emergencyBell":true,"cctv":false,"managerTel":"0324406472","source":"public","category":"public"},{"id":"202435400000100112","name":"인천삼산실내교통교육장","lat":37.518899,"lng":126.749598,"roadAddr":"인천광역시 부평구 영성동로18번길 51","jibunAddr":"인천광역시 부평구 삼산동 517","openHours":"09:00~18:00","maleToilets":3,"femaleToilets":5,"disabled":true,"diaperTable":false,"emergencyBell":false,"cctv":true,"managerTel":"0325098887","source":"public","category":"public"},{"id":"202435400000100297","name":"대촌공원","lat":37.497278,"lng":126.739702,"roadAddr":"인천광역시 부평구 부흥로430","jibunAddr":"인천광역시 부평구 부개동502-16","openHours":"상시","maleToilets":3,"femaleToilets":3,"disabled":true,"diaperTable":true,"emergencyBell":true,"cctv":true,"managerTel":"0322629244","source":"public","category":"public"},{"id":"202435400000100179","name":"SK에너지㈜ 대양self주유소","lat":37.516658,"lng":126.750646,"roadAddr":"인천광역시 부평구 평천로 545(삼산동)","jibunAddr":"인천광역시 부평구 삼산동 106-37","openHours":"상시","maleToilets":4,"femaleToilets":3,"disabled":false,"diaperTable":false,"emergencyBell":false,"cctv":true,"managerTel":"0325096594","source":"public","category":"public"},{"id":"202435400000100265","name":"부평기적의도서관","lat":37.503448,"lng":126.740194,"roadAddr":"인천광역시 부평구 길주남로 166","jibunAddr":"인천광역시 부평구 부개동 499-1","openHours":"09:00~22:00","maleToilets":9,"femaleToilets":5,"disabled":true,"diaperTable":true,"emergencyBell":false,"cctv":true,"managerTel":"0325050612","source":"public","category":"public"},{"id":"202435400000100295","name":"건강공원","lat":37.517613,"lng":126.749366,"roadAddr":"인천광역시 부평구 영성동로18번길48","jibunAddr":"인천광역시 부평구 삼산동112-25","openHours":"상시","maleToilets":6,"femaleToilets":7,"disabled":true,"diaperTable":true,"emergencyBell":true,"cctv":true,"managerTel":"0322629244","source":"public","category":"public"},{"id":"202435400000100121","name":"부평구 시설관리공단 지하1층","lat":37.50182,"lng":126.743284,"roadAddr":"인천광역시 부평구 수변로 175","jibunAddr":"인천광역시 부평구 부개동 499-7","openHours":"09:00~18:00","maleToilets":4,"femaleToilets":2,"disabled":false,"diaperTable":false,"emergencyBell":false,"cctv":true,"managerTel":"15668578","source":"public","category":"public"},{"id":"202535500000100477","name":"서운중","lat":37.526155,"lng":126.744796,"roadAddr":"인천광역시 계양구 아나지로 467","jibunAddr":"인천광역시 계양구 서운동 55-146","openHours":"미개방","maleToilets":78,"femaleToilets":67,"disabled":true,"diaperTable":false,"emergencyBell":false,"cctv":true,"source":"public","category":"public"},{"id":"202535500000100369","name":"서운근린공원","lat":37.527778,"lng":126.740492,"roadAddr":"인천광역시 계양구 효서로 397","jibunAddr":"인천광역시 계양구 작전동 915-2","openHours":"24시간","maleToilets":6,"femaleToilets":6,"disabled":true,"diaperTable":true,"emergencyBell":true,"cctv":true,"source":"public","category":"public"},{"id":"202535500000100493","name":"서운고","lat":37.526915,"lng":126.745747,"roadAddr":"인천광역시 계양구 아나지로 481","jibunAddr":"인천광역시 계양구 서운동 55-42","openHours":"미개방","maleToilets":100,"femaleToilets":84,"disabled":true,"diaperTable":false,"emergencyBell":false,"cctv":true,"source":"public","category":"public"},{"id":"202535500000100535","name":"양정주유소","lat":37.525942,"lng":126.758679,"roadAddr":"인천광역시 계양구 아나지로 597","jibunAddr":"인천광역시 계양구 서운동 147-20","openHours":"24시간","maleToilets":3,"femaleToilets":2,"disabled":false,"diaperTable":false,"emergencyBell":false,"cctv":true,"source":"public","category":"public"},{"id":"202535500000100438","name":"서운도서관","lat":37.526429,"lng":126.743026,"roadAddr":"인천광역시 계양구 아나지로 457번길 16","jibunAddr":"인천광역시 계양구 서운동 55-155","openHours":"16시간(06:00~22:00)","maleToilets":8,"femaleToilets":3,"disabled":true,"diaperTable":false,"emergencyBell":true,"cctv":false,"source":"public","category":"public"},{"id":"202535500000100536","name":"오주유소","lat":37.525841,"lng":126.753931,"roadAddr":"인천광역시 계양구 아나지로 553","jibunAddr":"인천광역시 계양구 서운동 142-36","openHours":"24시간","maleToilets":2,"femaleToilets":1,"disabled":false,"diaperTable":false,"emergencyBell":true,"cctv":false,"source":"public","category":"public"},{"id":"202535500000100676","name":"엘림빌딩","lat":37.527972,"lng":126.756639,"roadAddr":"인천광역시 계양구 서운산업로 27","jibunAddr":"인천광역시 계양구 서운동 147-3","openHours":"14시간(04:00~18:00)","maleToilets":11,"femaleToilets":6,"disabled":false,"diaperTable":false,"emergencyBell":false,"cctv":false,"source":"public","category":"public"},{"id":"202535500000100534","name":"태경주유소","lat":37.525271,"lng":126.754224,"roadAddr":"인천광역시 계양구 아나지로 554","jibunAddr":"인천광역시 계양구 서운동 144-2","openHours":"24시간","maleToilets":3,"femaleToilets":1,"disabled":false,"diaperTable":false,"emergencyBell":false,"cctv":true,"source":"public","category":"public"},{"id":"202535500000100637","name":"태주빌딩","lat":37.527405,"lng":126.738873,"roadAddr":"인천광역시 계양구 아나지로 417번길 20","jibunAddr":"인천광역시 계양구 작전동 614-5","openHours":"24시간","maleToilets":16,"femaleToilets":8,"disabled":false,"diaperTable":false,"emergencyBell":false,"cctv":true,"source":"public","category":"public"},{"id":"202535500000100504","name":"계양종합사회복지관","lat":37.526032,"lng":126.750287,"roadAddr":"인천광역시 계양구 아나지로 517","jibunAddr":"인천광역시 계양구 서운동 130-6","openHours":"9시간(09:00~18:00)","maleToilets":10,"femaleToilets":9,"disabled":false,"diaperTable":false,"emergencyBell":true,"cctv":true,"source":"public","category":"public"},{"id":"202535500000100458","name":"인천서운초","lat":37.526976,"lng":126.744721,"roadAddr":"인천광역시 계양구 서운로 12","jibunAddr":"인천광역시 계양구 서운동 55-133","openHours":"미개방","maleToilets":10,"femaleToilets":60,"disabled":true,"diaperTable":false,"emergencyBell":false,"cctv":false,"source":"public","category":"public"},{"id":"202535500000100538","name":"믿음주유소","lat":37.525891,"lng":126.754484,"roadAddr":"인천광역시 계양구 아나지로 557","jibunAddr":"인천광역시 계양구 서운동 142-24","openHours":"20시간(04:00~24:00)","maleToilets":2,"femaleToilets":1,"disabled":false,"diaperTable":false,"emergencyBell":false,"cctv":true,"source":"public","category":"public"},{"id":"202535500000100683","name":"도두머리공원","lat":37.527673,"lng":126.745215,"roadAddr":"인천광역시 계양구 효서로 441","jibunAddr":"인천광역시 계양구 서운동 16-9","openHours":"24시간","maleToilets":3,"femaleToilets":3,"disabled":true,"diaperTable":true,"emergencyBell":true,"cctv":true,"source":"public","category":"public"},{"id":"202535500000100522","name":"하나원주유소","lat":37.525391,"lng":126.739521,"roadAddr":"인천광역시 계양구 아나지로 426","jibunAddr":"인천광역시 계양구 작전동 616-1,2","openHours":"24시간","maleToilets":4,"femaleToilets":2,"disabled":false,"diaperTable":false,"emergencyBell":false,"cctv":true,"source":"public","category":"public"},{"id":"202538600000101069","name":"위브더스테이트9단지","lat":37.496498,"lng":126.778511,"roadAddr":"경기도 부천시 원미구 신흥로 140(중동)","openHours":"00:00-24:00","maleToilets":2,"femaleToilets":3,"disabled":true,"diaperTable":false,"emergencyBell":true,"cctv":true,"source":"public","category":"public"},{"id":"202538600000100901","name":"CDS빌딩","lat":37.498012,"lng":126.777041,"roadAddr":"경기도 부천시 원미구 신흥로 161(중동)","openHours":"00:00-24:00","maleToilets":4,"femaleToilets":2,"disabled":false,"diaperTable":false,"emergencyBell":true,"cctv":true,"source":"public","category":"public"},{"id":"202538600000101421","name":"서부119안전센터","lat":37.507907,"lng":126.767774,"roadAddr":"경기도 부천시 원미구 계남로 169(중동)","openHours":"00:00-24:00","maleToilets":7,"femaleToilets":0,"disabled":false,"diaperTable":false,"emergencyBell":false,"cctv":false,"source":"public","category":"public"},{"id":"202538600000100932","name":"솔안말어린이공원","lat":37.485806,"lng":126.758711,"roadAddr":"경기도 부천시 소사구 경인로29번길 45(송내동)","openHours":"00:00-24:00","maleToilets":4,"femaleToilets":2,"disabled":false,"diaperTable":false,"emergencyBell":true,"cctv":false,"source":"public","category":"public"},{"id":"202538600000101232","name":"상2동 행정복지센터","lat":37.500635,"lng":126.754099,"roadAddr":"경기도 부천시 원미구 조마루로 95(상동)","openHours":"09:00-18:00","maleToilets":15,"femaleToilets":8,"disabled":true,"diaperTable":false,"emergencyBell":true,"cctv":true,"source":"public","category":"public"},{"id":"202538600000101229","name":"중4동 행정복지센터","lat":37.50605,"lng":126.762591,"roadAddr":"경기도 부천시 원미구 석천로209번길 15(중동)","openHours":"09:00-18:00","maleToilets":10,"femaleToilets":6,"disabled":true,"diaperTable":false,"emergencyBell":true,"cctv":false,"source":"public","category":"public"},{"id":"202538600000101010","name":"행복어린이공원","lat":37.491736,"lng":126.75984,"roadAddr":"경기도 부천시 원미구 상일로149번길 18-9(상동)","openHours":"00:00-24:00","maleToilets":1,"femaleToilets":1,"disabled":true,"diaperTable":false,"emergencyBell":true,"cctv":false,"source":"public","category":"public"},{"id":"202538600000101067","name":"한화생명 부천지점","lat":37.499687,"lng":126.776593,"roadAddr":"경기도 부천시 원미구 신흥로 179 (중동)","openHours":"09:00-18:00","maleToilets":3,"femaleToilets":2,"disabled":true,"diaperTable":false,"emergencyBell":false,"cctv":true,"source":"public","category":"public"},{"id":"202538600000101194","name":"SK엔크린 동원석유주유소","lat":37.496151,"lng":126.762811,"roadAddr":"경기도 부천시 원미구 부흥로 182(중동)","openHours":"00:00-24:00","maleToilets":3,"femaleToilets":2,"disabled":true,"diaperTable":false,"emergencyBell":false,"cctv":false,"source":"public","category":"public"},{"id":"202538600000100921","name":"강남어린이공원","lat":37.508851,"lng":126.781682,"roadAddr":"경기도 부천시 원미구 옥산로172번길 14(도당동)","openHours":"00:00-24:00","maleToilets":3,"femaleToilets":2,"disabled":false,"diaperTable":false,"emergencyBell":true,"cctv":false,"source":"public","category":"public"},{"id":"202538600000101443","name":"인천지방검찰청부천지청","lat":37.492267,"lng":126.756309,"roadAddr":"경기도 부천시 원미구 상일로 127(상동)","openHours":"09:00-18:00","maleToilets":3,"femaleToilets":1,"disabled":true,"diaperTable":false,"emergencyBell":true,"cctv":true,"source":"public","category":"public"},{"id":"202538600000101033","name":"인천지방법원부천지원","lat":37.491899,"lng":126.757588,"roadAddr":"경기도 부천시 원미구 상일로 129(상동)","openHours":"09:00-18:00","maleToilets":6,"femaleToilets":3,"disabled":true,"diaperTable":true,"emergencyBell":true,"cctv":true,"source":"public","category":"public"},{"id":"202538600000101350","name":"한중한방병원","lat":37.517754,"lng":126.770462,"roadAddr":"경기도 부천시 오정구 중동로 426(삼정동)","openHours":"09:00-18:00","maleToilets":3,"femaleToilets":1,"disabled":false,"diaperTable":false,"emergencyBell":false,"cctv":true,"source":"public","category":"public"},{"id":"202538600000101325","name":"인우빌딩","lat":37.525465,"lng":126.764492,"roadAddr":"경기도 부천시 오정구 오정로 40(삼정동)","openHours":"09:00-21:00","maleToilets":3,"femaleToilets":2,"disabled":false,"diaperTable":false,"emergencyBell":false,"cctv":false,"source":"public","category":"public"},{"id":"202538600000101191","name":"태광주유소","lat":37.513041,"lng":126.775391,"roadAddr":"경기도 부천시 원미구 신흥로 330(약대동)","openHours":"00:00-24:00","maleToilets":3,"femaleToilets":2,"disabled":true,"diaperTable":false,"emergencyBell":false,"cctv":false,"source":"public","category":"public"},{"id":"202538600000100800","name":"판타스틱오피스","lat":37.502307,"lng":126.765036,"roadAddr":"경기도 부천시 원미구 길주로 210-2(중동)","openHours":"00:00-24:00","maleToilets":4,"femaleToilets":4,"disabled":true,"diaperTable":false,"emergencyBell":true,"cctv":false,"source":"public","category":"public"},{"id":"202538600000100839","name":"상동종합사회복지관","lat":37.488893,"lng":126.762844,"roadAddr":"경기도 부천시 원미구 석천로16번길 50(상동)","openHours":"(평일)09:00-18:00","maleToilets":21,"femaleToilets":21,"disabled":true,"diaperTable":true,"emergencyBell":true,"cctv":false,"source":"public","category":"public"},{"id":"202538600000101406","name":"중앙지구대","lat":37.490858,"lng":126.779433,"roadAddr":"경기도 부천시 원미구 장말로 337-1(심곡동)","openHours":"00:00-24:00","maleToilets":2,"femaleToilets":0,"disabled":true,"diaperTable":true,"emergencyBell":false,"cctv":true,"source":"public","category":"public"},{"id":"202538600000101272","name":"송내빌딩","lat":37.486322,"lng":126.752791,"roadAddr":"경기도 부천시 소사구 송내대로 31(송내동)","openHours":"00:00-24:00","maleToilets":10,"femaleToilets":10,"disabled":false,"diaperTable":false,"emergencyBell":false,"cctv":true,"source":"public","category":"public"},{"id":"202538600000101403","name":"계남지구대","lat":37.497877,"lng":126.771664,"roadAddr":"경기도 부천시 원미구 조마루로 252(중동)","openHours":"00:00-24:00","maleToilets":2,"femaleToilets":0,"disabled":true,"diaperTable":false,"emergencyBell":false,"cctv":false,"source":"public","category":"public"},{"id":"202538600000101073","name":"굿모닝위너스텔3차","lat":37.501094,"lng":126.772473,"roadAddr":"경기도 부천시 원미구 소향로 223(중동)","openHours":"00:00-24:00","maleToilets":2,"femaleToilets":1,"disabled":true,"diaperTable":false,"emergencyBell":false,"cctv":true,"source":"public","category":"public"},{"id":"202538600000101095","name":"이안 더 클래식 A, B","lat":37.503048,"lng":126.771389,"roadAddr":"경기도 부천시 원미구 길주로 262(중동)","openHours":"00:00-24:00","maleToilets":8,"femaleToilets":2,"disabled":true,"diaperTable":false,"emergencyBell":false,"cctv":true,"source":"public","category":"public"},{"id":"202538600000101428","name":"신상119안전센터","lat":37.508127,"lng":126.75156,"roadAddr":"경기도 부천시 원미구 상동로117번길 36(상동)","openHours":"00:00-24:00","maleToilets":6,"femaleToilets":2,"disabled":false,"diaperTable":false,"emergencyBell":false,"cctv":false,"source":"public","category":"public"},{"id":"202538600000101172","name":"더만족병원","lat":37.503159,"lng":126.781744,"roadAddr":"경기도 부천시 원미구 계남로 310(중동)","openHours":"09:00-18:00","maleToilets":9,"femaleToilets":4,"disabled":false,"diaperTable":false,"emergencyBell":true,"cctv":true,"source":"public","category":"public"},{"id":"202538600000101089","name":"상록빌딩","lat":37.494875,"lng":126.776645,"roadAddr":"경기도 부천시 원미구 부흥로303번길 6(중동)","openHours":"00:00-24:00","maleToilets":3,"femaleToilets":2,"disabled":false,"diaperTable":false,"emergencyBell":false,"cctv":false,"source":"public","category":"public"},{"id":"202538600000101171","name":"부천요양병원","lat":37.503229,"lng":126.778568,"roadAddr":"경기도 부천시 원미구 길주로 321(중동)","openHours":"00:00-24:00","maleToilets":4,"femaleToilets":2,"disabled":false,"diaperTable":false,"emergencyBell":true,"cctv":true,"source":"public","category":"public"},{"id":"202538600000101075","name":"메트로팰리스1 A","lat":37.501422,"lng":126.769834,"roadAddr":"경기도 부천시 원미구 소향로 197(중동)","openHours":"00:00-24:00","maleToilets":2,"femaleToilets":1,"disabled":true,"diaperTable":false,"emergencyBell":false,"cctv":true,"source":"public","category":"public"},{"id":"202538600000100812","name":"한국만화영상진흥원 비즈니스센터","lat":37.509073,"lng":126.745634,"roadAddr":"경기도 부천시 원미구 길주로 1(상동)","openHours":"00:00-24:00","maleToilets":33,"femaleToilets":27,"disabled":true,"diaperTable":false,"emergencyBell":true,"cctv":false,"source":"public","category":"public"},{"id":"202538600000100803","name":"부천아트센터","lat":37.502239,"lng":126.766515,"roadAddr":"경기도 부천시 원미구 소향로 165(중동)","openHours":"06:30-23:00","maleToilets":60,"femaleToilets":94,"disabled":true,"diaperTable":true,"emergencyBell":true,"cctv":false,"source":"public","category":"public"},{"id":"202538600000101448","name":"송내역","lat":37.487681,"lng":126.752771,"roadAddr":"경기도 부천시 소사구 송내대로 43(송내동)","openHours":"05:00-24:00","maleToilets":18,"femaleToilets":18,"disabled":true,"diaperTable":true,"emergencyBell":true,"cctv":false,"source":"public","category":"public"},{"id":"202538600000101374","name":"GS칼텍스 부천고속주유소","lat":37.522349,"lng":126.775922,"roadAddr":"경기도 부천시 오정구 신흥로 434(내동)","openHours":"00:00-23:50","maleToilets":3,"femaleToilets":1,"disabled":false,"diaperTable":false,"emergencyBell":false,"cctv":false,"source":"public","category":"public"},{"id":"202538600000101072","name":"디아뜨3 B","lat":37.501017,"lng":126.772807,"roadAddr":"경기도 부천시 원미구 소향로 225(중동)","openHours":"00:00-24:00","maleToilets":2,"femaleToilets":1,"disabled":true,"diaperTable":false,"emergencyBell":false,"cctv":true,"source":"public","category":"public"},{"id":"202538600000101209","name":"삼성홈플러스상동점","lat":37.504618,"lng":126.755079,"roadAddr":"경기도 부천시 원미구 길주로 118(상동)","openHours":"10:00-24:00","maleToilets":3,"femaleToilets":1,"disabled":false,"diaperTable":true,"emergencyBell":true,"cctv":false,"source":"public","category":"public"},{"id":"202538600000101107","name":"송화빌딩","lat":37.490733,"lng":126.755402,"roadAddr":"경기도 부천시 원미구 부일로221번길 54(상동)","openHours":"00:00-24:00","maleToilets":3,"femaleToilets":2,"disabled":false,"diaperTable":false,"emergencyBell":false,"cctv":false,"source":"public","category":"public"},{"id":"202538600000101016","name":"심곡천공원","lat":37.493694,"lng":126.779928,"roadAddr":"경기도 부천시 원미구 부흥로336번길 7(중동)","openHours":"00:00-24:00","maleToilets":2,"femaleToilets":1,"disabled":true,"diaperTable":false,"emergencyBell":true,"cctv":false,"source":"public","category":"public"},{"id":"202538600000100895","name":"위브더스테이트3단지","lat":37.499964,"lng":126.777483,"roadAddr":"경기도 부천시 원미구 신흥로 178(중동)","openHours":"00:00-24:00","maleToilets":5,"femaleToilets":3,"disabled":true,"diaperTable":false,"emergencyBell":true,"cctv":true,"source":"public","category":"public"},{"id":"202538600000101370","name":"KH에너지㈜직영 KH테크노주유소","lat":37.523873,"lng":126.770893,"roadAddr":"경기도 부천시 오정구 석천로398번길 57(삼정동)","openHours":"06:00-20:00","maleToilets":3,"femaleToilets":1,"disabled":false,"diaperTable":false,"emergencyBell":false,"cctv":false,"source":"public","category":"public"},{"id":"202538600000101041","name":"대신프라자","lat":37.506489,"lng":126.75788,"roadAddr":"경기도 부천시 원미구 송내대로265번길 19(상동)","openHours":"10:00-21:00","maleToilets":2,"femaleToilets":1,"disabled":true,"diaperTable":false,"emergencyBell":false,"cctv":false,"source":"public","category":"public"},{"id":"202538600000101071","name":"디아뜨3 A","lat":37.501008,"lng":126.773172,"roadAddr":"경기도 부천시 원미구 소향로 227(중동)","openHours":"00:00-24:00","maleToilets":2,"femaleToilets":1,"disabled":true,"diaperTable":false,"emergencyBell":false,"cctv":true,"source":"public","category":"public"},{"id":"202538600000101203","name":"S-OIL 이화주유소","lat":37.485657,"lng":126.776101,"roadAddr":"경기도 부천시 원미구 신흥로 19(심곡동)","openHours":"00:00-24:00","maleToilets":3,"femaleToilets":1,"disabled":false,"diaperTable":false,"emergencyBell":false,"cctv":false,"source":"public","category":"public"},{"id":"202538600000101087","name":"루미아트","lat":37.496301,"lng":126.777519,"roadAddr":"경기도 부천시 원미구 부흥로315번길 38(중동)","openHours":"00:00-24:00","maleToilets":4,"femaleToilets":2,"disabled":true,"diaperTable":false,"emergencyBell":false,"cctv":false,"source":"public","category":"public"},{"id":"202538600000100884","name":"그랜드프라자","lat":37.504834,"lng":126.75243,"roadAddr":"경기도 부천시 원미구 상동로 83(상동)","openHours":"00:00-24:00","maleToilets":6,"femaleToilets":2,"disabled":true,"diaperTable":false,"emergencyBell":true,"cctv":true,"source":"public","category":"public"},{"id":"202538600000100993","name":"옥산어린이공원","lat":37.503999,"lng":126.778371,"roadAddr":"경기도 부천시 원미구 옥산로113번길 38(중동)","openHours":"00:00-24:00","maleToilets":4,"femaleToilets":2,"disabled":true,"diaperTable":false,"emergencyBell":true,"cctv":false,"source":"public","category":"public"},{"id":"202538600000101006","name":"은하어린이공원","lat":37.507895,"lng":126.765343,"roadAddr":"경기도 부천시 원미구 계남로 148(중동)","openHours":"00:00-24:00","maleToilets":3,"femaleToilets":1,"disabled":true,"diaperTable":false,"emergencyBell":true,"cctv":false,"source":"public","category":"public"},{"id":"202538600000100801","name":"부천시의회","lat":37.503571,"lng":126.76535,"roadAddr":"경기도 부천시 원미구 길주로 210(중동)","openHours":"00:00-24:00","maleToilets":82,"femaleToilets":55,"disabled":true,"diaperTable":true,"emergencyBell":true,"cctv":false,"source":"public","category":"public"},{"id":"202538600000100991","name":"벌막공원","lat":37.495401,"lng":126.780311,"roadAddr":"경기도 부천시 원미구 옥산로 15(중동)","openHours":"00:00-24:00","maleToilets":5,"femaleToilets":2,"disabled":false,"diaperTable":false,"emergencyBell":true,"cctv":false,"source":"public","category":"public"},{"id":"202538600000101103","name":"삼성미래산부인과","lat":37.494798,"lng":126.772596,"roadAddr":"경기도 부천시 원미구 부흥로 270(중동)","openHours":"00:00-24:00","maleToilets":2,"femaleToilets":1,"disabled":false,"diaperTable":false,"emergencyBell":false,"cctv":true,"source":"public","category":"public"},{"id":"202538600000100850","name":"상동역","lat":37.505813,"lng":126.753178,"roadAddr":"경기도 부천시 원미구 길주로 지하 104(상동)","openHours":"05:00-24:00","maleToilets":7,"femaleToilets":9,"disabled":true,"diaperTable":true,"emergencyBell":true,"cctv":true,"source":"public","category":"public"},{"id":"202538600000101058","name":"메트로팰리스2차A동","lat":37.501327,"lng":126.770837,"roadAddr":"경기도 부천시 원미구 중동로248번길 38(중동)","openHours":"00:00-24:00","maleToilets":2,"femaleToilets":1,"disabled":true,"diaperTable":false,"emergencyBell":false,"cctv":false,"source":"public","category":"public"},{"id":"202538600000100826","name":"부천체육관","lat":37.512758,"lng":126.76391,"roadAddr":"경기도 부천시 원미구 석천로 293(중동)","openHours":"06:00-22:00","maleToilets":95,"femaleToilets":52,"disabled":true,"diaperTable":false,"emergencyBell":true,"cctv":false,"source":"public","category":"public"},{"id":"202538600000101273","name":"청주빌딩","lat":37.486068,"lng":126.764126,"roadAddr":"경기도 부천시 소사구 중동로 65-1(송내동)","openHours":"00:00-24:00","maleToilets":5,"femaleToilets":2,"disabled":true,"diaperTable":false,"emergencyBell":false,"cctv":false,"source":"public","category":"public"},{"id":"202538600000101186","name":"현대오일뱅크 부천하이웨이주유소","lat":37.516087,"lng":126.760457,"roadAddr":"경기도 부천시 원미구 송내대로 369(상동)","openHours":"00:00-24:00","maleToilets":6,"femaleToilets":9,"disabled":true,"diaperTable":false,"emergencyBell":false,"cctv":false,"source":"public","category":"public"},{"id":"202538600000101117","name":"경촌빌딩","lat":37.487921,"lng":126.764741,"roadAddr":"경기도 부천시 원미구 중동로 87(상동)","openHours":"10:00-22:00","maleToilets":3,"femaleToilets":2,"disabled":false,"diaperTable":false,"emergencyBell":false,"cctv":false,"source":"public","category":"public"},{"id":"202538600000101077","name":"필레오트윈파크2동","lat":37.502152,"lng":126.764175,"roadAddr":"경기도 부천시 원미구 소향로 149(중동)","openHours":"00:00-24:00","maleToilets":5,"femaleToilets":2,"disabled":true,"diaperTable":false,"emergencyBell":false,"cctv":true,"source":"public","category":"public"},{"id":"202538600000100982","name":"보배어린이공원","lat":37.501835,"lng":126.781048,"roadAddr":"경기도 부천시 원미구 계남로322번길 29-7(중동)","openHours":"00:00-24:00","maleToilets":4,"femaleToilets":2,"disabled":true,"diaperTable":false,"emergencyBell":true,"cctv":false,"source":"public","category":"public"},{"id":"202538600000100984","name":"푸른어린이공원","lat":37.496437,"lng":126.772531,"roadAddr":"경기도 부천시 원미구 부흥로 261(중동)","openHours":"00:00-24:00","maleToilets":4,"femaleToilets":2,"disabled":true,"diaperTable":false,"emergencyBell":true,"cctv":false,"source":"public","category":"public"},{"id":"202538600000101187","name":"좋은하루주유소","lat":37.496771,"lng":126.745854,"roadAddr":"경기도 부천시 원미구 부흥로 32(상동)","openHours":"00:00-24:00","maleToilets":3,"femaleToilets":2,"disabled":false,"diaperTable":false,"emergencyBell":false,"cctv":false,"source":"public","category":"public"},{"id":"202538600000101369","name":"동우주유소","lat":37.520379,"lng":126.777951,"roadAddr":"경기도 부천시 오정구 삼작로 151(내동)","openHours":"00:00-23:50","maleToilets":4,"femaleToilets":1,"disabled":false,"diaperTable":false,"emergencyBell":false,"cctv":false,"source":"public","category":"public"},{"id":"202538600000101100","name":"씨티오피스상가","lat":37.504707,"lng":126.767235,"roadAddr":"경기도 부천시 원미구 길주로 221(중동)","openHours":"00:00-24:00","maleToilets":5,"femaleToilets":2,"disabled":false,"diaperTable":false,"emergencyBell":false,"cctv":false,"source":"public","category":"public"},{"id":"202538600000101004","name":"샛별어린이공원","lat":37.507488,"lng":126.775806,"roadAddr":"경기도 부천시 원미구 신흥로276번길 22(중동)","openHours":"00:00-24:00","maleToilets":2,"femaleToilets":2,"disabled":true,"diaperTable":false,"emergencyBell":true,"cctv":false,"source":"public","category":"public"},{"id":"202538600000101015","name":"억새어린이공원","lat":37.515371,"lng":126.769318,"roadAddr":"경기도 부천시 원미구 약대동 216-7","openHours":"00:00-24:00","maleToilets":3,"femaleToilets":1,"disabled":true,"diaperTable":true,"emergencyBell":false,"cctv":false,"source":"public","category":"public"},{"id":"202538600000100980","name":"반달어린이공원","lat":37.490353,"lng":126.748366,"roadAddr":"경기도 부천시 원미구 신상로 24(상동)","openHours":"00:00-24:00","maleToilets":3,"femaleToilets":2,"disabled":true,"diaperTable":false,"emergencyBell":true,"cctv":false,"source":"public","category":"public"},{"id":"202538600000100979","name":"구지공원","lat":37.492002,"lng":126.753819,"roadAddr":"경기도 부천시 원미구 상일로 101(상동)","openHours":"00:00-24:00","maleToilets":3,"femaleToilets":4,"disabled":true,"diaperTable":true,"emergencyBell":true,"cctv":false,"source":"public","category":"public"},{"id":"202538600000101060","name":"함덕빌딩","lat":37.506889,"lng":126.775603,"roadAddr":"경기도 부천시 원미구 신흥로 262(중동)","openHours":"00:00-24:00","maleToilets":2,"femaleToilets":1,"disabled":true,"diaperTable":false,"emergencyBell":true,"cctv":false,"source":"public","category":"public"},{"id":"202538600000101214","name":"심곡1동 행정복지센터","lat":37.490947,"lng":126.780611,"roadAddr":"경기도 부천시 원미구 장말로351번길 9(심곡동)","openHours":"09:00-18:00","maleToilets":5,"femaleToilets":7,"disabled":true,"diaperTable":false,"emergencyBell":true,"cctv":false,"source":"public","category":"public"},{"id":"202538600000100894","name":"리치하우스오피스텔","lat":37.503197,"lng":126.778853,"roadAddr":"경기도 부천시 원미구 길주로 325(중동)","openHours":"00:00-24:00","maleToilets":3,"femaleToilets":1,"disabled":true,"diaperTable":true,"emergencyBell":true,"cctv":true,"source":"public","category":"public"},{"id":"202538600000100810","name":"부천시민회관","lat":37.488632,"lng":126.770658,"roadAddr":"경기도 부천시 원미구 부일로 365(중동)","openHours":"(평일,주말)07:00-22:00+(공휴일)09:00-18:00","maleToilets":16,"femaleToilets":12,"disabled":true,"diaperTable":true,"emergencyBell":true,"cctv":false,"source":"public","category":"public"},{"id":"202538600000101402","name":"약대지구대","lat":37.51437,"lng":126.770423,"roadAddr":"경기도 부천시 원미구 중동로388번길 6(약대동)","openHours":"00:00-24:00","maleToilets":1,"femaleToilets":0,"disabled":true,"diaperTable":false,"emergencyBell":false,"cctv":false,"source":"public","category":"public"},{"id":"202538600000101216","name":"심곡3동 행정복지센터","lat":37.487405,"lng":126.773871,"roadAddr":"경기도 부천시 원미구 부일로 393(심곡동)","openHours":"09:00-18:00","maleToilets":13,"femaleToilets":8,"disabled":true,"diaperTable":false,"emergencyBell":true,"cctv":false,"source":"public","category":"public"},{"id":"202538600000101109","name":"유광빌딩","lat":37.490619,"lng":126.756255,"roadAddr":"경기도 부천시 원미구 부일로233번길 49(상동)","openHours":"00:00-24:00","maleToilets":3,"femaleToilets":1,"disabled":false,"diaperTable":false,"emergencyBell":false,"cctv":false,"source":"public","category":"public"},{"id":"202538600000100911","name":"부천호수식물원 수피아","lat":37.506124,"lng":126.744163,"roadAddr":"경기도 부천시 원미구 길주로 16(상동)","openHours":"(평시)10:00-18:00+(동절기)10:00-17:00","maleToilets":3,"femaleToilets":3,"disabled":true,"diaperTable":true,"emergencyBell":true,"cctv":false,"source":"public","category":"public"},{"id":"202538600000101205","name":"광성프라자","lat":37.50551,"lng":126.781926,"roadAddr":"경기도 부천시 원미구 옥산로138번길 30(춘의동)","openHours":"09:00-18:00","maleToilets":3,"femaleToilets":2,"disabled":false,"diaperTable":false,"emergencyBell":false,"cctv":false,"source":"public","category":"public"},{"id":"202538600000101447","name":"중동역","lat":37.486618,"lng":126.764292,"roadAddr":"경기도 부천시 소사구 중동로 73(송내동)","openHours":"05:00-24:00","maleToilets":11,"femaleToilets":6,"disabled":true,"diaperTable":true,"emergencyBell":true,"cctv":false,"source":"public","category":"public"},{"id":"202538600000100863","name":"법원앞공영주차장","lat":37.490361,"lng":126.756606,"roadAddr":"경기도 부천시 원미구 부일로237번길 41(상동)","openHours":"00:00-24:00","maleToilets":4,"femaleToilets":2,"disabled":true,"diaperTable":true,"emergencyBell":true,"cctv":false,"source":"public","category":"public"},{"id":"202538600000100807","name":"부천아트벙커B39","lat":37.5219,"lng":126.767661,"roadAddr":"경기도 부천시 오정구 삼작로 53(삼정동)","openHours":"10:00-17:00","maleToilets":14,"femaleToilets":10,"disabled":true,"diaperTable":true,"emergencyBell":true,"cctv":false,"source":"public","category":"public"},{"id":"202538600000100985","name":"부천중앙공원","lat":37.500606,"lng":126.763713,"roadAddr":"경기도 부천시 원미구 소향로 162(중동)","openHours":"00:00-24:00","maleToilets":24,"femaleToilets":13,"disabled":true,"diaperTable":false,"emergencyBell":true,"cctv":false,"source":"public","category":"public"},{"id":"202538600000101059","name":"신선빌딩","lat":37.503078,"lng":126.780548,"roadAddr":"경기도 부천시 원미구 옥산로 104(중동)","openHours":"07:00-21:30","maleToilets":3,"femaleToilets":1,"disabled":true,"diaperTable":true,"emergencyBell":true,"cctv":false,"source":"public","category":"public"},{"id":"202538600000101111","name":"훼미리타운","lat":37.49009,"lng":126.755955,"roadAddr":"경기도 부천시 원미구 상일로122번길 27(상동)","openHours":"09:00-22:00","maleToilets":4,"femaleToilets":2,"disabled":false,"diaperTable":false,"emergencyBell":false,"cctv":true,"source":"public","category":"public"},{"id":"202538600000101097","name":"대일빌딩","lat":37.504334,"lng":126.770223,"roadAddr":"경기도 부천시 원미구 길주로 249(중동)","openHours":"00:00-24:00","maleToilets":3,"femaleToilets":2,"disabled":true,"diaperTable":false,"emergencyBell":false,"cctv":false,"source":"public","category":"public"},{"id":"202538600000101112","name":"광명빌딩","lat":37.488808,"lng":126.759605,"roadAddr":"경기도 부천시 원미구 석천로 13(상동)","openHours":"09:00-22:00","maleToilets":3,"femaleToilets":2,"disabled":false,"diaperTable":false,"emergencyBell":false,"cctv":false,"source":"public","category":"public"},{"id":"202538600000101045","name":"메가플러스","lat":37.505125,"lng":126.75372,"roadAddr":"경기도 부천시 원미구 상동로 90(상동)","openHours":"10:00-21:00","maleToilets":4,"femaleToilets":2,"disabled":true,"diaperTable":false,"emergencyBell":false,"cctv":false,"source":"public","category":"public"},{"id":"202538600000101092","name":"무광오피스텔","lat":37.502958,"lng":126.772851,"roadAddr":"경기도 부천시 원미구 길주로 276(중동)","openHours":"00:00-24:00","maleToilets":5,"femaleToilets":2,"disabled":true,"diaperTable":false,"emergencyBell":false,"cctv":false,"source":"public","category":"public"},{"id":"202538600000101129","name":"한림빌딩","lat":37.485932,"lng":126.780657,"roadAddr":"경기도 부천시 원미구 부일로 454(심곡동)","openHours":"09:00-24:00","maleToilets":3,"femaleToilets":2,"disabled":false,"diaperTable":false,"emergencyBell":false,"cctv":false,"source":"public","category":"public"},{"id":"202538600000101039","name":"금호프라자","lat":37.49637,"lng":126.776225,"roadAddr":"경기도 부천시 원미구 부흥로303번길 36(중동)","openHours":"00:00-24:00","maleToilets":4,"femaleToilets":2,"disabled":true,"diaperTable":false,"emergencyBell":false,"cctv":false,"source":"public","category":"public"},{"id":"202538600000100818","name":"서촌다목적체육센터","lat":37.488245,"lng":126.751048,"roadAddr":"경기도 부천시 원미구 부일로 172(상동)","openHours":"06:00-22:00","maleToilets":3,"femaleToilets":2,"disabled":false,"diaperTable":true,"emergencyBell":true,"cctv":false,"source":"public","category":"public"},{"id":"202538600000101014","name":"넘말어린이공원","lat":37.495021,"lng":126.76277,"roadAddr":"경기도 부천시 원미구 중동로161번길 80-5(중동)","openHours":"00:00-24:00","maleToilets":2,"femaleToilets":1,"disabled":true,"diaperTable":false,"emergencyBell":true,"cctv":false,"source":"public","category":"public"},{"id":"202538600000100886","name":"대우마이빌","lat":37.490844,"lng":126.757806,"roadAddr":"경기도 부천시 원미구 상일로 140(상동)","openHours":"00:00-24:00","maleToilets":5,"femaleToilets":3,"disabled":true,"diaperTable":false,"emergencyBell":true,"cctv":true,"source":"public","category":"public"},{"id":"202538600000101078","name":"필레오트윈파크1동","lat":37.502228,"lng":126.763785,"roadAddr":"경기도 부천시 원미구 소향로 143(중동)","openHours":"00:00-24:00","maleToilets":5,"femaleToilets":2,"disabled":true,"diaperTable":false,"emergencyBell":false,"cctv":true,"source":"public","category":"public"},{"id":"202538600000101230","name":"상동 행정복지센터","lat":37.494938,"lng":126.760802,"roadAddr":"경기도 부천시 원미구 석천로 83(상동)","openHours":"09:00-18:00","maleToilets":12,"femaleToilets":6,"disabled":false,"diaperTable":false,"emergencyBell":true,"cctv":true,"source":"public","category":"public"},{"id":"202538600000100861","name":"상동시장공영주차장","lat":37.490555,"lng":126.763214,"roadAddr":"경기도 부천시 원미구 석천로38번길 51(상동)","openHours":"00:00-24:00","maleToilets":2,"femaleToilets":2,"disabled":false,"diaperTable":true,"emergencyBell":true,"cctv":false,"source":"public","category":"public"},{"id":"202538600000100849","name":"부천시청역","lat":37.504654,"lng":126.764048,"roadAddr":"경기도 부천시 원미구 길주로 지하 202(중동)","openHours":"05:00-24:00","maleToilets":8,"femaleToilets":13,"disabled":true,"diaperTable":true,"emergencyBell":true,"cctv":true,"source":"public","category":"public"},{"id":"202538600000101083","name":"디아뜨1 A","lat":37.502733,"lng":126.760058,"roadAddr":"경기도 부천시 원미구 소향로 111(중동)","openHours":"00:00-24:00","maleToilets":3,"femaleToilets":2,"disabled":true,"diaperTable":false,"emergencyBell":false,"cctv":false,"source":"public","category":"public"},{"id":"202538600000101099","name":"전자랜드 부천점","lat":37.504405,"lng":126.769898,"roadAddr":"경기도 부천시 원미구 길주로 245(중동)","openHours":"00:00-24:00","maleToilets":4,"femaleToilets":2,"disabled":false,"diaperTable":false,"emergencyBell":false,"cctv":true,"source":"public","category":"public"},{"id":"202538600000100896","name":"위브더스테이트5단지","lat":37.498948,"lng":126.777874,"roadAddr":"경기도 부천시 원미구 신흥로 170(중동)","openHours":"00:00-24:00","maleToilets":6,"femaleToilets":4,"disabled":true,"diaperTable":false,"emergencyBell":true,"cctv":true,"source":"public","category":"public"},{"id":"202538600000101271","name":"라슈빌딩","lat":37.48614,"lng":126.752793,"roadAddr":"경기도 부천시 소사구 송내대로 29(송내동)","openHours":"00:00-24:00","maleToilets":10,"femaleToilets":10,"disabled":false,"diaperTable":false,"emergencyBell":false,"cctv":true,"source":"public","category":"public"},{"id":"202538600000100842","name":"부천시장애인회관","lat":37.516149,"lng":126.775877,"roadAddr":"경기도 부천시 오정구 신흥로 364(내동)","openHours":"09:00-18:00","maleToilets":10,"femaleToilets":3,"disabled":true,"diaperTable":true,"emergencyBell":true,"cctv":false,"source":"public","category":"public"},{"id":"202538600000101086","name":"필그린타워","lat":37.497438,"lng":126.777228,"roadAddr":"경기도 부천시 원미구 부흥로315번길 62(중동)","openHours":"00:00-24:00","maleToilets":6,"femaleToilets":3,"disabled":false,"diaperTable":false,"emergencyBell":false,"cctv":true,"source":"public","category":"public"},{"id":"202538600000101170","name":"다니엘종합병원","lat":37.512348,"lng":126.769503,"roadAddr":"경기도 부천시 원미구 중동로 361(약대동)","openHours":"00:00-24:00","maleToilets":2,"femaleToilets":2,"disabled":false,"diaperTable":false,"emergencyBell":true,"cctv":true,"source":"public","category":"public"},{"id":"202538600000101051","name":"맘모스타워","lat":37.504841,"lng":126.750087,"roadAddr":"경기도 부천시 원미구 소향로13번길 28-14(상동)","openHours":"00:00-24:00","maleToilets":8,"femaleToilets":3,"disabled":true,"diaperTable":false,"emergencyBell":false,"cctv":false,"source":"public","category":"public"},{"id":"202538600000100844","name":"해밀도서관","lat":37.494487,"lng":126.780487,"roadAddr":"경기도 부천시 원미구 옥산로10번길 4(중동)","openHours":"08:00-22:00","maleToilets":5,"femaleToilets":4,"disabled":true,"diaperTable":true,"emergencyBell":false,"cctv":true,"source":"public","category":"public"},{"id":"202538600000101043","name":"코오롱이데아폴리스","lat":37.504397,"lng":126.748773,"roadAddr":"경기도 부천시 원미구 소향로 11(상동)","openHours":"10:00-21:00","maleToilets":4,"femaleToilets":2,"disabled":true,"diaperTable":false,"emergencyBell":false,"cctv":false,"source":"public","category":"public"},{"id":"202538600000101116","name":"이데아씨티","lat":37.489663,"lng":126.756455,"roadAddr":"경기도 부천시 원미구 송내대로74번길 44(상동)","openHours":"09:00-22:00","maleToilets":3,"femaleToilets":2,"disabled":false,"diaperTable":false,"emergencyBell":false,"cctv":true,"source":"public","category":"public"},{"id":"202538600000101124","name":"삼성디지털프라자 도당점","lat":37.507184,"lng":126.780072,"roadAddr":"경기도 부천시 원미구 옥산로 153(도당동)","openHours":"07:00-23:00","maleToilets":3,"femaleToilets":1,"disabled":false,"diaperTable":false,"emergencyBell":false,"cctv":false,"source":"public","category":"public"},{"id":"202538600000100902","name":"중동메디칼","lat":37.504494,"lng":126.768936,"roadAddr":"경기도 부천시 원미구 길주로 237(중동)","openHours":"00:00-24:00","maleToilets":4,"femaleToilets":1,"disabled":true,"diaperTable":false,"emergencyBell":true,"cctv":true,"source":"public","category":"public"},{"id":"202538600000101098","name":"부천중동리슈빌엔클래스","lat":37.50333,"lng":126.76963,"roadAddr":"경기도 부천시 원미구 길주로 246(중동)","openHours":"00:00-24:00","maleToilets":5,"femaleToilets":3,"disabled":true,"diaperTable":false,"emergencyBell":true,"cctv":true,"source":"public","category":"public"},{"id":"202538600000101110","name":"뉴법조타운","lat":37.491013,"lng":126.756432,"roadAddr":"경기도 부천시 원미구 상일로 126(상동)","openHours":"06:00-22:00","maleToilets":3,"femaleToilets":1,"disabled":true,"diaperTable":false,"emergencyBell":false,"cctv":false,"source":"public","category":"public"},{"id":"202538600000101169","name":"초앤유여성병원","lat":37.501901,"lng":126.769773,"roadAddr":"경기도 부천시 원미구 중동로248번길 19(중동)","openHours":"00:00-24:00","maleToilets":1,"femaleToilets":2,"disabled":false,"diaperTable":false,"emergencyBell":false,"cctv":false,"source":"public","category":"public"},{"id":"202538600000101228","name":"중3동 행정복지센터","lat":37.503781,"lng":126.778058,"roadAddr":"경기도 부천시 원미구 옥산로113번길 39(중동)","openHours":"09:00-18:00","maleToilets":1,"femaleToilets":2,"disabled":true,"diaperTable":false,"emergencyBell":true,"cctv":false,"source":"public","category":"public"},{"id":"202538600000100976","name":"서촌공원","lat":37.488245,"lng":126.751048,"roadAddr":"경기도 부천시 원미구 부일로 172(상동)","openHours":"00:00-24:00","maleToilets":3,"femaleToilets":3,"disabled":true,"diaperTable":false,"emergencyBell":true,"cctv":false,"source":"public","category":"public"},{"id":"202538600000101038","name":"신중동역랜드마크푸르지오시티","lat":37.504021,"lng":126.775246,"roadAddr":"경기도 부천시 원미구 신흥로 223(중동)","openHours":"00:00-24:00","maleToilets":4,"femaleToilets":4,"disabled":true,"diaperTable":true,"emergencyBell":true,"cctv":false,"source":"public","category":"public"},{"id":"202538600000101193","name":"SK엔크린 ㈜유카스에너지 상동셀프주유소","lat":37.48799,"lng":126.760449,"roadAddr":"경기도 부천시 원미구 부일로 274(상동)","openHours":"06:00-23:00","maleToilets":4,"femaleToilets":2,"disabled":false,"diaperTable":false,"emergencyBell":false,"cctv":false,"source":"public","category":"public"},{"id":"202538600000101400","name":"상동지구대","lat":37.491802,"lng":126.753442,"roadAddr":"경기도 부천시 원미구 상일로 99(상동)","openHours":"00:00-24:00","maleToilets":4,"femaleToilets":2,"disabled":false,"diaperTable":false,"emergencyBell":false,"cctv":false,"source":"public","category":"public"},{"id":"202538600000100990","name":"원골어린이공원","lat":37.510914,"lng":126.771904,"roadAddr":"경기도 부천시 원미구 도약로189번길 14-24(약대동)","openHours":"00:00-24:00","maleToilets":2,"femaleToilets":2,"disabled":true,"diaperTable":false,"emergencyBell":true,"cctv":false,"source":"public","category":"public"},{"id":"202538600000101018","name":"꿈빛도서관","lat":37.508076,"lng":126.773716,"roadAddr":"경기도 부천시 원미구 신흥로275번길 19(중동)","openHours":"07:00-22:00","maleToilets":29,"femaleToilets":16,"disabled":true,"diaperTable":true,"emergencyBell":true,"cctv":false,"source":"public","category":"public"},{"id":"202538600000101375","name":"남경주유소","lat":37.526449,"lng":126.781757,"roadAddr":"경기도 부천시 오정구 오정로 191(내동)","openHours":"05:00-23:00","maleToilets":3,"femaleToilets":1,"disabled":false,"diaperTable":false,"emergencyBell":false,"cctv":false,"source":"public","category":"public"},{"id":"202538600000101002","name":"설악어린이공원","lat":37.508794,"lng":126.770597,"roadAddr":"경기도 부천시 원미구 중동로 326-1(중동)","openHours":"00:00-24:00","maleToilets":3,"femaleToilets":2,"disabled":true,"diaperTable":false,"emergencyBell":true,"cctv":false,"source":"public","category":"public"},{"id":"202538600000101096","name":"금광베네스타","lat":37.503234,"lng":126.770212,"roadAddr":"경기도 부천시 원미구 길주로 252(중동)","openHours":"00:00-24:00","maleToilets":6,"femaleToilets":2,"disabled":true,"diaperTable":false,"emergencyBell":false,"cctv":true,"source":"public","category":"public"},{"id":"202538600000101063","name":"트리플타워B","lat":37.501623,"lng":126.776081,"roadAddr":"경기도 부천시 원미구 신흥로 201(중동)","openHours":"00:00-24:00","maleToilets":2,"femaleToilets":1,"disabled":true,"diaperTable":false,"emergencyBell":false,"cctv":true,"source":"public","category":"public"},{"id":"202538600000101013","name":"장말어린이공원","lat":37.494355,"lng":126.765092,"roadAddr":"경기도 부천시 원미구 중동로161번길 37(중동)","openHours":"00:00-24:00","maleToilets":2,"femaleToilets":1,"disabled":true,"diaperTable":false,"emergencyBell":true,"cctv":false,"source":"public","category":"public"},{"id":"202538600000100883","name":"새롬프라자","lat":37.503759,"lng":126.752249,"roadAddr":"경기도 부천시 원미구 상동로 69(상동)","openHours":"00:00-24:00","maleToilets":5,"femaleToilets":2,"disabled":true,"diaperTable":false,"emergencyBell":true,"cctv":true,"source":"public","category":"public"},{"id":"202538600000101351","name":"이룸병원","lat":37.515788,"lng":126.775889,"roadAddr":"경기도 부천시 오정구 수도로 93(내동)","openHours":"09:00-18:00","maleToilets":3,"femaleToilets":2,"disabled":true,"diaperTable":false,"emergencyBell":true,"cctv":true,"source":"public","category":"public"},{"id":"202538600000100879","name":"승재프라자","lat":37.50745,"lng":126.753035,"roadAddr":"경기도 부천시 원미구 상동로 113(상동)","openHours":"00:00-24:00","maleToilets":3,"femaleToilets":2,"disabled":true,"diaperTable":false,"emergencyBell":true,"cctv":true,"source":"public","category":"public"},{"id":"202538600000101005","name":"금강어린이공원","lat":37.506373,"lng":126.762801,"roadAddr":"경기도 부천시 원미구 석천로 211(중동)","openHours":"00:00-24:00","maleToilets":4,"femaleToilets":2,"disabled":true,"diaperTable":false,"emergencyBell":true,"cctv":false,"source":"public","category":"public"},{"id":"202538600000101224","name":"약대동 행정복지센터","lat":37.513306,"lng":126.771315,"roadAddr":"경기도 부천시 원미구 수도로 44(약대동)","openHours":"09:00-18:00","maleToilets":5,"femaleToilets":3,"disabled":true,"diaperTable":false,"emergencyBell":true,"cctv":true,"source":"public","category":"public"},{"id":"202538600000100862","name":"먹적골공영주차장","lat":37.49033,"lng":126.77499,"roadAddr":"경기도 부천시 원미구 신흥로67번길 48(심곡동)","openHours":"00:00-24:00","maleToilets":2,"femaleToilets":2,"disabled":true,"diaperTable":true,"emergencyBell":true,"cctv":false,"source":"public","category":"public"},{"id":"202538600000101360","name":"부천IC충전소","lat":37.523265,"lng":126.77559,"roadAddr":"경기도 부천시 오정구 신흥로441번길 8(삼정동)","openHours":"00:00-23:40","maleToilets":4,"femaleToilets":1,"disabled":false,"diaperTable":false,"emergencyBell":false,"cctv":true,"source":"public","category":"public"},{"id":"202538600000101438","name":"심곡동우체국","lat":37.486694,"lng":126.775842,"roadAddr":"경기도 부천시 원미구 부일로 412(심곡동)","openHours":"09:00-18:00","maleToilets":1,"femaleToilets":1,"disabled":true,"diaperTable":false,"emergencyBell":false,"cctv":true,"source":"public","category":"public"},{"id":"202538600000101070","name":"대야하이빌2차","lat":37.500857,"lng":126.77435,"roadAddr":"경기도 부천시 원미구 소향로 239(중동)","openHours":"00:00-24:00","maleToilets":4,"femaleToilets":2,"disabled":false,"diaperTable":false,"emergencyBell":false,"cctv":false,"source":"public","category":"public"},{"id":"202538600000101399","name":"부천원미경찰서","lat":37.502463,"lng":126.777337,"roadAddr":"경기도 부천시 원미구 조마루로311번길 84(중동)","openHours":"00:00-24:00","maleToilets":5,"femaleToilets":1,"disabled":true,"diaperTable":false,"emergencyBell":false,"cctv":true,"source":"public","category":"public"},{"id":"202538600000101158","name":"더블유진병원","lat":37.505444,"lng":126.775993,"roadAddr":"경기도 부천시 원미구 신흥로 244(중동)","openHours":"00:00-24:00","maleToilets":9,"femaleToilets":6,"disabled":true,"diaperTable":false,"emergencyBell":false,"cctv":false,"source":"public","category":"public"},{"id":"202538600000101080","name":"디아뜨2","lat":37.502556,"lng":126.761259,"roadAddr":"경기도 부천시 원미구 소향로 119(중동)","openHours":"00:00-24:00","maleToilets":3,"femaleToilets":2,"disabled":false,"diaperTable":false,"emergencyBell":false,"cctv":false,"source":"public","category":"public"},{"id":"202538600000101019","name":"책마루도서관","lat":37.49397,"lng":126.770105,"roadAddr":"경기도 부천시 원미구 심중로 121(중동)","openHours":"09:00-18:00","maleToilets":12,"femaleToilets":16,"disabled":true,"diaperTable":false,"emergencyBell":true,"cctv":true,"source":"public","category":"public"},{"id":"202538600000100802","name":"부천시청","lat":37.503571,"lng":126.76535,"roadAddr":"경기도 부천시 원미구 길주로 210(중동)","openHours":"07:00-22:00","maleToilets":150,"femaleToilets":80,"disabled":true,"diaperTable":true,"emergencyBell":true,"cctv":true,"source":"public","category":"public"},{"id":"202538600000101441","name":"부천세무서","lat":37.507242,"lng":126.774317,"roadAddr":"경기도 부천시 원미구 계남로 227(중동)","openHours":"09:00-18:00","maleToilets":35,"femaleToilets":19,"disabled":true,"diaperTable":false,"emergencyBell":false,"cctv":false,"source":"public","category":"public"},{"id":"202538600000101225","name":"중동 행정복지센터","lat":37.487813,"lng":126.768185,"roadAddr":"경기도 부천시 원미구 부일로 342(중동)","openHours":"09:00-18:00","maleToilets":20,"femaleToilets":8,"disabled":true,"diaperTable":false,"emergencyBell":true,"cctv":true,"source":"public","category":"public"},{"id":"202538600000101182","name":"서해가스충전소","lat":37.51687,"lng":126.760578,"roadAddr":"경기도 부천시 원미구 송내대로 377(상동)","openHours":"00:00-24:00","maleToilets":3,"femaleToilets":1,"disabled":false,"diaperTable":false,"emergencyBell":false,"cctv":false,"source":"public","category":"public"},{"id":"202538600000101114","name":"수협 상동지점","lat":37.491185,"lng":126.763878,"roadAddr":"경기도 부천시 원미구 석천로44번길 51(상동)","openHours":"09:00-18:00","maleToilets":2,"femaleToilets":1,"disabled":false,"diaperTable":false,"emergencyBell":false,"cctv":false,"source":"public","category":"public"},{"id":"202538600000101081","name":"베네피아 오피스텔","lat":37.502624,"lng":126.760795,"roadAddr":"경기도 부천시 원미구 소향로 117(중동)","openHours":"00:00-24:00","maleToilets":4,"femaleToilets":2,"disabled":false,"diaperTable":false,"emergencyBell":false,"cctv":true,"source":"public","category":"public"},{"id":"202538600000101192","name":"삼표주유소","lat":37.49481,"lng":126.777929,"roadAddr":"경기도 부천시 원미구 부흥로 317(중동)","openHours":"00:00-24:00","maleToilets":3,"femaleToilets":1,"disabled":true,"diaperTable":false,"emergencyBell":false,"cctv":false,"source":"public","category":"public"},{"id":"202538600000101031","name":"고용노동부 부천지청","lat":37.505864,"lng":126.762828,"roadAddr":"경기도 부천시 원미구 석천로 207(중동)","openHours":"09:00-18:00","maleToilets":3,"femaleToilets":1,"disabled":true,"diaperTable":false,"emergencyBell":true,"cctv":false,"source":"public","category":"public"},{"id":"202538600000101418","name":"부천소방서119구조대","lat":37.494012,"lng":126.778053,"roadAddr":"경기도 부천시 원미구 신흥로 115(중동)","openHours":"00:00-24:00","maleToilets":5,"femaleToilets":1,"disabled":false,"diaperTable":false,"emergencyBell":false,"cctv":false,"source":"public","category":"public"},{"id":"202538600000101432","name":"상동우체국","lat":37.497064,"lng":126.750903,"roadAddr":"경기도 부천시 원미구 부흥로 76(상동)","openHours":"09:00-18:00","maleToilets":2,"femaleToilets":1,"disabled":false,"diaperTable":false,"emergencyBell":false,"cctv":false,"source":"public","category":"public"},{"id":"202538600000100968","name":"상산어린이공원","lat":37.518759,"lng":126.76788,"roadAddr":"경기도 부천시 오정구 석천로356번길 31-5(삼정동)","openHours":"00:00-24:00","maleToilets":3,"femaleToilets":2,"disabled":true,"diaperTable":false,"emergencyBell":true,"cctv":false,"source":"public","category":"public"},{"id":"202538600000100847","name":"부천시교통정보센터","lat":37.501882,"lng":126.780707,"roadAddr":"경기도 부천시 원미구 옥산로 92(중동)","openHours":"09:00-18:00","maleToilets":7,"femaleToilets":2,"disabled":true,"diaperTable":true,"emergencyBell":false,"cctv":false,"source":"public","category":"public"},{"id":"202538600000101208","name":"세이브존 부천상동점","lat":37.50642,"lng":126.754148,"roadAddr":"경기도 부천시 원미구 길주로 105(상동)","openHours":"10:00-20:00","maleToilets":3,"femaleToilets":1,"disabled":false,"diaperTable":false,"emergencyBell":false,"cctv":false,"source":"public","category":"public"},{"id":"202538600000100914","name":"부천중앙공원 광장","lat":37.501378,"lng":126.765335,"roadAddr":"경기도 부천시 원미구 소향로 164(중동)","openHours":"00:00-24:00","maleToilets":6,"femaleToilets":2,"disabled":true,"diaperTable":false,"emergencyBell":true,"cctv":false,"source":"public","category":"public"},{"id":"202538600000100835","name":"심곡동종합사회복지관(한라분관)","lat":37.508904,"lng":126.762638,"roadAddr":"경기도 부천시 원미구 계남로 125(중동)","openHours":"(평일)09:00-18:00","maleToilets":2,"femaleToilets":1,"disabled":true,"diaperTable":false,"emergencyBell":false,"cctv":false,"source":"public","category":"public"},{"id":"202538600000101065","name":"삼성화재부천사옥","lat":37.500979,"lng":126.776291,"roadAddr":"경기도 부천시 원미구 신흥로 197(중동)","openHours":"09:00-18:00","maleToilets":5,"femaleToilets":2,"disabled":false,"diaperTable":false,"emergencyBell":false,"cctv":true,"source":"public","category":"public"},{"id":"202538600000101064","name":"트리플타워C","lat":37.501255,"lng":126.776157,"roadAddr":"경기도 부천시 원미구 신흥로 199(중동)","openHours":"00:00-24:00","maleToilets":2,"femaleToilets":1,"disabled":true,"diaperTable":false,"emergencyBell":false,"cctv":true,"source":"public","category":"public"},{"id":"202538600000101206","name":"투나","lat":37.488873,"lng":126.755289,"roadAddr":"경기도 부천시 원미구 부일로 223(상동)","openHours":"00:00-24:00","maleToilets":3,"femaleToilets":1,"disabled":false,"diaperTable":false,"emergencyBell":false,"cctv":true,"source":"public","category":"public"},{"id":"202538600000101057","name":"메트로팰리스2차B동","lat":37.501256,"lng":126.771197,"roadAddr":"경기도 부천시 원미구 중동로248번길 44(중동)","openHours":"00:00-24:00","maleToilets":3,"femaleToilets":2,"disabled":true,"diaperTable":false,"emergencyBell":false,"cctv":false,"source":"public","category":"public"},{"id":"202538600000101011","name":"석천근린공원","lat":37.495731,"lng":126.759864,"roadAddr":"경기도 부천시 원미구 석천로 85-1(상동)","openHours":"00:00-24:00","maleToilets":4,"femaleToilets":4,"disabled":true,"diaperTable":false,"emergencyBell":true,"cctv":false,"source":"public","category":"public"},{"id":"202538600000101398","name":"신흥동 행정복지센터","lat":37.520421,"lng":126.773342,"roadAddr":"경기도 부천시 오정구 삼작로 109(삼정동)","openHours":"09:00-18:00","maleToilets":7,"femaleToilets":13,"disabled":true,"diaperTable":false,"emergencyBell":true,"cctv":false,"source":"public","category":"public"},{"id":"202538600000101419","name":"부천소방서119구급대","lat":37.488278,"lng":126.779781,"roadAddr":"경기도 부천시 원미구 신흥로56번길 46(심곡동)","openHours":"00:00-24:00","maleToilets":3,"femaleToilets":0,"disabled":false,"diaperTable":false,"emergencyBell":false,"cctv":false,"source":"public","category":"public"},{"id":"202538600000101032","name":"부천고용복지플러스센터","lat":37.503112,"lng":126.78144,"roadAddr":"경기도 부천시 원미구 길주로 351(중동)","openHours":"09:00-18:00","maleToilets":3,"femaleToilets":2,"disabled":true,"diaperTable":false,"emergencyBell":true,"cctv":false,"source":"public","category":"public"},{"id":"202538600000100977","name":"한아름어린이공원","lat":37.496259,"lng":126.751175,"roadAddr":"경기도 부천시 원미구 상동로 78-1(상동)","openHours":"00:00-24:00","maleToilets":2,"femaleToilets":1,"disabled":true,"diaperTable":false,"emergencyBell":true,"cctv":false,"source":"public","category":"public"},{"id":"202538600000101056","name":"에코타워","lat":37.502123,"lng":126.769815,"roadAddr":"경기도 부천시 원미구 중동로254번길 16(중동)","openHours":"00:00-24:00","maleToilets":3,"femaleToilets":0,"disabled":false,"diaperTable":false,"emergencyBell":false,"cctv":false,"source":"public","category":"public"},{"id":"202538600000101030","name":"부천시선거관리위원회","lat":37.508079,"lng":126.752038,"roadAddr":"경기도 부천시 원미구 상동로117번길 30(상동)","openHours":"09:00-18:00","maleToilets":5,"femaleToilets":2,"disabled":true,"diaperTable":false,"emergencyBell":true,"cctv":false,"source":"public","category":"public"},{"id":"202538600000101108","name":"법조빌딩(스시맨빌딩)","lat":37.490425,"lng":126.756211,"roadAddr":"경기도 부천시 원미구 부일로233번길 45 (상동)","openHours":"00:00-24:00","maleToilets":3,"femaleToilets":2,"disabled":false,"diaperTable":false,"emergencyBell":false,"cctv":true,"source":"public","category":"public"},{"id":"202538600000101377","name":"㈜한석상사 한석제일주유소","lat":37.525043,"lng":126.769829,"roadAddr":"경기도 부천시 오정구 오정로 86(삼정동)","openHours":"05:00-22:00","maleToilets":4,"femaleToilets":1,"disabled":false,"diaperTable":false,"emergencyBell":false,"cctv":false,"source":"public","category":"public"},{"id":"202538600000100866","name":"다산지하공영주차장","lat":37.485809,"lng":126.765702,"roadAddr":"경기도 부천시 소사구 경인로101번길 45(송내동)","openHours":"00:00-24:00","maleToilets":2,"femaleToilets":1,"disabled":false,"diaperTable":false,"emergencyBell":true,"cctv":false,"source":"public","category":"public"},{"id":"202538600000101435","name":"증3동우체국","lat":37.507294,"lng":126.772542,"roadAddr":"경기도 부천시 원미구 계남로 211(중동)","openHours":"09:00-18:00","maleToilets":1,"femaleToilets":1,"disabled":false,"diaperTable":false,"emergencyBell":false,"cctv":false,"source":"public","category":"public"},{"id":"202538600000101040","name":"미라클타워","lat":37.503373,"lng":126.760652,"roadAddr":"경기도 부천시 원미구 석천로177번길 39(중동)","openHours":"00:00-24:00","maleToilets":4,"femaleToilets":2,"disabled":false,"diaperTable":false,"emergencyBell":false,"cctv":true,"source":"public","category":"public"},{"id":"202538600000100994","name":"복사골공원","lat":37.493137,"lng":126.775903,"roadAddr":"경기도 부천시 원미구 장말로293번길 45(중동)","openHours":"00:00-24:00","maleToilets":7,"femaleToilets":3,"disabled":true,"diaperTable":false,"emergencyBell":true,"cctv":false,"source":"public","category":"public"},{"id":"202538600000101105","name":"대명앤스빌2차","lat":37.489888,"lng":126.754712,"roadAddr":"경기도 부천시 원미구 부일로221번길 31(상동)","openHours":"00:00-24:00","maleToilets":3,"femaleToilets":2,"disabled":true,"diaperTable":false,"emergencyBell":false,"cctv":true,"source":"public","category":"public"},{"id":"202538600000101420","name":"중동119안전센터","lat":37.487721,"lng":126.768528,"roadAddr":"경기도 부천시 원미구 부일로 346(중동)","openHours":"00:00-24:00","maleToilets":4,"femaleToilets":0,"disabled":false,"diaperTable":false,"emergencyBell":false,"cctv":false,"source":"public","category":"public"},{"id":"202538600000101190","name":"현대오일뱅크 중동대로셀프주유소","lat":37.515338,"lng":126.76161,"roadAddr":"경기도 부천시 원미구 평천로 639(약대동)","openHours":"00:00-24:00","maleToilets":3,"femaleToilets":1,"disabled":false,"diaperTable":false,"emergencyBell":false,"cctv":false,"source":"public","category":"public"},{"id":"202538600000101007","name":"솔안공원","lat":37.488073,"lng":126.757276,"roadAddr":"경기도 부천시 원미구 부일로 246(상동)","openHours":"00:00-24:00","maleToilets":6,"femaleToilets":2,"disabled":true,"diaperTable":false,"emergencyBell":true,"cctv":false,"source":"public","category":"public"},{"id":"202538600000101093","name":"코스모폴리탄","lat":37.50297,"lng":126.772508,"roadAddr":"경기도 부천시 원미구 길주로 272(중동)","openHours":"00:00-24:00","maleToilets":3,"femaleToilets":2,"disabled":true,"diaperTable":false,"emergencyBell":false,"cctv":false,"source":"public","category":"public"},{"id":"202538600000100988","name":"청실어린이공원","lat":37.494002,"lng":126.769436,"roadAddr":"경기도 부천시 원미구 심중로119번길 18(중동)","openHours":"00:00-24:00","maleToilets":4,"femaleToilets":2,"disabled":true,"diaperTable":false,"emergencyBell":true,"cctv":false,"source":"public","category":"public"},{"id":"202538600000100998","name":"미리내어린이공원","lat":37.499775,"lng":126.77176,"roadAddr":"경기도 부천시 원미구 소향로 218(중동)","openHours":"00:00-24:00","maleToilets":4,"femaleToilets":2,"disabled":true,"diaperTable":false,"emergencyBell":true,"cctv":false,"source":"public","category":"public"},{"id":"202538600000100814","name":"한국만화박물관","lat":37.509073,"lng":126.745634,"roadAddr":"경기도 부천시 원미구 길주로 1(상동)","openHours":"(화~일)09:00-18:00","maleToilets":21,"femaleToilets":24,"disabled":true,"diaperTable":true,"emergencyBell":true,"cctv":false,"source":"public","category":"public"},{"id":"202538600000100917","name":"먹적골어린이공원","lat":37.490871,"lng":126.773201,"roadAddr":"경기도 부천시 원미구 신흥로73번길 75(심곡동)","openHours":"00:00-24:00","maleToilets":2,"femaleToilets":1,"disabled":true,"diaperTable":false,"emergencyBell":true,"cctv":false,"source":"public","category":"public"},{"id":"202538600000101084","name":"파크리움","lat":37.503093,"lng":126.760862,"roadAddr":"경기도 부천시 원미구 석천로169번길 34(중동)","openHours":"00:00-24:00","maleToilets":6,"femaleToilets":3,"disabled":false,"diaperTable":false,"emergencyBell":false,"cctv":false,"source":"public","category":"public"},{"id":"202538600000101204","name":"SK 심곡 self주유소","lat":37.488425,"lng":126.776592,"roadAddr":"경기도 부천시 원미구 신흥로 51(심곡동)","openHours":"00:00-24:00","maleToilets":5,"femaleToilets":3,"disabled":false,"diaperTable":false,"emergencyBell":false,"cctv":false,"source":"public","category":"public"},{"id":"202538600000101062","name":"트리플타워A","lat":37.501934,"lng":126.775996,"roadAddr":"경기도 부천시 원미구 신흥로 205(중동)","openHours":"00:00-24:00","maleToilets":3,"femaleToilets":1,"disabled":true,"diaperTable":false,"emergencyBell":false,"cctv":true,"source":"public","category":"public"},{"id":"202538600000100804","name":"복사골문화센터","lat":37.494465,"lng":126.753975,"roadAddr":"경기도 부천시 원미구 장말로 107(상동)","openHours":"09:00-18:00","maleToilets":41,"femaleToilets":37,"disabled":true,"diaperTable":false,"emergencyBell":false,"cctv":false,"source":"public","category":"public"},{"id":"202538600000101101","name":"드림빌딩","lat":37.504771,"lng":126.766792,"roadAddr":"경기도 부천시 원미구 길주로 219(중동)","openHours":"00:00-24:00","maleToilets":5,"femaleToilets":2,"disabled":true,"diaperTable":false,"emergencyBell":false,"cctv":true,"source":"public","category":"public"},{"id":"202538600000100997","name":"보람어린이공원","lat":37.497253,"lng":126.759656,"roadAddr":"경기도 부천시 원미구 부흥로 151(중동)","openHours":"00:00-24:00","maleToilets":4,"femaleToilets":2,"disabled":true,"diaperTable":false,"emergencyBell":true,"cctv":false,"source":"public","category":"public"},{"id":"202538600000101188","name":"S-OIL 송내드림주유소","lat":37.491409,"lng":126.746836,"roadAddr":"경기도 부천시 원미구 상일로 42(상동)","openHours":"00:00-24:00","maleToilets":13,"femaleToilets":13,"disabled":false,"diaperTable":false,"emergencyBell":false,"cctv":false,"source":"public","category":"public"},{"id":"202538600000100870","name":"부천시보건소","lat":37.494271,"lng":126.780964,"roadAddr":"경기도 부천시 원미구 옥산로10번길 16(중동)","openHours":"09:00-18:00","maleToilets":30,"femaleToilets":15,"disabled":true,"diaperTable":true,"emergencyBell":true,"cctv":false,"source":"public","category":"public"},{"id":"202538600000100792","name":"중동사랑시장 고객지원센터","lat":37.494947,"lng":126.764571,"roadAddr":"경기도 부천시 원미구 부흥로200번길 25(중동)","openHours":"09:00-18:00","maleToilets":5,"femaleToilets":3,"disabled":false,"diaperTable":false,"emergencyBell":false,"cctv":false,"source":"public","category":"public"},{"id":"202538600000101417","name":"부천소방서","lat":37.494012,"lng":126.778053,"roadAddr":"경기도 부천시 원미구 신흥로 115(중동)","openHours":"00:00-24:00","maleToilets":27,"femaleToilets":4,"disabled":true,"diaperTable":true,"emergencyBell":false,"cctv":false,"source":"public","category":"public"},{"id":"202538600000101088","name":"아이엔유 포비스타 오피스텔","lat":37.495049,"lng":126.777836,"roadAddr":"경기도 부천시 원미구 부흥로315번길 14(중동)","openHours":"00:00-24:00","maleToilets":4,"femaleToilets":2,"disabled":true,"diaperTable":false,"emergencyBell":false,"cctv":false,"source":"public","category":"public"},{"id":"202538600000101166","name":"자생한방병원","lat":37.489408,"lng":126.751548,"roadAddr":"경기도 부천시 원미구 부일로191번길 17(상동)","openHours":"00:00-24:00","maleToilets":3,"femaleToilets":1,"disabled":false,"diaperTable":false,"emergencyBell":true,"cctv":false,"source":"public","category":"public"},{"id":"202538600000101414","name":"내동지구대","lat":37.520449,"lng":126.774909,"roadAddr":"경기도 부천시 오정구 신흥로 411(삼정동)","openHours":"00:00-24:00","maleToilets":2,"femaleToilets":1,"disabled":false,"diaperTable":false,"emergencyBell":false,"cctv":false,"source":"public","category":"public"},{"id":"202538600000101233","name":"상3동 행정복지센터","lat":37.508231,"lng":126.750891,"roadAddr":"경기도 부천시 원미구 상동로117번길 48(상동)","openHours":"09:00-18:00","maleToilets":5,"femaleToilets":3,"disabled":true,"diaperTable":false,"emergencyBell":false,"cctv":false,"source":"public","category":"public"},{"id":"202538600000101227","name":"중2동 행정복지센터","lat":37.493977,"lng":126.769901,"roadAddr":"경기도 부천시 원미구 심중로119번길 8(중동)","openHours":"09:00-18:00","maleToilets":5,"femaleToilets":4,"disabled":true,"diaperTable":false,"emergencyBell":true,"cctv":false,"source":"public","category":"public"},{"id":"202538600000101378","name":"㈜삼정주유소","lat":37.519957,"lng":126.769493,"roadAddr":"경기도 부천시 오정구 중동로 447(삼정동)","openHours":"00:00-23:50","maleToilets":4,"femaleToilets":2,"disabled":false,"diaperTable":false,"emergencyBell":false,"cctv":false,"source":"public","category":"public"},{"id":"202538600000101422","name":"상동119안전센터","lat":37.494298,"lng":126.754497,"roadAddr":"경기도 부천시 원미구 장말로 113(상동)","openHours":"00:00-24:00","maleToilets":3,"femaleToilets":1,"disabled":false,"diaperTable":false,"emergencyBell":false,"cctv":false,"source":"public","category":"public"},{"id":"202538600000101049","name":"리파인빌","lat":37.506375,"lng":126.750516,"roadAddr":"경기도 부천시 원미구 길주로 71(상동)","openHours":"00:00-24:00","maleToilets":6,"femaleToilets":2,"disabled":true,"diaperTable":false,"emergencyBell":false,"cctv":false,"source":"public","category":"public"},{"id":"202538600000100819","name":"부천국민체육센터","lat":37.512758,"lng":126.76391,"roadAddr":"경기도 부천시 원미구 석천로 293(중동)","openHours":"06:00-22:00","maleToilets":4,"femaleToilets":3,"disabled":true,"diaperTable":false,"emergencyBell":true,"cctv":false,"source":"public","category":"public"},{"id":"202538600000101401","name":"중동지구대","lat":37.505765,"lng":126.762496,"roadAddr":"경기도 부천시 원미구 석천로 203-16(중동)","openHours":"00:00-24:00","maleToilets":2,"femaleToilets":0,"disabled":true,"diaperTable":false,"emergencyBell":false,"cctv":true,"source":"public","category":"public"},{"id":"202538600000100898","name":"화사랑갈비","lat":37.500867,"lng":126.773846,"roadAddr":"경기도 부천시 원미구 소향로 233(중동)","openHours":"00:00-24:00","maleToilets":7,"femaleToilets":3,"disabled":true,"diaperTable":false,"emergencyBell":false,"cctv":true,"source":"public","category":"public"},{"id":"202538600000101106","name":"우신빌딩","lat":37.490365,"lng":126.755308,"roadAddr":"경기도 부천시 원미구 부일로221번길 46(상동)","openHours":"00:00-24:00","maleToilets":3,"femaleToilets":1,"disabled":true,"diaperTable":false,"emergencyBell":false,"cctv":true,"source":"public","category":"public"},{"id":"202538600000101052","name":"나루빌딩","lat":37.506804,"lng":126.751995,"roadAddr":"경기도 부천시 원미구 길주로77번길 33(상동)","openHours":"06:00-24:00","maleToilets":3,"femaleToilets":2,"disabled":false,"diaperTable":false,"emergencyBell":false,"cctv":false,"source":"public","category":"public"},{"id":"202538600000101048","name":"굿모닝오피스텔","lat":37.505398,"lng":126.74914,"roadAddr":"경기도 부천시 원미구 길주로 64(상동)","openHours":"00:00-24:00","maleToilets":4,"femaleToilets":2,"disabled":false,"diaperTable":false,"emergencyBell":false,"cctv":false,"source":"public","category":"public"},{"id":"202538600000101074","name":"메트로팰리스1 B","lat":37.501413,"lng":126.770245,"roadAddr":"경기도 부천시 원미구 소향로 203(중동)","openHours":"00:00-24:00","maleToilets":2,"femaleToilets":1,"disabled":true,"diaperTable":false,"emergencyBell":false,"cctv":true,"source":"public","category":"public"},{"id":"202538600000101066","name":"위브더스테이트1단지","lat":37.501262,"lng":126.777244,"roadAddr":"경기도 부천시 원미구 신흥로 190(중동)","openHours":"00:00-24:00","maleToilets":9,"femaleToilets":4,"disabled":true,"diaperTable":false,"emergencyBell":false,"cctv":true,"source":"public","category":"public"},{"id":"202538600000100868","name":"부천중앙공원공영주차장","lat":37.500606,"lng":126.763713,"roadAddr":"경기도 부천시 원미구 소향로 162(중동)","openHours":"00:00-24:00","maleToilets":8,"femaleToilets":4,"disabled":true,"diaperTable":true,"emergencyBell":true,"cctv":false,"source":"public","category":"public"},{"id":"202538600000101017","name":"상동도서관","lat":37.490177,"lng":126.744719,"roadAddr":"경기도 부천시 원미구 상이로 12(상동)","openHours":"07:00-22:00","maleToilets":31,"femaleToilets":32,"disabled":true,"diaperTable":false,"emergencyBell":true,"cctv":true,"source":"public","category":"public"},{"id":"202538600000101213","name":"부천터미널소풍","lat":37.504145,"lng":126.756722,"roadAddr":"경기도 부천시 원미구 송내대로 239(상동)","openHours":"04:00-24:00","maleToilets":2,"femaleToilets":1,"disabled":false,"diaperTable":false,"emergencyBell":false,"cctv":false,"source":"public","category":"public"},{"id":"202538600000101167","name":"순천향대학교부천병원","lat":37.498371,"lng":126.762109,"roadAddr":"경기도 부천시 원미구 조마루로 170(중동)","openHours":"00:00-24:00","maleToilets":3,"femaleToilets":2,"disabled":false,"diaperTable":true,"emergencyBell":true,"cctv":false,"source":"public","category":"public"},{"id":"202538600000100981","name":"길주공원","lat":37.507294,"lng":126.772542,"roadAddr":"경기도 부천시 원미구 계남로 211(중동)","openHours":"00:00-24:00","maleToilets":2,"femaleToilets":2,"disabled":true,"diaperTable":false,"emergencyBell":true,"cctv":false,"source":"public","category":"public"},{"id":"202538600000101091","name":"서호빌딩","lat":37.503833,"lng":126.773824,"roadAddr":"경기도 부천시 원미구 길주로 279(중동)","openHours":"00:00-24:00","maleToilets":5,"femaleToilets":2,"disabled":true,"diaperTable":false,"emergencyBell":false,"cctv":true,"source":"public","category":"public"},{"id":"202538600000101212","name":"현대백화점 부천중동점","lat":37.504316,"lng":126.762083,"roadAddr":"경기도 부천시 원미구 길주로 180(중동)","openHours":"00:00-24:00","maleToilets":3,"femaleToilets":1,"disabled":false,"diaperTable":true,"emergencyBell":true,"cctv":true,"source":"public","category":"public"},{"id":"202538600000100983","name":"약대공원","lat":37.511086,"lng":126.767741,"roadAddr":"경기도 부천시 원미구 도약로163번길 12(중동)","openHours":"00:00-24:00","maleToilets":6,"femaleToilets":2,"disabled":true,"diaperTable":false,"emergencyBell":true,"cctv":false,"source":"public","category":"public"},{"id":"202538600000100974","name":"진달래공원","lat":37.509632,"lng":126.75537,"roadAddr":"경기도 부천시 원미구 계남로 57(상동)","openHours":"00:00-24:00","maleToilets":1,"femaleToilets":1,"disabled":true,"diaperTable":false,"emergencyBell":true,"cctv":false,"source":"public","category":"public"},{"id":"202538600000101314","name":"성은빌딩","lat":37.522236,"lng":126.77904,"roadAddr":"경기도 부천시 오정구 삼작로163번길 45(내동)","openHours":"06:00-20:00","maleToilets":2,"femaleToilets":2,"disabled":false,"diaperTable":false,"emergencyBell":false,"cctv":false,"source":"public","category":"public"},{"id":"202538600000101427","name":"오정119안전센터","lat":37.527759,"lng":126.777476,"roadAddr":"경기도 부천시 오정구 신흥로 499(오정동)","openHours":"00:00-24:00","maleToilets":5,"femaleToilets":1,"disabled":true,"diaperTable":false,"emergencyBell":false,"cctv":false,"source":"public","category":"public"},{"id":"202538600000101104","name":"솔라리움A동","lat":37.504943,"lng":126.765389,"roadAddr":"경기도 부천시 원미구 길주로 205(중동)","openHours":"10:30-20:00","maleToilets":5,"femaleToilets":3,"disabled":true,"diaperTable":false,"emergencyBell":true,"cctv":false,"source":"public","category":"public"},{"id":"202538600000100880","name":"동양프라자텔","lat":37.507774,"lng":126.750324,"roadAddr":"경기도 부천시 원미구 상동로117번길 57(상동)","openHours":"00:00-24:00","maleToilets":3,"femaleToilets":2,"disabled":true,"diaperTable":false,"emergencyBell":true,"cctv":true,"source":"public","category":"public"},{"id":"202538600000101211","name":"롯데백화점 중동점","lat":37.502563,"lng":126.775275,"roadAddr":"경기도 부천시 원미구 길주로 300(중동)","openHours":"10:30-20:00","maleToilets":4,"femaleToilets":2,"disabled":false,"diaperTable":false,"emergencyBell":true,"cctv":true,"source":"public","category":"public"},{"id":"202538600000100999","name":"새싹어린이공원","lat":37.492899,"lng":126.770526,"roadAddr":"경기도 부천시 원미구 심중로 110(중동)","openHours":"00:00-24:00","maleToilets":4,"femaleToilets":2,"disabled":true,"diaperTable":false,"emergencyBell":true,"cctv":false,"source":"public","category":"public"},{"id":"202538600000101231","name":"상1동 행정복지센터","lat":37.49184,"lng":126.753168,"roadAddr":"경기도 부천시 원미구 상일로 97(상동)","openHours":"09:00-18:00","maleToilets":2,"femaleToilets":3,"disabled":true,"diaperTable":false,"emergencyBell":true,"cctv":false,"source":"public","category":"public"},{"id":"202538600000100837","name":"삼정종합사회복지관","lat":37.519707,"lng":126.766457,"roadAddr":"경기도 부천시 오정구 삼작로 52(삼정동)","openHours":"(평일)09:00-18:00","maleToilets":14,"femaleToilets":13,"disabled":true,"diaperTable":false,"emergencyBell":true,"cctv":false,"source":"public","category":"public"},{"id":"202538600000101068","name":"대림아크로텔","lat":37.499083,"lng":126.776748,"roadAddr":"경기도 부천시 원미구 신흥로 173(중동)","openHours":"00:00-24:00","maleToilets":4,"femaleToilets":2,"disabled":true,"diaperTable":false,"emergencyBell":true,"cctv":true,"source":"public","category":"public"},{"id":"202538600000100885","name":"법조타운","lat":37.490938,"lng":126.756734,"roadAddr":"경기도 부천시 원미구 상일로 130(상동)","openHours":"00:00-24:00","maleToilets":4,"femaleToilets":2,"disabled":false,"diaperTable":false,"emergencyBell":true,"cctv":true,"source":"public","category":"public"},{"id":"202538600000100987","name":"계남공원","lat":37.506552,"lng":126.759196,"roadAddr":"경기도 부천시 원미구 송내대로 262(중동)","openHours":"00:00-24:00","maleToilets":2,"femaleToilets":2,"disabled":true,"diaperTable":false,"emergencyBell":true,"cctv":false,"source":"public","category":"public"},{"id":"202538600000101076","name":"루미아트클래식","lat":37.501486,"lng":126.769445,"roadAddr":"경기도 부천시 원미구 소향로 195(중동)","openHours":"00:00-24:00","maleToilets":5,"femaleToilets":2,"disabled":true,"diaperTable":false,"emergencyBell":false,"cctv":true,"source":"public","category":"public"},{"id":"202538600000101207","name":"뉴코아부천점","lat":37.504145,"lng":126.756722,"roadAddr":"경기도 부천시 원미구 송내대로 239(상동)","openHours":"10:00-21:00","maleToilets":5,"femaleToilets":3,"disabled":true,"diaperTable":true,"emergencyBell":false,"cctv":false,"source":"public","category":"public"},{"id":"202538600000101189","name":"서해상동주유소","lat":37.517961,"lng":126.760532,"roadAddr":"경기도 부천시 원미구 송내대로 389(상동)","openHours":"00:00-24:00","maleToilets":6,"femaleToilets":4,"disabled":false,"diaperTable":false,"emergencyBell":false,"cctv":false,"source":"public","category":"public"},{"id":"202538600000101009","name":"산우물어린이공원","lat":37.486206,"lng":126.772592,"roadAddr":"경기도 부천시 원미구 부일로380번길 28(중동)","openHours":"00:00-24:00","maleToilets":2,"femaleToilets":1,"disabled":false,"diaperTable":false,"emergencyBell":true,"cctv":false,"source":"public","category":"public"},{"id":"202538600000101102","name":"에스티마오피스텔","lat":37.505378,"lng":126.762276,"roadAddr":"경기도 부천시 원미구 길주로 177(중동)","openHours":"00:00-24:00","maleToilets":2,"femaleToilets":1,"disabled":true,"diaperTable":false,"emergencyBell":false,"cctv":true,"source":"public","category":"public"},{"id":"202538600000101012","name":"태양어린이공원","lat":37.48973,"lng":126.759405,"roadAddr":"경기도 부천시 원미구 석천로25번길 9(상동)","openHours":"00:00-24:00","maleToilets":4,"femaleToilets":2,"disabled":true,"diaperTable":false,"emergencyBell":true,"cctv":false,"source":"public","category":"public"},{"id":"202538600000100851","name":"신중동역","lat":37.50298,"lng":126.776491,"roadAddr":"경기도 부천시 원미구 길주로 지하 314(중동)","openHours":"05:00-24:00","maleToilets":9,"femaleToilets":14,"disabled":true,"diaperTable":true,"emergencyBell":true,"cctv":true,"source":"public","category":"public"},{"id":"202538600000101000","name":"한마음어린이공원","lat":37.494132,"lng":126.77752,"roadAddr":"경기도 부천시 원미구 부흥로 314(중동)","openHours":"00:00-24:00","maleToilets":2,"femaleToilets":1,"disabled":true,"diaperTable":false,"emergencyBell":true,"cctv":false,"source":"public","category":"public"},{"id":"202538600000100897","name":"위브더스테이트7단지","lat":37.497651,"lng":126.77812,"roadAddr":"경기도 부천시 원미구 신흥로 150(중동)","openHours":"00:00-24:00","maleToilets":7,"femaleToilets":3,"disabled":true,"diaperTable":false,"emergencyBell":true,"cctv":true,"source":"public","category":"public"},{"id":"202538600000100794","name":"부천상동시장 고객지원센터","lat":37.492363,"lng":126.764269,"roadAddr":"경기도 부천시 원미구 석천로60번길 51(상동)","openHours":"09:00-18:00","maleToilets":6,"femaleToilets":6,"disabled":false,"diaperTable":false,"emergencyBell":false,"cctv":false,"source":"public","category":"public"},{"id":"202538600000101055","name":"메트로팰리스3차","lat":37.502046,"lng":126.770445,"roadAddr":"경기도 부천시 원미구 중동로254번길 28(중동)","openHours":"00:00-24:00","maleToilets":5,"femaleToilets":1,"disabled":true,"diaperTable":false,"emergencyBell":false,"cctv":false,"source":"public","category":"public"},{"id":"202538600000101113","name":"덕산빌딩","lat":37.489326,"lng":126.759692,"roadAddr":"경기도 부천시 원미구 석천로21번길 7(상동)","openHours":"09:00-18:00","maleToilets":2,"femaleToilets":2,"disabled":false,"diaperTable":false,"emergencyBell":false,"cctv":false,"source":"public","category":"public"},{"id":"202538600000101127","name":"다온하브","lat":37.486895,"lng":126.777916,"roadAddr":"경기도 부천시 원미구 부일로 429(심곡동, 다온하브)","openHours":"00:00-24:00","maleToilets":5,"femaleToilets":4,"disabled":true,"diaperTable":false,"emergencyBell":false,"cctv":false,"source":"public","category":"public"},{"id":"202538600000101434","name":"부천우체국","lat":37.502908,"lng":126.759404,"roadAddr":"경기도 부천시 원미구 소향로 103(중동)","openHours":"09:00-18:00","maleToilets":4,"femaleToilets":2,"disabled":true,"diaperTable":false,"emergencyBell":true,"cctv":false,"source":"public","category":"public"},{"id":"202538600000101210","name":"이마트 중동점","lat":37.504065,"lng":126.763949,"roadAddr":"경기도 부천시 원미구 석천로 188(중동)","openHours":"00:00-24:00","maleToilets":7,"femaleToilets":3,"disabled":true,"diaperTable":true,"emergencyBell":true,"cctv":false,"source":"public","category":"public"},{"id":"202538600000101226","name":"중1동 행정복지센터","lat":37.497882,"lng":126.771414,"roadAddr":"경기도 부천시 원미구 조마루로 250(중동)","openHours":"09:00-18:00","maleToilets":2,"femaleToilets":1,"disabled":true,"diaperTable":false,"emergencyBell":true,"cctv":false,"source":"public","category":"public"},{"id":"202538600000100963","name":"고라개어린이공원","lat":37.527084,"lng":126.772296,"roadAddr":"경기도 부천시 오정구 오정로95번길 35(삼정동)","openHours":"00:00-24:00","maleToilets":4,"femaleToilets":4,"disabled":true,"diaperTable":true,"emergencyBell":true,"cctv":false,"source":"public","category":"public"},{"id":"202538600000100834","name":"신중동종합사회복지관","lat":37.509514,"lng":126.767123,"roadAddr":"경기도 부천시 원미구 도약로 146(중동)","openHours":"(평일)09:00-18:00","maleToilets":4,"femaleToilets":4,"disabled":true,"diaperTable":false,"emergencyBell":false,"cctv":false,"source":"public","category":"public"},{"id":"202538600000101358","name":"동일석유㈜ 부천충전소","lat":37.526134,"lng":126.769816,"roadAddr":"경기도 부천시 오정구 석천로 445(삼정동)","openHours":"00:00-24:00","maleToilets":4,"femaleToilets":2,"disabled":false,"diaperTable":false,"emergencyBell":false,"cctv":false,"source":"public","category":"public"},{"id":"202538600000101082","name":"디아뜨1 B","lat":37.502675,"lng":126.760427,"roadAddr":"경기도 부천시 원미구 소향로 113(중동)","openHours":"00:00-24:00","maleToilets":3,"femaleToilets":2,"disabled":true,"diaperTable":false,"emergencyBell":false,"cctv":true,"source":"public","category":"public"},{"id":"202538600000100975","name":"상동호수공원","lat":37.506124,"lng":126.744163,"roadAddr":"경기도 부천시 원미구 길주로 16(상동)","openHours":"00:00-24:00","maleToilets":16,"femaleToilets":12,"disabled":true,"diaperTable":false,"emergencyBell":true,"cctv":false,"source":"public","category":"public"},{"id":"202538600000101094","name":"중동대우마이빌2","lat":37.503022,"lng":126.772051,"roadAddr":"경기도 부천시 원미구 길주로 270(중동)","openHours":"00:00-24:00","maleToilets":5,"femaleToilets":3,"disabled":true,"diaperTable":false,"emergencyBell":false,"cctv":true,"source":"public","category":"public"},{"id":"202538600000100882","name":"대야하이빌3차","lat":37.504539,"lng":126.749897,"roadAddr":"경기도 부천시 원미구 소향로13번길 14-11(상동)","openHours":"00:00-24:00","maleToilets":6,"femaleToilets":3,"disabled":true,"diaperTable":false,"emergencyBell":true,"cctv":true,"source":"public","category":"public"},{"id":"202538600000101168","name":"스마튼병원","lat":37.505019,"lng":126.776089,"roadAddr":"경기도 부천시 원미구 신흥로 240(중동)","openHours":"00:00-24:00","maleToilets":2,"femaleToilets":6,"disabled":true,"diaperTable":false,"emergencyBell":false,"cctv":false,"source":"public","category":"public"},{"id":"202538600000101008","name":"상동어린이공원","lat":37.490411,"lng":126.761028,"roadAddr":"경기도 부천시 원미구 부일로275번길 48(상동)","openHours":"00:00-24:00","maleToilets":2,"femaleToilets":1,"disabled":false,"diaperTable":true,"emergencyBell":true,"cctv":false,"source":"public","category":"public"},{"id":"202538600000100995","name":"소향공원","lat":37.497599,"lng":126.772882,"roadAddr":"경기도 부천시 원미구 조마루로 264(중동)","openHours":"00:00-24:00","maleToilets":5,"femaleToilets":2,"disabled":true,"diaperTable":false,"emergencyBell":true,"cctv":false,"source":"public","category":"public"},{"id":"202538600000101576","name":"부천교육지원청","lat":37.507612,"lng":126.773551,"roadAddr":"경기도 부천시 계남로 219(중동)","openHours":"미개방","maleToilets":72,"femaleToilets":73,"disabled":true,"diaperTable":false,"emergencyBell":false,"cctv":false,"source":"public","category":"public"},{"id":"202538600000100798","name":"부천로보파크","lat":37.51761,"lng":126.764051,"roadAddr":"경기도 부천시 원미구 평천로 655(약대동)","openHours":"00:00-24:00","maleToilets":12,"femaleToilets":6,"disabled":true,"diaperTable":false,"emergencyBell":true,"cctv":false,"source":"public","category":"public"},{"id":"202538600000100992","name":"연꽃어린이공원","lat":37.497028,"lng":126.781935,"roadAddr":"경기도 부천시 원미구 옥산로 38(중동)","openHours":"00:00-24:00","maleToilets":4,"femaleToilets":1,"disabled":true,"diaperTable":false,"emergencyBell":true,"cctv":false,"source":"public","category":"public"},{"id":"202538600000101061","name":"연안빌딩","lat":37.506238,"lng":126.775747,"roadAddr":"경기도 부천시 원미구 신흥로 252(중동)","openHours":"00:00-24:00","maleToilets":4,"femaleToilets":2,"disabled":false,"diaperTable":false,"emergencyBell":false,"cctv":false,"source":"public","category":"public"},{"id":"202538600000101155","name":"약대한방병원","lat":37.512421,"lng":126.774697,"roadAddr":"경기도 부천시 원미구 신흥로 321(약대동)","openHours":"09:00-20:00","maleToilets":4,"femaleToilets":3,"disabled":true,"diaperTable":false,"emergencyBell":true,"cctv":false,"source":"public","category":"public"},{"id":"202538600000101050","name":"부건프라자","lat":37.507485,"lng":126.752384,"roadAddr":"경기도 부천시 원미구 길주로77번길 61(상동)","openHours":"00:00-24:00","maleToilets":4,"femaleToilets":1,"disabled":true,"diaperTable":false,"emergencyBell":false,"cctv":false,"source":"public","category":"public"},{"id":"202538600000101128","name":"프리존빌딩","lat":37.485941,"lng":126.780194,"roadAddr":"경기도 부천시 원미구 부일로 448(심곡동)","openHours":"00:00-24:00","maleToilets":7,"femaleToilets":2,"disabled":true,"diaperTable":false,"emergencyBell":false,"cctv":true,"source":"public","category":"public"},{"id":"202538600000100978","name":"원천공원","lat":37.48956,"lng":126.744571,"roadAddr":"경기도 부천시 원미구 상이로 10(상동)","openHours":"00:00-24:00","maleToilets":2,"femaleToilets":1,"disabled":true,"diaperTable":false,"emergencyBell":true,"cctv":false,"source":"public","category":"public"},{"id":"202538600000100813","name":"웹툰융합센터","lat":37.510256,"lng":126.744332,"roadAddr":"경기도 부천시 원미구 길주로 17(상동)","openHours":"00:00-24:00","maleToilets":60,"femaleToilets":36,"disabled":true,"diaperTable":false,"emergencyBell":true,"cctv":false,"source":"public","category":"public"},{"id":"202538600000101433","name":"중2동우체국","lat":37.497853,"lng":126.771814,"roadAddr":"경기도 부천시 원미구 조마루로 254(중동)","openHours":"09:00-18:00","maleToilets":1,"femaleToilets":1,"disabled":true,"diaperTable":false,"emergencyBell":false,"cctv":false,"source":"public","category":"public"},{"id":"202538600000101001","name":"덕유어린이공원","lat":37.508455,"lng":126.767291,"roadAddr":"경기도 부천시 원미구 계남로 161(중동)","openHours":"00:00-24:00","maleToilets":4,"femaleToilets":2,"disabled":true,"diaperTable":false,"emergencyBell":true,"cctv":false,"source":"public","category":"public"},{"id":"202538600000101003","name":"중흥어린이공원","lat":37.506909,"lng":126.772281,"roadAddr":"경기도 부천시 원미구 계남로 212(중동)","openHours":"00:00-24:00","maleToilets":4,"femaleToilets":2,"disabled":true,"diaperTable":false,"emergencyBell":true,"cctv":false,"source":"public","category":"public"},{"id":"202538600000101036","name":"상록그린힐","lat":37.506135,"lng":126.75769,"roadAddr":"경기도 부천시 원미구 길주로 137(상동)","openHours":"00:00-24:00","maleToilets":7,"femaleToilets":4,"disabled":false,"diaperTable":false,"emergencyBell":false,"cctv":true,"source":"public","category":"public"},{"id":"202538600000101090","name":"블래스랜드(업무용빌딩)","lat":37.503339,"lng":126.777855,"roadAddr":"경기도 부천시 원미구 길주로 317(중동)","openHours":"00:00-24:00","maleToilets":5,"femaleToilets":4,"disabled":false,"diaperTable":false,"emergencyBell":false,"cctv":true,"source":"public","category":"public"},{"id":"202538600000100996","name":"꿈마을어린이공원","lat":37.498735,"lng":126.781975,"roadAddr":"경기도 부천시 원미구 조마루로 343(중동)","openHours":"00:00-24:00","maleToilets":4,"femaleToilets":2,"disabled":true,"diaperTable":false,"emergencyBell":true,"cctv":false,"source":"public","category":"public"},{"id":"202538600000100881","name":"상동프라자","lat":37.507113,"lng":126.752975,"roadAddr":"경기도 부천시 원미구 상동로 109(상동)","openHours":"00:00-24:00","maleToilets":5,"femaleToilets":2,"disabled":true,"diaperTable":false,"emergencyBell":false,"cctv":true,"source":"public","category":"public"},{"id":"202538600000100989","name":"살말어린이공원","lat":37.511912,"lng":126.767624,"roadAddr":"경기도 부천시 원미구 수도로 8(약대동)","openHours":"00:00-24:00","maleToilets":2,"femaleToilets":2,"disabled":true,"diaperTable":false,"emergencyBell":true,"cctv":false,"source":"public","category":"public"},{"id":"202538600000100919","name":"비둘기어린이공원","lat":37.488259,"lng":126.775025,"roadAddr":"경기도 부천시 원미구 신흥로45번길 36(심곡동)","openHours":"00:00-24:00","maleToilets":2,"femaleToilets":1,"disabled":true,"diaperTable":false,"emergencyBell":true,"cctv":false,"source":"public","category":"public"},{"id":"202538600000100986","name":"안중근공원","lat":37.504443,"lng":126.759038,"roadAddr":"경기도 부천시 원미구 송내대로 236(중동)","openHours":"00:00-24:00","maleToilets":5,"femaleToilets":2,"disabled":true,"diaperTable":false,"emergencyBell":true,"cctv":false,"source":"public","category":"public"},{"id":"202538600000101085","name":"현대센트럴파크","lat":37.502971,"lng":126.76161,"roadAddr":"경기도 부천시 원미구 석천로169번길 22(중동)","openHours":"00:00-24:00","maleToilets":3,"femaleToilets":2,"disabled":true,"diaperTable":false,"emergencyBell":false,"cctv":false,"source":"public","category":"public"},{"id":"202538600000101079","name":"대우마이빌 센트럴파크","lat":37.502281,"lng":126.763406,"roadAddr":"경기도 부천시 원미구 소향로 139(중동)","openHours":"00:00-24:00","maleToilets":7,"femaleToilets":3,"disabled":true,"diaperTable":false,"emergencyBell":false,"cctv":true,"source":"public","category":"public"},{"id":"202538600000100864","name":"강남시장공영주차장","lat":37.507518,"lng":126.77917,"roadAddr":"경기도 부천시 원미구 정주로14번길 27(도당동)","openHours":"00:00-24:00","maleToilets":3,"femaleToilets":2,"disabled":false,"diaperTable":true,"emergencyBell":true,"cctv":false,"source":"public","category":"public"},{"id":"202538600000101115","name":"메리츠화재","lat":37.490447,"lng":126.754864,"roadAddr":"경기도 부천시 원미구 송내대로 80(상동)","openHours":"06:00-24:00","maleToilets":7,"femaleToilets":2,"disabled":true,"diaperTable":false,"emergencyBell":false,"cctv":true,"source":"public","category":"public"},{"id":"202538600000101054","name":"신일아르디세","lat":37.501688,"lng":126.772358,"roadAddr":"경기도 부천시 원미구 중동로254번길 64(중동)","openHours":"00:00-24:00","maleToilets":4,"femaleToilets":3,"disabled":false,"diaperTable":false,"emergencyBell":false,"cctv":false,"source":"public","category":"public"},{"id":"202538600000101053","name":"로데오타운","lat":37.50444,"lng":126.750895,"roadAddr":"경기도 부천시 원미구 소향로37번길 13-20(상동)","openHours":"미개방","maleToilets":3,"femaleToilets":2,"disabled":true,"diaperTable":false,"emergencyBell":false,"cctv":false,"source":"public","category":"public"},{"id":"202538600000101373","name":"S-OIL 약대주유소","lat":37.516089,"lng":126.774844,"roadAddr":"경기도 부천시 오정구 신흥로 365(내동)","openHours":"00:00-23:50","maleToilets":2,"femaleToilets":1,"disabled":false,"diaperTable":false,"emergencyBell":false,"cctv":false,"source":"public","category":"public"}]