[{"id":"202431400000103854","name":"5번 화장실(가족정원 물놀이장 맞은 편)","lat":37.520519,"lng":126.878708,"roadAddr":"서울특별시 양천구 신정동 871-2","openHours":"상시","maleToilets":4,"femaleToilets":2,"disabled":true,"diaperTable":true,"emergencyBell":true,"cctv":true,"managerTel":"0226203584","source":"public","category":"public"},{"id":"202431400000103853","name":"4번 화장실(해마루 축구장)","lat":37.518376,"lng":126.87769,"roadAddr":"서울특별시 양천구 안양천로 812","openHours":"상시","maleToilets":4,"femaleToilets":3,"disabled":true,"diaperTable":false,"emergencyBell":true,"cctv":true,"managerTel":"0226203584","source":"public","category":"public"},{"id":"202431400000104093","name":"7번 화장실(영학정)","lat":37.527108,"lng":126.879449,"roadAddr":"서울특별시 양천구 안양천로 914","openHours":"상시","maleToilets":4,"femaleToilets":3,"disabled":true,"diaperTable":false,"emergencyBell":true,"cctv":true,"managerTel":"0226203584","source":"public","category":"public"},{"id":"202431400000104029","name":"신목동주유소","lat":37.519489,"lng":126.871071,"roadAddr":"서울특별시 양천구 목동동로10길 13(신정동)","jibunAddr":"서울특별시 양천구 신정2동 296-5","openHours":"상시","maleToilets":2,"femaleToilets":1,"disabled":false,"diaperTable":false,"emergencyBell":true,"cctv":true,"managerTel":"0226203426","source":"public","category":"public"},{"id":"202431400000103690","name":"현대오일뱅크㈜직영 양천\n셀프주유소","lat":37.510473,"lng":126.871266,"roadAddr":"서울특별시 양천구 목동로 17(신정동)","openHours":"상시","maleToilets":3,"femaleToilets":1,"disabled":false,"diaperTable":false,"emergencyBell":false,"cctv":false,"managerTel":"0226204874","source":"public","category":"public"},{"id":"202431400000103940","name":"복지신정충전소","lat":37.507101,"lng":126.870996,"roadAddr":"서울특별시 양천구 안양천로 669","openHours":"정시","maleToilets":2,"femaleToilets":1,"disabled":false,"diaperTable":false,"emergencyBell":false,"cctv":false,"managerTel":"0226204874","source":"public","category":"public"},{"id":"202431400000103653","name":"갈산문화예술센터","lat":37.510762,"lng":126.870207,"roadAddr":"서울특별시 양천구 목동남로 106","openHours":"정시","maleToilets":5,"femaleToilets":5,"disabled":true,"diaperTable":true,"emergencyBell":true,"cctv":false,"managerTel":"0226204913","source":"public","category":"public"},{"id":"202431400000103784","name":"기독교방송","lat":37.528232,"lng":126.874991,"roadAddr":"서울특별시 양천구 목동서로 159-1","jibunAddr":"서울특별시 양천구 목1동 917-1","openHours":"상시","maleToilets":6,"femaleToilets":2,"disabled":true,"diaperTable":false,"emergencyBell":true,"cctv":true,"managerTel":"0226203426","source":"public","category":"public"},{"id":"202431400000103863","name":"목동공영주차장","lat":37.528132,"lng":126.876521,"roadAddr":"서울특별시 양천구 목동동로 298","jibunAddr":"서울특별시 양천구 목동 915","openHours":"정시","maleToilets":5,"femaleToilets":3,"disabled":false,"diaperTable":false,"emergencyBell":true,"cctv":true,"managerTel":"07049539827","source":"public","category":"public"},{"id":"202431400000103705","name":"신목종합사회복지관 (시립시설)","lat":37.517226,"lng":126.876467,"roadAddr":"서울특별시 양천구 신목로 5","openHours":"정시","maleToilets":6,"femaleToilets":4,"disabled":false,"diaperTable":false,"emergencyBell":true,"cctv":false,"managerTel":"0226437222","source":"public","category":"public"},{"id":"202431400000103851","name":"2번 화장실(오금인라인장)","lat":37.513023,"lng":126.875852,"roadAddr":"서울특별시 양천구 안양천로 750","openHours":"상시","maleToilets":4,"femaleToilets":3,"disabled":true,"diaperTable":true,"emergencyBell":true,"cctv":true,"managerTel":"0226203584","source":"public","category":"public"},{"id":"202631400000100001","name":"한국중소벤처기업유통원(행복한백화점)","lat":37.529211,"lng":126.875985,"roadAddr":"서울특별시 양천구 목동동로 309, 행복한백화점((주)한국중소벤처기업유통원) (목동)","jibunAddr":"서울특별시 양천구 목동 917-6 행복한백화점((주)한국중소벤처기업유통원)","openHours":"정시","maleToilets":5,"femaleToilets":2,"disabled":false,"diaperTable":false,"emergencyBell":false,"cctv":true,"managerTel":"0266789560","source":"public","category":"public"},{"id":"202431400000104166","name":"신정동주유소","lat":37.506393,"lng":126.871123,"roadAddr":"서울특별시 양천구 안양천로 663(신정동)","openHours":"정시","maleToilets":2,"femaleToilets":1,"disabled":false,"diaperTable":false,"emergencyBell":false,"cctv":false,"managerTel":"0226204874","source":"public","category":"public"},{"id":"202431400000103833","name":"오목근린공원","lat":37.527588,"lng":126.87364,"roadAddr":"서울특별시 양천구 목동서로 159-2","openHours":"상시","maleToilets":3,"femaleToilets":2,"disabled":true,"diaperTable":true,"emergencyBell":true,"cctv":false,"managerTel":"0226203584","source":"public","category":"public"},{"id":"202431400000104087","name":"1번 화장실(오금교 입구)","lat":37.510115,"lng":126.87318,"roadAddr":"서울특별시 양천구 안양천로 710","openHours":"상시","maleToilets":3,"femaleToilets":3,"disabled":true,"diaperTable":true,"emergencyBell":true,"cctv":false,"managerTel":"0226203584","source":"public","category":"public"},{"id":"202431400000103805","name":"현대41타워","lat":37.528178,"lng":126.875772,"roadAddr":"서울특별시 양천구 목동동로 293","jibunAddr":"서울특별시 양천구 목1동 917-9","openHours":"상시","maleToilets":7,"femaleToilets":4,"disabled":false,"diaperTable":false,"emergencyBell":false,"cctv":true,"managerTel":"0226203426","source":"public","category":"public"},{"id":"202431400000104180","name":"신목종합사회복지관 교육관 (시립시설)","lat":37.523495,"lng":126.877818,"roadAddr":"서울특별시 양천구 목동동로 12길 59","openHours":"정시","maleToilets":3,"femaleToilets":1,"disabled":false,"diaperTable":false,"emergencyBell":false,"cctv":false,"managerTel":"0221337388","source":"public","category":"public"},{"id":"202431400000103691","name":"㈜부흥에너지 평화주유소","lat":37.505883,"lng":126.870705,"roadAddr":"서울특별시 양천구 안양천로 657(신정동)","openHours":"정시","maleToilets":4,"femaleToilets":1,"disabled":false,"diaperTable":false,"emergencyBell":false,"cctv":false,"managerTel":"0226204874","source":"public","category":"public"},{"id":"202431400000103618","name":"6번 화장실(오목교 출구)","lat":37.524686,"lng":126.878187,"roadAddr":"서울특별시 양천구 안양천로 884","openHours":"상시","maleToilets":4,"femaleToilets":3,"disabled":true,"diaperTable":false,"emergencyBell":true,"cctv":true,"managerTel":"0226203584","source":"public","category":"public"},{"id":"202431400000104041","name":"현대드림타워","lat":37.527486,"lng":126.871567,"roadAddr":"서울특별시 양천구 목동동로 233-1","jibunAddr":"서울특별시 양천구 목1동 923-14","openHours":"상시","maleToilets":5,"femaleToilets":2,"disabled":false,"diaperTable":false,"emergencyBell":true,"cctv":true,"managerTel":"0226203426","source":"public","category":"public"},{"id":"202431400000104054","name":"서울청년센터 양천","lat":37.524591,"lng":126.877308,"roadAddr":"서울특별시 양천구 오목로 359","openHours":"정시","maleToilets":3,"femaleToilets":2,"disabled":true,"diaperTable":false,"emergencyBell":false,"cctv":false,"managerTel":"0220628826","source":"public","category":"public"},{"id":"202431400000104028","name":"현승빌딩","lat":37.51866,"lng":126.873958,"roadAddr":"서울특별시 양천구 신목로 34(신정동)","jibunAddr":"서울특별시 양천구 신정2동 128-113","openHours":"상시","maleToilets":4,"femaleToilets":2,"disabled":false,"diaperTable":false,"emergencyBell":true,"cctv":true,"managerTel":"0226203426","source":"public","category":"public"},{"id":"202431400000104045","name":"대한민국예술인센터","lat":37.527075,"lng":126.870746,"roadAddr":"서울특별시 양천구 목동서로 225","jibunAddr":"서울특별시 양천구 목1동 923-6","openHours":"상시","maleToilets":8,"femaleToilets":6,"disabled":true,"diaperTable":true,"emergencyBell":true,"cctv":true,"managerTel":"0226203426","source":"public","category":"public"},{"id":"202431400000103615","name":"3번 화장실(야구장)","lat":37.516224,"lng":126.877439,"roadAddr":"서울특별시 양천구 안양천로 788","openHours":"상시","maleToilets":4,"femaleToilets":3,"disabled":true,"diaperTable":false,"emergencyBell":true,"cctv":true,"managerTel":"0226203584","source":"public","category":"public"},{"id":"202431400000103809","name":"썬텍씨티빌딩","lat":37.524158,"lng":126.876272,"roadAddr":"서울특별시 양천구 오목로 350","jibunAddr":"서울특별시 양천구 목1동 404-177","openHours":"상시","maleToilets":2,"femaleToilets":2,"disabled":false,"diaperTable":false,"emergencyBell":false,"cctv":true,"managerTel":"0226203426","source":"public","category":"public"},{"id":"202431400000103717","name":"오목교역(5)","lat":37.52445,"lng":126.875355,"roadAddr":"서울특별시 양천구 오목로 지하 342 오목교역","openHours":"정시","maleToilets":8,"femaleToilets":5,"disabled":false,"diaperTable":true,"emergencyBell":true,"cctv":true,"managerTel":"0263115211","source":"public","category":"public"},{"id":"202431600000100561","name":"현대오일뱅크(주)직영 신구로주유소","lat":37.497553,"lng":126.892394,"roadAddr":"서울특별시 구로구 가마산로 293(구로동)","jibunAddr":"서울특별시 구로구 구로동","openHours":"상시","maleToilets":4,"femaleToilets":2,"disabled":false,"diaperTable":false,"emergencyBell":false,"cctv":false,"managerTel":"028590051","source":"public","category":"public"},{"id":"202431600000100556","name":"대성산업(주) 디큐브주유소","lat":37.507712,"lng":126.886868,"roadAddr":"서울특별시 구로구 경인로 650(신도림동)","jibunAddr":"서울특별시 구로구 신도림동","openHours":"상시","maleToilets":2,"femaleToilets":1,"disabled":false,"diaperTable":false,"emergencyBell":false,"cctv":false,"managerTel":"0226337188","source":"public","category":"public"},{"id":"202431600000100662","name":"도림천역(2)","lat":37.514284,"lng":126.882972,"roadAddr":"서울특별시 구로구 신도림동 323-16 도림천역","openHours":"상시","maleToilets":6,"femaleToilets":1,"disabled":true,"diaperTable":true,"emergencyBell":true,"cctv":true,"managerTel":"0261102441","source":"public","category":"public"},{"id":"202431600000100616","name":"인라인스케이트 제방","lat":37.508819,"lng":126.875303,"roadAddr":"서울특별시 구로구 안양천동자전거길 599","openHours":"상시","maleToilets":2,"femaleToilets":2,"disabled":false,"diaperTable":false,"emergencyBell":true,"cctv":false,"managerTel":"028602892","source":"public","category":"public"},{"id":"202431600000100655","name":"구로구청","lat":37.495505,"lng":126.888292,"roadAddr":"서울특별시 구로구 가마산로 245","openHours":"상시","maleToilets":96,"femaleToilets":82,"disabled":true,"diaperTable":false,"emergencyBell":false,"cctv":false,"managerTel":"028603371","source":"public","category":"public"},{"id":"202431600000100536","name":"홈플러스(신도림점) 지하1층","lat":37.509662,"lng":126.887986,"roadAddr":"서울특별시 구로구 경인로 661 (신도림동, 신도림1차푸르지오)","jibunAddr":"서울특별시 구로구 신도림동","openHours":"상시","maleToilets":10,"femaleToilets":10,"disabled":true,"diaperTable":true,"emergencyBell":true,"cctv":false,"managerTel":"0226772127","source":"public","category":"public"},{"id":"202431600000100592","name":"NC 신구로점 5층-2","lat":37.50116,"lng":126.882773,"roadAddr":"서울특별시 구로구 구로중앙로152","jibunAddr":"서울특별시 구로구 구로동","openHours":"상시","maleToilets":0,"femaleToilets":3,"disabled":false,"diaperTable":false,"emergencyBell":false,"cctv":true,"managerTel":"0269232000","source":"public","category":"public"},{"id":"202431600000100603","name":"현대백화점 디큐브시티 3층-1","lat":37.508123,"lng":126.888213,"roadAddr":"서울특별시 구로구 경인로 662 (신도림동, 디큐브시티)","jibunAddr":"서울특별시 구로구 신도림동","openHours":"상시","maleToilets":7,"femaleToilets":4,"disabled":true,"diaperTable":false,"emergencyBell":true,"cctv":true,"managerTel":"0222109960","source":"public","category":"public"},{"id":"202431600000100595","name":"NC 신구로점 7층-1","lat":37.50116,"lng":126.882773,"roadAddr":"서울특별시 구로구 구로중앙로152","jibunAddr":"서울특별시 구로구 구로동","openHours":"상시","maleToilets":4,"femaleToilets":2,"disabled":true,"diaperTable":true,"emergencyBell":false,"cctv":true,"managerTel":"0269232000","source":"public","category":"public"},{"id":"202431600000100590","name":"NC 신구로점 4층-2","lat":37.50116,"lng":126.882773,"roadAddr":"서울특별시 구로구 구로중앙로152","jibunAddr":"서울특별시 구로구 구로동","openHours":"상시","maleToilets":4,"femaleToilets":0,"disabled":false,"diaperTable":false,"emergencyBell":false,"cctv":true,"managerTel":"0269232000","source":"public","category":"public"},{"id":"202431600000100674","name":"구로시장","lat":37.489268,"lng":126.885483,"roadAddr":"서울특별시 구로구 구로동로22길 18","openHours":"상시","maleToilets":6,"femaleToilets":5,"disabled":false,"diaperTable":false,"emergencyBell":true,"cctv":false,"managerTel":"028602892","source":"public","category":"public"},{"id":"202431600000100582","name":"NC 신구로점 지하1층-1","lat":37.50116,"lng":126.882773,"roadAddr":"서울특별시 구로구 구로중앙로152","jibunAddr":"서울특별시 구로구 구로동","openHours":"상시","maleToilets":6,"femaleToilets":3,"disabled":false,"diaperTable":false,"emergencyBell":false,"cctv":true,"managerTel":"0269232000","source":"public","category":"public"},{"id":"202431600000100617","name":"애경어린이공원","lat":37.50012,"lng":126.88466,"roadAddr":"서울특별시 구로구 구로중앙로32가길 19","openHours":"상시","maleToilets":2,"femaleToilets":1,"disabled":true,"diaperTable":false,"emergencyBell":true,"cctv":false,"managerTel":"028602892","source":"public","category":"public"},{"id":"202431600000100593","name":"NC 신구로점 6층-1","lat":37.50116,"lng":126.882773,"roadAddr":"서울특별시 구로구 구로중앙로152","jibunAddr":"서울특별시 구로구 구로동","openHours":"상시","maleToilets":5,"femaleToilets":3,"disabled":false,"diaperTable":false,"emergencyBell":false,"cctv":true,"managerTel":"0269232000","source":"public","category":"public"},{"id":"202431600000100691","name":"신도림생활체육관","lat":37.513483,"lng":126.883884,"roadAddr":"서울특별시 구로구 경인로67길 133 (신도림동, 신도림동복지관)","openHours":"상시","maleToilets":20,"femaleToilets":24,"disabled":true,"diaperTable":false,"emergencyBell":false,"cctv":false,"managerTel":"0218999912","source":"public","category":"public"},{"id":"202431600000100539","name":"현대백화점 디큐브시티 지하2층-3","lat":37.508123,"lng":126.888213,"roadAddr":"서울특별시 구로구 경인로 662 (신도림동, 디큐브시티)","jibunAddr":"서울특별시 구로구 신도림동","openHours":"상시","maleToilets":7,"femaleToilets":6,"disabled":false,"diaperTable":true,"emergencyBell":true,"cctv":true,"managerTel":"0222109960","source":"public","category":"public"},{"id":"202431600000100661","name":"신도림역(2)1번출구 밖","lat":37.508739,"lng":126.891109,"roadAddr":"서울특별시 구로구 신도림동 460-26 2호선 신도림역","openHours":"상시","maleToilets":12,"femaleToilets":13,"disabled":true,"diaperTable":true,"emergencyBell":true,"cctv":true,"managerTel":"0261102341","source":"public","category":"public"},{"id":"202431600000100620","name":"구일역 제방","lat":37.495091,"lng":126.871032,"roadAddr":"서울특별시 구로구 안양천동자전거길 761","openHours":"상시","maleToilets":2,"femaleToilets":2,"disabled":false,"diaperTable":false,"emergencyBell":true,"cctv":false,"managerTel":"028602892","source":"public","category":"public"},{"id":"202431600000100611","name":"구로4동 경로당","lat":37.487038,"lng":126.88624,"roadAddr":"서울특별시 구로구 구로동로8길 27","openHours":"상시","maleToilets":3,"femaleToilets":1,"disabled":false,"diaperTable":false,"emergencyBell":true,"cctv":false,"managerTel":"028602892","source":"public","category":"public"},{"id":"202431600000100638","name":"신도림역(1)4번출구 안","lat":37.50877,"lng":126.891081,"roadAddr":"서울특별시 구로구 새말로 117-21","openHours":"상시","maleToilets":11,"femaleToilets":8,"disabled":true,"diaperTable":true,"emergencyBell":true,"cctv":true,"managerTel":"0226393349","source":"public","category":"public"},{"id":"202431600000100538","name":"현대백화점 디큐브시티 지하2층-1","lat":37.508123,"lng":126.888213,"roadAddr":"서울특별시 구로구 경인로 662 (신도림동, 디큐브시티)","jibunAddr":"서울특별시 구로구 신도림동","openHours":"상시","maleToilets":7,"femaleToilets":5,"disabled":false,"diaperTable":false,"emergencyBell":false,"cctv":true,"managerTel":"0222109960","source":"public","category":"public"},{"id":"202431600000100634","name":"신도림 오페라하우스","lat":37.508118,"lng":126.890871,"roadAddr":"서울특별시 구로구 새말로 107-32","openHours":"상시","maleToilets":4,"femaleToilets":3,"disabled":true,"diaperTable":false,"emergencyBell":true,"cctv":false,"managerTel":"028602892","source":"public","category":"public"},{"id":"202431600000100635","name":"솔길어린이공원","lat":37.489184,"lng":126.880479,"roadAddr":"서울특별시 구로구 벚꽃로 392","openHours":"상시","maleToilets":4,"femaleToilets":4,"disabled":true,"diaperTable":true,"emergencyBell":true,"cctv":false,"managerTel":"028602892","source":"public","category":"public"},{"id":"202431600000100643","name":"구로4동 주민센터","lat":37.491577,"lng":126.889149,"roadAddr":"서울특별시 구로구 구로동ㄷ로 28길 94","openHours":"상시","maleToilets":9,"femaleToilets":9,"disabled":false,"diaperTable":false,"emergencyBell":false,"cctv":false,"managerTel":"0226207504","source":"public","category":"public"},{"id":"202431600000100696","name":"안양천 가족화장실","lat":37.505115,"lng":126.873689,"roadAddr":"서울특별시 구로구 안양천동자전거길 643-1","openHours":"상시","maleToilets":0,"femaleToilets":0,"disabled":true,"diaperTable":false,"emergencyBell":true,"cctv":false,"managerTel":"028602892","source":"public","category":"public"},{"id":"202431600000100614","name":"거리공원 2구역","lat":37.502283,"lng":126.889515,"roadAddr":"서울특별시 구로구 공원로 62","openHours":"상시","maleToilets":8,"femaleToilets":6,"disabled":true,"diaperTable":true,"emergencyBell":true,"cctv":false,"managerTel":"028602892","source":"public","category":"public"},{"id":"202431600000100606","name":"현대백화점 디큐브시티 5층-1","lat":37.508123,"lng":126.888213,"roadAddr":"서울특별시 구로구 경인로 662 (신도림동, 디큐브시티)","jibunAddr":"서울특별시 구로구 신도림동","openHours":"상시","maleToilets":7,"femaleToilets":6,"disabled":false,"diaperTable":true,"emergencyBell":true,"cctv":true,"managerTel":"0222109960","source":"public","category":"public"},{"id":"202431600000100547","name":"개성면옥","lat":37.492903,"lng":126.883811,"roadAddr":"서울특별시 구로구 가마산로 204","jibunAddr":"서울특별시 구로구 구로동","openHours":"상시","maleToilets":1,"femaleToilets":1,"disabled":false,"diaperTable":false,"emergencyBell":false,"cctv":false,"managerTel":"028692760","source":"public","category":"public"},{"id":"202431600000100651","name":"구로3동 주민센터","lat":37.487347,"lng":126.89033,"roadAddr":"서울특별시 구로구 디지털로 31길 109","openHours":"상시","maleToilets":5,"femaleToilets":4,"disabled":false,"diaperTable":false,"emergencyBell":false,"cctv":false,"managerTel":"0226207422","source":"public","category":"public"},{"id":"202431600000100619","name":"족구장 제방","lat":37.503141,"lng":126.872849,"roadAddr":"서울특별시 구로구 안양천동자전거길 667","openHours":"상시","maleToilets":3,"femaleToilets":2,"disabled":false,"diaperTable":false,"emergencyBell":true,"cctv":false,"managerTel":"028602892","source":"public","category":"public"},{"id":"202431600000100596","name":"NC 신구로점 7층-2","lat":37.50116,"lng":126.882773,"roadAddr":"서울특별시 구로구 구로중앙로152","jibunAddr":"서울특별시 구로구 구로동","openHours":"상시","maleToilets":0,"femaleToilets":3,"disabled":false,"diaperTable":false,"emergencyBell":false,"cctv":true,"managerTel":"0269232000","source":"public","category":"public"},{"id":"202431600000100645","name":"구로시설관리공단","lat":37.489894,"lng":126.886565,"roadAddr":"서울특별시 구로구 구로동로26길 54","openHours":"상시","maleToilets":5,"femaleToilets":4,"disabled":false,"diaperTable":false,"emergencyBell":false,"cctv":false,"managerTel":"028500926","source":"public","category":"public"},{"id":"202431600000100558","name":"구로주유소","lat":37.491018,"lng":126.883528,"roadAddr":"서울특별시 구로구 구로동로 137(구로동)","jibunAddr":"서울특별시 구로구 구로동","openHours":"상시","maleToilets":2,"femaleToilets":2,"disabled":false,"diaperTable":false,"emergencyBell":false,"cctv":false,"managerTel":"028571251","source":"public","category":"public"},{"id":"202431600000100690","name":"남구로시장","lat":37.489894,"lng":126.886565,"roadAddr":"서울특별시 구로구 구로동로26길 54","openHours":"상시","maleToilets":6,"femaleToilets":5,"disabled":true,"diaperTable":true,"emergencyBell":true,"cctv":false,"managerTel":"028602892","source":"public","category":"public"},{"id":"202431600000100537","name":"현대백화점 디큐브시티 지하2층-2","lat":37.508123,"lng":126.888213,"roadAddr":"서울특별시 구로구 경인로 662 (신도림동, 디큐브시티)","jibunAddr":"서울특별시 구로구 신도림동","openHours":"상시","maleToilets":5,"femaleToilets":5,"disabled":false,"diaperTable":true,"emergencyBell":true,"cctv":true,"managerTel":"0222109960","source":"public","category":"public"},{"id":"202431600000100551","name":"한우가","lat":37.502352,"lng":126.888463,"roadAddr":"서울특별시 구로구 공원로 67","jibunAddr":"서울특별시 구로구 구로동","openHours":"상시","maleToilets":4,"femaleToilets":2,"disabled":false,"diaperTable":false,"emergencyBell":false,"cctv":false,"managerTel":"028519292","source":"public","category":"public"},{"id":"202431600000100560","name":"㈜한미석유 구로그린주유소","lat":37.496422,"lng":126.888321,"roadAddr":"서울특별시 구로구 구로중앙로 76(구로동)","jibunAddr":"서울특별시 구로구 구로동","openHours":"상시","maleToilets":4,"femaleToilets":2,"disabled":false,"diaperTable":false,"emergencyBell":false,"cctv":false,"managerTel":"028615189","source":"public","category":"public"},{"id":"202431600000100613","name":"거리공원 1구역","lat":37.499747,"lng":126.8916,"roadAddr":"서울특별시 구로구 공원로 28","openHours":"상시","maleToilets":8,"femaleToilets":6,"disabled":true,"diaperTable":true,"emergencyBell":true,"cctv":false,"managerTel":"028602892","source":"public","category":"public"},{"id":"202431600000100627","name":"안양천 물놀이장","lat":37.505206,"lng":126.873715,"roadAddr":"서울특별시 구로구 안양천동자전거길 643","openHours":"상시","maleToilets":5,"femaleToilets":6,"disabled":true,"diaperTable":false,"emergencyBell":true,"cctv":false,"managerTel":"028602892","source":"public","category":"public"},{"id":"202431600000100602","name":"현대백화점 디큐브시티 3층-2","lat":37.508123,"lng":126.888213,"roadAddr":"서울특별시 구로구 경인로 662 (신도림동, 디큐브시티)","jibunAddr":"서울특별시 구로구 신도림동","openHours":"상시","maleToilets":7,"femaleToilets":4,"disabled":false,"diaperTable":false,"emergencyBell":true,"cctv":true,"managerTel":"0222109960","source":"public","category":"public"},{"id":"202431600000100587","name":"NC 신구로점 3층-1","lat":37.50116,"lng":126.882773,"roadAddr":"서울특별시 구로구 구로중앙로152","jibunAddr":"서울특별시 구로구 구로동","openHours":"상시","maleToilets":5,"femaleToilets":5,"disabled":false,"diaperTable":false,"emergencyBell":false,"cctv":true,"managerTel":"0269232000","source":"public","category":"public"},{"id":"202431600000100652","name":"신도림동주민센터","lat":37.50778,"lng":126.880595,"roadAddr":"서울특별시 구로구 신도림로 40","openHours":"상시","maleToilets":6,"femaleToilets":3,"disabled":true,"diaperTable":false,"emergencyBell":false,"cctv":false,"managerTel":"0226207105","source":"public","category":"public"},{"id":"202431600000100699","name":"거리공원 입구","lat":37.498406,"lng":126.893161,"roadAddr":"서울특별시 구로구 도림천로 295","openHours":"상시","maleToilets":2,"femaleToilets":2,"disabled":true,"diaperTable":false,"emergencyBell":false,"cctv":false,"managerTel":"028602892","source":"public","category":"public"},{"id":"202431600000100686","name":"화원어린이공원","lat":37.497918,"lng":126.880441,"roadAddr":"서울특별시 구로구 벚꽃로 490","openHours":"상시","maleToilets":2,"femaleToilets":1,"disabled":false,"diaperTable":false,"emergencyBell":true,"cctv":false,"managerTel":"028602892","source":"public","category":"public"},{"id":"202431600000100618","name":"고척교 입구","lat":37.49966,"lng":126.871689,"roadAddr":"서울특별시 구로구 안양천동자전거길 701","openHours":"상시","maleToilets":3,"femaleToilets":3,"disabled":false,"diaperTable":false,"emergencyBell":true,"cctv":false,"managerTel":"028602892","source":"public","category":"public"},{"id":"202431600000100575","name":"한일가스산업(주)","lat":37.501877,"lng":126.877745,"roadAddr":"서울특별시 구로구 구로동600-6","jibunAddr":"서울특별시 구로구 구로동","openHours":"상시","maleToilets":4,"femaleToilets":1,"disabled":false,"diaperTable":false,"emergencyBell":false,"cctv":false,"managerTel":"0226752616","source":"public","category":"public"},{"id":"202431600000100612","name":"남구로역 공중화장실","lat":37.490838,"lng":126.893174,"roadAddr":"서울특별시 구로구 도림로 91(구로동)","openHours":"상시","maleToilets":11,"femaleToilets":2,"disabled":false,"diaperTable":false,"emergencyBell":true,"cctv":false,"managerTel":"028602892","source":"public","category":"public"},{"id":"202431600000100562","name":"동아주유소","lat":37.490838,"lng":126.893174,"roadAddr":"서울특별시 구로구 도림로 91(구로동)","jibunAddr":"서울특별시 구로구 구로동","openHours":"상시","maleToilets":2,"femaleToilets":2,"disabled":false,"diaperTable":false,"emergencyBell":false,"cctv":false,"managerTel":"028551282","source":"public","category":"public"},{"id":"202431600000100636","name":"구로역(1)3번출구","lat":37.502435,"lng":126.881492,"roadAddr":"서울특별시 구로구 구로중앙로 174","openHours":"상시","maleToilets":8,"femaleToilets":3,"disabled":false,"diaperTable":false,"emergencyBell":true,"cctv":true,"managerTel":"0226393259","source":"public","category":"public"},{"id":"202431600000100647","name":"구로5동 주민센터","lat":37.500103,"lng":126.889338,"roadAddr":"서울특별시 구로구 구로중앙로28길 66","openHours":"상시","maleToilets":2,"femaleToilets":1,"disabled":false,"diaperTable":false,"emergencyBell":false,"cctv":false,"managerTel":"0226207604","source":"public","category":"public"},{"id":"202431600000100601","name":"현대백화점 디큐브시티 2층-1","lat":37.508123,"lng":126.888213,"roadAddr":"서울특별시 구로구 경인로 662 (신도림동, 디큐브시티)","jibunAddr":"서울특별시 구로구 신도림동","openHours":"상시","maleToilets":2,"femaleToilets":5,"disabled":false,"diaperTable":false,"emergencyBell":true,"cctv":true,"managerTel":"0222109960","source":"public","category":"public"},{"id":"202431600000100583","name":"NC 신구로점 지하1층-2","lat":37.50116,"lng":126.882773,"roadAddr":"서울특별시 구로구 구로중앙로152","jibunAddr":"서울특별시 구로구 구로동","openHours":"상시","maleToilets":5,"femaleToilets":5,"disabled":false,"diaperTable":true,"emergencyBell":false,"cctv":true,"managerTel":"0269232000","source":"public","category":"public"},{"id":"202431600000100687","name":"구로3동 동산빌라앞","lat":37.486298,"lng":126.888914,"roadAddr":"서울특별시 구로구 디지털로27라길 37","openHours":"상시","maleToilets":2,"femaleToilets":2,"disabled":false,"diaperTable":false,"emergencyBell":true,"cctv":false,"managerTel":"028602892","source":"public","category":"public"},{"id":"202431600000100644","name":"구로2동 주민센터","lat":37.49132,"lng":126.883399,"roadAddr":"서울특별시 구로구 구로동로141","openHours":"상시","maleToilets":6,"femaleToilets":5,"disabled":true,"diaperTable":false,"emergencyBell":false,"cctv":false,"managerTel":"0226207305","source":"public","category":"public"},{"id":"202431600000100677","name":"좌안파크골프장","lat":37.50429,"lng":126.870805,"roadAddr":"서울특별시 구로구 안양천로 642","openHours":"상시","maleToilets":4,"femaleToilets":4,"disabled":false,"diaperTable":false,"emergencyBell":true,"cctv":false,"managerTel":"028602892","source":"public","category":"public"},{"id":"202431600000100600","name":"현대백화점 디큐브시티 2층-2","lat":37.508123,"lng":126.888213,"roadAddr":"서울특별시 구로구 경인로 662 (신도림동, 디큐브시티)","jibunAddr":"서울특별시 구로구 신도림동","openHours":"상시","maleToilets":4,"femaleToilets":3,"disabled":false,"diaperTable":true,"emergencyBell":true,"cctv":true,"managerTel":"0222109960","source":"public","category":"public"},{"id":"202431600000100585","name":"NC 신구로점 2층-1","lat":37.50116,"lng":126.882773,"roadAddr":"서울특별시 구로구 구로중앙로152","jibunAddr":"서울특별시 구로구 구로동","openHours":"상시","maleToilets":5,"femaleToilets":3,"disabled":false,"diaperTable":true,"emergencyBell":false,"cctv":true,"managerTel":"0269232000","source":"public","category":"public"},{"id":"202431600000100584","name":"NC 신구로점 1층","lat":37.50116,"lng":126.882773,"roadAddr":"서울특별시 구로구 구로중앙로152","jibunAddr":"서울특별시 구로구 구로동","openHours":"상시","maleToilets":7,"femaleToilets":3,"disabled":true,"diaperTable":false,"emergencyBell":true,"cctv":true,"managerTel":"0269232000","source":"public","category":"public"},{"id":"202431600000100637","name":"신도림역(1)4번출구 밖","lat":37.50877,"lng":126.891081,"roadAddr":"서울특별시 구로구 새말로 117-21","openHours":"상시","maleToilets":9,"femaleToilets":8,"disabled":true,"diaperTable":true,"emergencyBell":true,"cctv":true,"managerTel":"0226393349","source":"public","category":"public"},{"id":"202431600000100607","name":"현대백화점 디큐브시티 6층","lat":37.508123,"lng":126.888213,"roadAddr":"서울특별시 구로구 경인로 662 (신도림동, 디큐브시티)","jibunAddr":"서울특별시 구로구 신도림동","openHours":"상시","maleToilets":5,"femaleToilets":4,"disabled":false,"diaperTable":false,"emergencyBell":true,"cctv":true,"managerTel":"0222109960","source":"public","category":"public"},{"id":"202431600000100550","name":"서울축산정육식당","lat":37.501021,"lng":126.889644,"roadAddr":"서울특별시 구로구 공원로 47","jibunAddr":"서울특별시 구로구 구로동","openHours":"상시","maleToilets":6,"femaleToilets":5,"disabled":false,"diaperTable":false,"emergencyBell":false,"cctv":false,"managerTel":"028545445","source":"public","category":"public"},{"id":"202431600000100564","name":"신성주유소","lat":37.495311,"lng":126.882396,"roadAddr":"서울특별시 구로구 구로동로 187(구로동)","jibunAddr":"서울특별시 구로구 구로동","openHours":"상시","maleToilets":3,"femaleToilets":1,"disabled":false,"diaperTable":false,"emergencyBell":false,"cctv":false,"managerTel":"028665189","source":"public","category":"public"},{"id":"202431600000100605","name":"현대백화점 디큐브시티 5층-2","lat":37.508123,"lng":126.888213,"roadAddr":"서울특별시 구로구 경인로 662 (신도림동, 디큐브시티)","jibunAddr":"서울특별시 구로구 신도림동","openHours":"상시","maleToilets":7,"femaleToilets":5,"disabled":false,"diaperTable":false,"emergencyBell":true,"cctv":true,"managerTel":"0222109960","source":"public","category":"public"},{"id":"202431600000100591","name":"NC 신구로점 5층-1","lat":37.50116,"lng":126.882773,"roadAddr":"서울특별시 구로구 구로중앙로152","jibunAddr":"서울특별시 구로구 구로동","openHours":"상시","maleToilets":6,"femaleToilets":3,"disabled":false,"diaperTable":true,"emergencyBell":false,"cctv":true,"managerTel":"0269232000","source":"public","category":"public"},{"id":"202431600000100639","name":"구로문화재단","lat":37.497486,"lng":126.889603,"roadAddr":"서울특별시 구로구 가마산로 25길 33","openHours":"상시","maleToilets":8,"femaleToilets":7,"disabled":false,"diaperTable":false,"emergencyBell":false,"cctv":false,"managerTel":"0220291799","source":"public","category":"public"},{"id":"202431600000100599","name":"현대백화점 디큐브시티1층","lat":37.508123,"lng":126.888213,"roadAddr":"서울특별시 구로구 경인로 662 (신도림동, 디큐브시티)","jibunAddr":"서울특별시 구로구 신도림동","openHours":"상시","maleToilets":5,"femaleToilets":8,"disabled":false,"diaperTable":true,"emergencyBell":true,"cctv":true,"managerTel":"0222109960","source":"public","category":"public"},{"id":"202431600000100646","name":"고척2동주민센터","lat":37.493542,"lng":126.888698,"roadAddr":"서울특별시 구로구 구로중앙로15길 22","openHours":"상시","maleToilets":5,"femaleToilets":4,"disabled":false,"diaperTable":false,"emergencyBell":false,"cctv":false,"managerTel":"0226207911","source":"public","category":"public"},{"id":"202431600000100594","name":"NC 신구로점 6층-2","lat":37.50116,"lng":126.882773,"roadAddr":"서울특별시 구로구 구로중앙로152","jibunAddr":"서울특별시 구로구 구로동","openHours":"상시","maleToilets":0,"femaleToilets":3,"disabled":false,"diaperTable":false,"emergencyBell":false,"cctv":true,"managerTel":"0269232000","source":"public","category":"public"},{"id":"202431600000100586","name":"NC 신구로점 2층-2","lat":37.50116,"lng":126.882773,"roadAddr":"서울특별시 구로구 구로중앙로152","jibunAddr":"서울특별시 구로구 구로동","openHours":"상시","maleToilets":0,"femaleToilets":3,"disabled":false,"diaperTable":false,"emergencyBell":false,"cctv":true,"managerTel":"0269232000","source":"public","category":"public"},{"id":"202431600000100689","name":"구로리 어린이공원","lat":37.490416,"lng":126.891594,"roadAddr":"서울특별시 구로구 구로중앙로 13","openHours":"상시","maleToilets":7,"femaleToilets":6,"disabled":true,"diaperTable":true,"emergencyBell":true,"cctv":false,"managerTel":"028602892","source":"public","category":"public"},{"id":"202431600000100529","name":"황토생고기집","lat":37.494248,"lng":126.888169,"roadAddr":"서울특별시 구로구 구로중앙로19길 19","jibunAddr":"서울특별시 구로구 구로동","openHours":"상시","maleToilets":2,"femaleToilets":1,"disabled":false,"diaperTable":false,"emergencyBell":false,"cctv":false,"source":"public","category":"public"},{"id":"202431600000100694","name":"구로보건소","lat":37.500103,"lng":126.889338,"roadAddr":"서울특별시 구로구 구로중앙로 28길 66","openHours":"상시","maleToilets":13,"femaleToilets":12,"disabled":true,"diaperTable":false,"emergencyBell":false,"cctv":false,"managerTel":"028603275","source":"public","category":"public"},{"id":"202431600000100621","name":"뱀쇠다리옆","lat":37.489219,"lng":126.872195,"roadAddr":"서울특별시 구로구 안양천동자전거길 807","openHours":"상시","maleToilets":3,"femaleToilets":3,"disabled":true,"diaperTable":false,"emergencyBell":true,"cctv":false,"managerTel":"028602892","source":"public","category":"public"},{"id":"202431600000100608","name":"테크노마트 지하2층","lat":37.507044,"lng":126.890227,"roadAddr":"서울특별시 구로구 새말로 97 (구로동, 신도림테크노마트)","jibunAddr":"서울특별시 구로구 구로동","openHours":"상시","maleToilets":13,"femaleToilets":13,"disabled":true,"diaperTable":true,"emergencyBell":true,"cctv":true,"managerTel":"0267151120","source":"public","category":"public"},{"id":"202431600000100598","name":"현대백화점 디큐브시티 지하1층-1","lat":37.508123,"lng":126.888213,"roadAddr":"서울특별시 구로구 경인로 662 (신도림동, 디큐브시티)","jibunAddr":"서울특별시 구로구 신도림동","openHours":"상시","maleToilets":9,"femaleToilets":5,"disabled":false,"diaperTable":false,"emergencyBell":true,"cctv":true,"managerTel":"0222109960","source":"public","category":"public"},{"id":"202431600000100597","name":"현대백화점 디큐브시티 지하1층-2","lat":37.508123,"lng":126.888213,"roadAddr":"서울특별시 구로구 경인로 662 (신도림동, 디큐브시티)","jibunAddr":"서울특별시 구로구 신도림동","openHours":"상시","maleToilets":6,"femaleToilets":5,"disabled":false,"diaperTable":true,"emergencyBell":true,"cctv":true,"managerTel":"0222109960","source":"public","category":"public"},{"id":"202431600000100615","name":"C구장(축구장) 제방","lat":37.514165,"lng":126.880047,"roadAddr":"서울특별시 구로구 안양천동자전거길 525","openHours":"상시","maleToilets":2,"femaleToilets":2,"disabled":false,"diaperTable":false,"emergencyBell":true,"cctv":false,"managerTel":"028602892","source":"public","category":"public"},{"id":"202431600000100656","name":"구로구의회 및 구로아트밸리예술극장","lat":37.496558,"lng":126.888975,"roadAddr":"서울특별시 구로구 가마산로25길 9-24 (구로동, 구로구의회)","openHours":"상시","maleToilets":39,"femaleToilets":27,"disabled":false,"diaperTable":false,"emergencyBell":false,"cctv":false,"managerTel":"028602899","source":"public","category":"public"},{"id":"202431600000100660","name":"신도림역(2)1번출구 안","lat":37.508739,"lng":126.891109,"roadAddr":"서울특별시 구로구 신도림동 460-26 2호선 신도림역","openHours":"상시","maleToilets":12,"femaleToilets":13,"disabled":true,"diaperTable":true,"emergencyBell":true,"cctv":true,"managerTel":"0261102341","source":"public","category":"public"},{"id":"202431600000100557","name":"SK구로주유소","lat":37.493706,"lng":126.87218,"roadAddr":"서울특별시 구로구 구일로 94(구로동)","jibunAddr":"서울특별시 구로구 구로동","openHours":"상시","maleToilets":3,"femaleToilets":1,"disabled":false,"diaperTable":false,"emergencyBell":false,"cctv":false,"managerTel":"028685758","source":"public","category":"public"},{"id":"202431600000100604","name":"현대백화점 디큐브시티 4층","lat":37.508123,"lng":126.888213,"roadAddr":"서울특별시 구로구 경인로 662 (신도림동, 디큐브시티)","jibunAddr":"서울특별시 구로구 신도림동","openHours":"상시","maleToilets":7,"femaleToilets":6,"disabled":false,"diaperTable":true,"emergencyBell":true,"cctv":true,"managerTel":"0222109960","source":"public","category":"public"},{"id":"202431600000100648","name":"구로1동 주민센터","lat":37.49304,"lng":126.875788,"roadAddr":"서울특별시 구로구 구일로4길 57","openHours":"상시","maleToilets":4,"femaleToilets":3,"disabled":false,"diaperTable":false,"emergencyBell":false,"cctv":false,"managerTel":"0226207203","source":"public","category":"public"},{"id":"202431600000100563","name":"구인주유소","lat":37.502454,"lng":126.879754,"roadAddr":"서울특별시 구로구 경인로 558(구로동)","jibunAddr":"서울특별시 구로구 구로동","openHours":"상시","maleToilets":3,"femaleToilets":1,"disabled":false,"diaperTable":false,"emergencyBell":false,"cctv":false,"managerTel":"0226775010","source":"public","category":"public"},{"id":"202431600000100589","name":"NC 신구로점 4층-1","lat":37.50116,"lng":126.882773,"roadAddr":"서울특별시 구로구 구로중앙로152","jibunAddr":"서울특별시 구로구 구로동","openHours":"상시","maleToilets":5,"femaleToilets":5,"disabled":false,"diaperTable":false,"emergencyBell":false,"cctv":true,"managerTel":"0269232000","source":"public","category":"public"},{"id":"202431600000100659","name":"대림역(2)","lat":37.493432,"lng":126.8948,"roadAddr":"서울특별시 구로구 구로동 1204 대림역(2호선)","openHours":"상시","maleToilets":13,"femaleToilets":8,"disabled":true,"diaperTable":true,"emergencyBell":true,"cctv":true,"managerTel":"0261102331","source":"public","category":"public"},{"id":"202431600000100588","name":"NC 신구로점 3층-2","lat":37.50116,"lng":126.882773,"roadAddr":"서울특별시 구로구 구로중앙로152","jibunAddr":"서울특별시 구로구 구로동","openHours":"상시","maleToilets":0,"femaleToilets":3,"disabled":false,"diaperTable":false,"emergencyBell":false,"cctv":true,"managerTel":"0269232000","source":"public","category":"public"},{"id":"202431600000100548","name":"광진빌딩","lat":37.494814,"lng":126.888677,"roadAddr":"서울특별시 구로구 가마산로 250","jibunAddr":"서울특별시 구로구 구로동","openHours":"상시","maleToilets":5,"femaleToilets":2,"disabled":false,"diaperTable":false,"emergencyBell":false,"cctv":false,"source":"public","category":"public"},{"id":"202431600000100628","name":"도림교옆","lat":37.512002,"lng":126.888632,"roadAddr":"서울특별시 구로구 도림천서자전거길 158","openHours":"상시","maleToilets":3,"femaleToilets":3,"disabled":true,"diaperTable":false,"emergencyBell":true,"cctv":false,"managerTel":"028602892","source":"public","category":"public"},{"id":"202431600000100555","name":"은산빌딩","lat":37.501756,"lng":126.877243,"roadAddr":"서울특별시 구로구 경인로 53길 8","jibunAddr":"서울특별시 구로구 구로동","openHours":"상시","maleToilets":5,"femaleToilets":3,"disabled":true,"diaperTable":false,"emergencyBell":false,"cctv":false,"managerTel":"0226752611","source":"public","category":"public"},{"id":"202431600000100673","name":"구로역(1)1번출구","lat":37.502435,"lng":126.881492,"roadAddr":"서울특별시 구로구 구로중앙로 174","openHours":"상시","maleToilets":8,"femaleToilets":2,"disabled":false,"diaperTable":false,"emergencyBell":true,"cctv":true,"managerTel":"0226393259","source":"public","category":"public"},{"id":"202031800000104782","name":"서울복지병원 화장실(1층)","lat":37.49335,"lng":126.898142,"roadAddr":"서울특별시 영등포구 도림로 144 1층","openHours":"09:00~18:00","maleToilets":4,"femaleToilets":2,"disabled":false,"diaperTable":false,"emergencyBell":false,"cctv":false,"managerTel":"028450777","source":"public","category":"public"},{"id":"202031800000104642","name":"영등포구청 본관 1층 화장실","lat":37.525963,"lng":126.896367,"roadAddr":"영등포구 당산로 123(당산동3가, 영등포구청)","jibunAddr":"영등포구 당산동3가 385-1 영등포구청","openHours":"24시간","maleToilets":7,"femaleToilets":7,"disabled":true,"diaperTable":true,"emergencyBell":true,"cctv":true,"managerTel":"0226703318","source":"public","category":"public"},{"id":"202031800000104618","name":"리빙관 지하2층","lat":37.51719,"lng":126.905567,"roadAddr":"서울특별시 영등포구 영중로 9(영등포동19가, 신세계백화점)","openHours":"11:00~20:00","maleToilets":0,"femaleToilets":4,"disabled":false,"diaperTable":true,"emergencyBell":true,"cctv":false,"managerTel":"0226391041","source":"public","category":"public"},{"id":"202031800000104825","name":"영등포로타리","lat":37.517905,"lng":126.905843,"roadAddr":"서울특별시 영등포구 영중로 지하 20 (영등포동3가, 영등포로터리지하도상가)","openHours":"05:00~12:00","maleToilets":7,"femaleToilets":4,"disabled":false,"diaperTable":true,"emergencyBell":true,"cctv":false,"managerTel":"0222906539","source":"public","category":"public"},{"id":"202031800000104775","name":"한강성심병원(본관1층)","lat":37.523646,"lng":126.90952,"roadAddr":"서울특별시 영등포구 국회대로56길 18 (영등포동7가, 한강성심병원)","openHours":"09:00~18:00","maleToilets":6,"femaleToilets":3,"disabled":true,"diaperTable":true,"emergencyBell":true,"cctv":false,"managerTel":"0226395013","source":"public","category":"public"},{"id":"202331800000100008","name":"신길4동 주민센터 1층 화장실","lat":37.508451,"lng":126.911358,"roadAddr":"서울특별시 영등포구 신길로42길 1, 신길4동 공공복합청사 1층 (신길동)","jibunAddr":"서울특별시 영등포구 신길동 209-102 신길4동 공공복합청사","openHours":"09:00~18:00","maleToilets":4,"femaleToilets":3,"disabled":true,"diaperTable":false,"emergencyBell":true,"cctv":false,"managerTel":"0226701285","source":"public","category":"public"},{"id":"202031800000104787","name":"대림성모병원 1층화장실","lat":37.49069,"lng":126.907167,"roadAddr":"서울특별시 영등포구 시흥대로 657 (대림동, 대림성모병원)","openHours":"09:00~18:00","maleToilets":4,"femaleToilets":3,"disabled":true,"diaperTable":false,"emergencyBell":true,"cctv":true,"managerTel":"028299000","source":"public","category":"public"},{"id":"202031800000104619","name":"도림시장 화장실","lat":37.509896,"lng":126.898454,"roadAddr":"서울특별시 영등포구 도영로 50(도림동,도림시장)","openHours":"24시간","maleToilets":3,"femaleToilets":3,"disabled":true,"diaperTable":false,"emergencyBell":false,"cctv":true,"managerTel":"028467747","source":"public","category":"public"},{"id":"202031800000104649","name":"센터플러스빌딩","lat":37.512064,"lng":126.896895,"roadAddr":"서울특별시 영등포구 경인로82길 3-4","jibunAddr":"서울특별시 영등포구문래동 1가 39","openHours":"07:00~22:00","maleToilets":6,"femaleToilets":3,"disabled":false,"diaperTable":false,"emergencyBell":true,"cctv":true,"managerTel":"0221643200","source":"public","category":"public"},{"id":"202031800000100067","name":"롯데백화점 신관 문화센터","lat":37.515668,"lng":126.907666,"roadAddr":"서울특별시 영등포구 경인로 846(영등포동, 영등포민자역사)","openHours":"10:30~20:00","maleToilets":4,"femaleToilets":3,"disabled":false,"diaperTable":false,"emergencyBell":false,"cctv":false,"managerTel":"0226708832","source":"public","category":"public"},{"id":"202031800000104611","name":"패션관 2층","lat":37.51719,"lng":126.905567,"roadAddr":"서울특별시 영등포구 영중로 9(영등포동12가, 신세계백화점)","openHours":"11:00~20:00","maleToilets":2,"femaleToilets":3,"disabled":false,"diaperTable":true,"emergencyBell":false,"cctv":false,"managerTel":"0226391041","source":"public","category":"public"},{"id":"202331800000100002","name":"구로세무서 공중화장실","lat":37.51362,"lng":126.89947,"roadAddr":"서울특별시 영등포구 경인로 778, 구로세무서 (문래동1가)","jibunAddr":"서울특별시 영등포구 문래동1가 23-1 구로세무서","openHours":"정시(09:00~18:00)","maleToilets":18,"femaleToilets":7,"disabled":true,"diaperTable":false,"emergencyBell":false,"cctv":false,"managerTel":"0226307244","source":"public","category":"public"},{"id":"202031800000104623","name":"영등포역지하도상가 화장실","lat":37.516463,"lng":126.906659,"roadAddr":"서울특별시 영등포구 경인로 지하 843(영등포동3가,영등포역지하도상가)","openHours":"09:00~22:30","maleToilets":6,"femaleToilets":13,"disabled":true,"diaperTable":true,"emergencyBell":true,"cctv":true,"managerTel":"0222906558","source":"public","category":"public"},{"id":"202231800000100027","name":"양평역 화장실(1)","lat":37.525512,"lng":126.886866,"roadAddr":"서울특별시 영등포구 양산로 지하21","jibunAddr":"서울특별시 영등포구 양산로 지하21","openHours":"05:00~01:00","maleToilets":11,"femaleToilets":8,"disabled":true,"diaperTable":true,"emergencyBell":true,"cctv":true,"managerTel":"0263115221","source":"public","category":"public"},{"id":"202031800000100123","name":"롯데마트 빅마켓 화장실","lat":37.527817,"lng":126.904683,"roadAddr":"서울특별시 영등포구 영중로 125, 롯데마트 (영등포동8가)","jibunAddr":"서울특별시 영등포구 영등포동8가 62-1 롯데마트","openHours":"10:00~22:00","maleToilets":8,"femaleToilets":7,"disabled":false,"diaperTable":false,"emergencyBell":false,"cctv":true,"managerTel":"0221652523","source":"public","category":"public"},{"id":"202031800000104701","name":"다사랑어린이공원","lat":37.492834,"lng":126.899226,"roadAddr":"서울특별시 영등포구 대림로23가길 5","jibunAddr":"서울특별시 영등포구 대림2동 703-6","openHours":"24시간","maleToilets":2,"femaleToilets":2,"disabled":false,"diaperTable":true,"emergencyBell":true,"cctv":false,"managerTel":"0226703761","source":"public","category":"public"},{"id":"202031800000100014","name":"양평동2가 공중화장실","lat":37.524351,"lng":126.884695,"roadAddr":"서울특별시 영등포구 영등포로5길 26 (양평동2가)","jibunAddr":"서울특별시 영등포구 양평동2가 31번지 15호","openHours":"24시간","maleToilets":2,"femaleToilets":1,"disabled":false,"diaperTable":false,"emergencyBell":true,"cctv":false,"managerTel":"0226703499","source":"public","category":"public"},{"id":"202031800000104798","name":"김안과병원 화장실","lat":37.519736,"lng":126.901484,"roadAddr":"서울특별시 영등포구 영신로 136 (김안과병원 본관 1층)","openHours":"09:00~18:00","maleToilets":4,"femaleToilets":3,"disabled":true,"diaperTable":false,"emergencyBell":false,"cctv":false,"managerTel":"15772693","source":"public","category":"public"},{"id":"202031800000104635","name":"메종리브르","lat":37.520886,"lng":126.892859,"roadAddr":"서울특별시 영등포구 영등포로 106","jibunAddr":"서울특별시 영등포구 당산동1가 53-1","openHours":"09:00~18:00","maleToilets":4,"femaleToilets":3,"disabled":false,"diaperTable":false,"emergencyBell":true,"cctv":false,"managerTel":"0226334815","source":"public","category":"public"},{"id":"202031800000104700","name":"중앙어린이공원","lat":37.521344,"lng":126.904176,"roadAddr":"서울특별시 영등포구 영등포로35길 13","jibunAddr":"서울특별시 영등포구 영등포6가 53-1","openHours":"24시간","maleToilets":2,"femaleToilets":3,"disabled":false,"diaperTable":false,"emergencyBell":true,"cctv":false,"managerTel":"0226703761","source":"public","category":"public"},{"id":"202031800000100095","name":"도림동주민센터 지하1층","lat":37.509493,"lng":126.896,"roadAddr":"서울특별시 영등포구 도영로7길 10, 도림동주민센터 (도림동)","jibunAddr":"서울특별시 영등포구 도림동 222번지 7호 도림동주민센터","openHours":"06:00~21:30","maleToilets":2,"femaleToilets":1,"disabled":true,"diaperTable":false,"emergencyBell":false,"cctv":false,"managerTel":"0226701454","source":"public","category":"public"},{"id":"202031800000104751","name":"대림2동 주민센터 1층 화장실","lat":37.49274,"lng":126.89825,"roadAddr":"서울특별시 영등포구 대림로23길 25 (대림동, 대림2동주민센터)","openHours":"09:00~18:00","maleToilets":4,"femaleToilets":2,"disabled":false,"diaperTable":false,"emergencyBell":true,"cctv":false,"managerTel":"0226701400","source":"public","category":"public"},{"id":"202031800000100007","name":"신길5동 주민센터 1층 화장실","lat":37.501642,"lng":126.905219,"roadAddr":"서울 영등포구 도림로 264","jibunAddr":"서울특별시 영등포구 신길동 422","openHours":"06:00~22:00","maleToilets":4,"femaleToilets":3,"disabled":true,"diaperTable":false,"emergencyBell":true,"cctv":false,"managerTel":"0226701457","source":"public","category":"public"},{"id":"202031800000104670","name":"영등포 종합 사회복지관 본관1층","lat":37.497317,"lng":126.907695,"roadAddr":"서울특별시 영등포구 신길로13길 4 (신길동, 영등포종합사회복지관)","jibunAddr":"본관1층","openHours":"06:00~22:00","maleToilets":2,"femaleToilets":1,"disabled":false,"diaperTable":false,"emergencyBell":false,"cctv":false,"managerTel":"028455331","source":"public","category":"public"},{"id":"202031800000104622","name":"썬프라자 본관 1층","lat":37.495967,"lng":126.907785,"roadAddr":"서울 영등포구 신길로 39(대림동,썬프라자)","jibunAddr":"대림동 910-4","openHours":"10:00~22:30","maleToilets":6,"femaleToilets":4,"disabled":true,"diaperTable":false,"emergencyBell":false,"cctv":false,"managerTel":"028420008","source":"public","category":"public"},{"id":"202131800000100002","name":"대방천녹지대","lat":37.505957,"lng":126.897463,"jibunAddr":"서울특별시 영등포구 도림동 258-3","openHours":"상시","maleToilets":2,"femaleToilets":2,"disabled":false,"diaperTable":true,"emergencyBell":true,"cctv":false,"managerTel":"0226703769","source":"public","category":"public"},{"id":"202031800000104636","name":"태창빌딩","lat":37.521732,"lng":126.895278,"roadAddr":"서울특별시 영등포구 당산로 77","jibunAddr":"서울특별시 영등포구 당산동2가 45-9","openHours":"08:00~22:00","maleToilets":4,"femaleToilets":2,"disabled":false,"diaperTable":false,"emergencyBell":true,"cctv":true,"managerTel":"0226333544","source":"public","category":"public"},{"id":"202031800000104692","name":"당산근린공원","lat":37.525218,"lng":126.895147,"roadAddr":"서울특별시 당산로27길 12","jibunAddr":"서울특별시 영등포구 당산동3가 385-1","openHours":"24시간","maleToilets":6,"femaleToilets":7,"disabled":true,"diaperTable":true,"emergencyBell":true,"cctv":true,"managerTel":"0226703761","source":"public","category":"public"},{"id":"202031800000104379","name":"문래동주민센터 1층 화장실","lat":37.51711,"lng":126.899523,"roadAddr":"서울특별시 영등포구 문래로28길 15, 문래동주민센터 (문래동3가)","jibunAddr":"서울특별시 영등포구 문래동3가 55번지 16호 문래동주민센터","openHours":"평일 09:00 ~ 18:00","maleToilets":3,"femaleToilets":2,"disabled":true,"diaperTable":true,"emergencyBell":true,"cctv":false,"managerTel":"0226701178","source":"public","category":"public"},{"id":"202031800000100031","name":"영등포본동 주민센터 1층 화장실","lat":37.514666,"lng":126.909339,"roadAddr":"서울특별시 영등포구 신길로61길 17, 영등포본동주민센터 (영등포동)","jibunAddr":"서울특별시 영등포구 영등포동 592번지 70호 영등포본동주민센터","openHours":"09:00~18:00","maleToilets":3,"femaleToilets":2,"disabled":true,"diaperTable":false,"emergencyBell":true,"cctv":false,"managerTel":"0226701025","source":"public","category":"public"},{"id":"202031800000104774","name":"대림요양병원 화장실","lat":37.502617,"lng":126.899772,"roadAddr":"서울특별시 영등포구 가마산로 381 (대림동, 한세빌딩)","openHours":"09:00~18:00","maleToilets":2,"femaleToilets":1,"disabled":true,"diaperTable":true,"emergencyBell":true,"cctv":false,"managerTel":"028367575","source":"public","category":"public"},{"id":"202031800000104805","name":"영등포역지하철역 화장실","lat":37.515177,"lng":126.903756,"roadAddr":"서울특별시 영등포구 경인로 816 (영등포동)","openHours":"05:00~12:00","maleToilets":8,"femaleToilets":7,"disabled":false,"diaperTable":false,"emergencyBell":false,"cctv":false,"managerTel":"0226703447","source":"public","category":"public"},{"id":"202031800000104693","name":"문래근린공원(1)","lat":37.518462,"lng":126.893972,"roadAddr":"서울특별시 영등포구 문래동3가 73-1","jibunAddr":"서울특별시 영등포구 문래동3가 73-1","openHours":"24시간","maleToilets":4,"femaleToilets":5,"disabled":true,"diaperTable":true,"emergencyBell":true,"cctv":false,"managerTel":"0226703761","source":"public","category":"public"},{"id":"202031800000104703","name":"대림어린이공원","lat":37.491345,"lng":126.903024,"roadAddr":"서울특별시 영등포구 대림로 106","jibunAddr":"서울특별시 영등포구 대림1동 870","openHours":"24시간","maleToilets":4,"femaleToilets":3,"disabled":true,"diaperTable":false,"emergencyBell":true,"cctv":false,"managerTel":"0226703760","source":"public","category":"public"},{"id":"202031800000100101","name":"도림동 자치회관 1층","lat":37.509991,"lng":126.908051,"roadAddr":"서울특별시 영등포구 도신로33길 4 (도림동)","jibunAddr":"서울특별시 영등포구 도림동 75번지","openHours":"10:00~17:00","maleToilets":0,"femaleToilets":0,"disabled":true,"diaperTable":false,"emergencyBell":false,"cctv":false,"managerTel":"028321779","source":"public","category":"public"},{"id":"202031800000104799","name":"덕수의료재단 화장실","lat":37.520061,"lng":126.901817,"roadAddr":"서울특별시 영등포구 영신로34길 5 (영등포동4가)","openHours":"09:00~18:00","maleToilets":2,"femaleToilets":2,"disabled":true,"diaperTable":true,"emergencyBell":true,"cctv":false,"managerTel":"026788225","source":"public","category":"public"},{"id":"202031800000104673","name":"영등포종합복지관 별관1층","lat":37.497317,"lng":126.907695,"roadAddr":"서울특별시 영등포구 신길로13길 4 (신길동, 영등포종합사회복지관)","jibunAddr":"별관1층2층중간위치","openHours":"06:00~22:00","maleToilets":0,"femaleToilets":2,"disabled":false,"diaperTable":false,"emergencyBell":false,"cctv":false,"managerTel":"028455331","source":"public","category":"public"},{"id":"202031800000104583","name":"대림정보문화도서관 1층화장실","lat":37.504297,"lng":126.896056,"roadAddr":"서울특별시 영등포구 도신로 27, 대림정보문화도서관 (대림동)","jibunAddr":"서울특별시 영등포구 대림동 608번지 2호 대림정보문화도서관","openHours":"24시간","maleToilets":4,"femaleToilets":3,"disabled":false,"diaperTable":true,"emergencyBell":true,"cctv":false,"managerTel":"028283706","source":"public","category":"public"},{"id":"202031800000104778","name":"영등포병원(1층화장실)","lat":37.526858,"lng":126.895614,"roadAddr":"서울특별시 영등포구 당산로31길 10 (당산동3가, 영등포병원)","openHours":"09:00~18:00","maleToilets":4,"femaleToilets":2,"disabled":true,"diaperTable":false,"emergencyBell":false,"cctv":true,"managerTel":"0226320722","source":"public","category":"public"},{"id":"202031800000104694","name":"문래근린공원(2)","lat":37.515326,"lng":126.893803,"roadAddr":"서울특별시 영등포구 문래동3가 60-2","jibunAddr":"서울특별시 영등포구 문래동3가 60-2","openHours":"24시간","maleToilets":3,"femaleToilets":3,"disabled":false,"diaperTable":true,"emergencyBell":true,"cctv":false,"managerTel":"0226703761","source":"public","category":"public"},{"id":"202031800000100013","name":"양평동2가-1 공중화장실","lat":37.5244,"lng":126.884815,"roadAddr":"서울특별시 영등포구 선유서로25길 9-3 (양평동2가)","jibunAddr":"서울특별시 영등포구 양평동2가 31번지 1호","openHours":"24시간","maleToilets":2,"femaleToilets":1,"disabled":false,"diaperTable":false,"emergencyBell":true,"cctv":false,"managerTel":"0226703499","source":"public","category":"public"},{"id":"202031800000104656","name":"양평빌딩","lat":37.523517,"lng":126.884063,"roadAddr":"서울특별시 영등포구 영등포로 21","jibunAddr":"서울특별시 영등포구 양평동2가 37-2","openHours":"07:00~22:00","maleToilets":3,"femaleToilets":2,"disabled":false,"diaperTable":false,"emergencyBell":true,"cctv":false,"managerTel":"0226718326","source":"public","category":"public"},{"id":"202031800000104764","name":"영등포동주민센터 1층화장실","lat":37.520389,"lng":126.910698,"roadAddr":"서울특별시 영등포구 영등포로53길 22 (영등포동2가, 영등포동주민센터)","openHours":"09:00~18:00","maleToilets":4,"femaleToilets":2,"disabled":true,"diaperTable":false,"emergencyBell":true,"cctv":false,"managerTel":"0226701054","source":"public","category":"public"},{"id":"202031800000104711","name":"양평1보행육교","lat":37.52807,"lng":126.885437,"roadAddr":"서울특별시 영등포구 양평동 484","jibunAddr":"서울특별시 영등포구 양평동 484","openHours":"24시간","maleToilets":3,"femaleToilets":2,"disabled":false,"diaperTable":false,"emergencyBell":true,"cctv":false,"managerTel":"0226703773","source":"public","category":"public"},{"id":"202231800000100029","name":"영등포시장역 화장실(1)","lat":37.522735,"lng":126.904959,"roadAddr":"서울특별시 영등포구 양산로 지하200","jibunAddr":"서울특별시 영등포구 양산로 지하200","openHours":"05:00~01:00","maleToilets":14,"femaleToilets":9,"disabled":true,"diaperTable":true,"emergencyBell":true,"cctv":true,"managerTel":"0263115241","source":"public","category":"public"},{"id":"202031800000100082","name":"롯데백화점 구관 지하2층","lat":37.516799,"lng":126.907034,"roadAddr":"서울특별시 영등포구 경인로 849(영등포동, 영등포민자역사)","openHours":"10:30~20:00","maleToilets":5,"femaleToilets":2,"disabled":false,"diaperTable":false,"emergencyBell":false,"cctv":false,"managerTel":"0226708832","source":"public","category":"public"},{"id":"202231800000100026","name":"신풍역 화장실(2)","lat":37.500117,"lng":126.909842,"roadAddr":"서울특별시 영등포구 신풍로 지하27","jibunAddr":"서울특별시 영등포구 신풍로 지하27","openHours":"05:00~24:00","maleToilets":9,"femaleToilets":5,"disabled":true,"diaperTable":true,"emergencyBell":true,"cctv":true,"managerTel":"0263117431","source":"public","category":"public"},{"id":"202031800000104695","name":"신길근린공원","lat":37.501521,"lng":126.905895,"roadAddr":"서울특별시 영등포구 신길5동 341-3","jibunAddr":"서울특별시 영등포구 신길5동 341-3","openHours":"24시간","maleToilets":4,"femaleToilets":2,"disabled":false,"diaperTable":true,"emergencyBell":true,"cctv":false,"managerTel":"0226703761","source":"public","category":"public"},{"id":"202031800000104637","name":"우미빌딩","lat":37.525409,"lng":126.896934,"roadAddr":"서울특별시 영등포구 당산로 122","jibunAddr":"서울특별시 영등포구 당산동3가 270","openHours":"24시간","maleToilets":4,"femaleToilets":2,"disabled":false,"diaperTable":false,"emergencyBell":true,"cctv":false,"managerTel":"0226768483","source":"public","category":"public"},{"id":"202031800000100019","name":"전화국 뒤-2","lat":37.526722,"lng":126.90345,"roadAddr":"서울특별시 영등포구 영신로54길 3-3 (영등포동8가)","jibunAddr":"서울특별시 영등포구 영등포동8가 33번지 5호","openHours":"24시간","maleToilets":1,"femaleToilets":2,"disabled":false,"diaperTable":false,"emergencyBell":true,"cctv":false,"managerTel":"0226703499","source":"public","category":"public"},{"id":"202031800000100018","name":"전화국 뒤-1","lat":37.526783,"lng":126.903424,"roadAddr":"서울특별시 영등포구 영신로 218-2 (영등포동8가)","jibunAddr":"서울특별시 영등포구 영등포동8가 33번지 7호","openHours":"24시간","maleToilets":2,"femaleToilets":1,"disabled":true,"diaperTable":false,"emergencyBell":true,"cctv":false,"managerTel":"0226703499","source":"public","category":"public"},{"id":"202031800000104826","name":"영등포역 지하 화장실","lat":37.517905,"lng":126.905843,"roadAddr":"서울특별시 영등포구 영중로 지하 20 (영등포동3가, 영등포로터리지하도상가)","openHours":"05:00~12:00","maleToilets":8,"femaleToilets":4,"disabled":false,"diaperTable":false,"emergencyBell":false,"cctv":false,"managerTel":"0226703504","source":"public","category":"public"},{"id":"202031800000104710","name":"목동교 화장실","lat":37.528996,"lng":126.888383,"roadAddr":"서울특별시 영등포구 양평동487","jibunAddr":"서울특별시 영등포구 양평동487","openHours":"24시간","maleToilets":3,"femaleToilets":2,"disabled":true,"diaperTable":false,"emergencyBell":true,"cctv":false,"managerTel":"0226703773","source":"public","category":"public"},{"id":"202031800000104587","name":"문래정보문화도서관 1층","lat":37.516857,"lng":126.890895,"roadAddr":"서울 영등포구 문래로20길 49 (문래동3가, 문래정보문화도서관)","openHours":"24시간","maleToilets":5,"femaleToilets":4,"disabled":false,"diaperTable":true,"emergencyBell":true,"cctv":false,"managerTel":"0226298600","source":"public","category":"public"},{"id":"202031800000104698","name":"원지어린이공원","lat":37.497722,"lng":126.899688,"roadAddr":"서울특별시 영등포구 도림로47길 28","jibunAddr":"서울특별시 영등포구 대림3동 690","openHours":"24시간","maleToilets":3,"femaleToilets":2,"disabled":true,"diaperTable":true,"emergencyBell":true,"cctv":false,"managerTel":"0226703761","source":"public","category":"public"},{"id":"202031800000104732","name":"영등포제2스포츠센터 1층","lat":37.526692,"lng":126.902731,"roadAddr":"서울 영등포구 국회대로 615 (당산동4가, 영등포제2스포츠센터)","openHours":"06:00~22:00","maleToilets":5,"femaleToilets":5,"disabled":false,"diaperTable":false,"emergencyBell":false,"cctv":true,"managerTel":"0226302900","source":"public","category":"public"},{"id":"202031800000100114","name":"성림빌딩","lat":37.503009,"lng":126.896022,"roadAddr":"서울특별시 영등포구 대림로 251, 성림빌딩 (대림동)","jibunAddr":"서울특별시 영등포구 대림동 784번지","openHours":"24시간","maleToilets":15,"femaleToilets":6,"disabled":false,"diaperTable":false,"emergencyBell":true,"cctv":false,"source":"public","category":"public"},{"id":"202031800000104648","name":"일승빌딩 2층","lat":37.494872,"lng":126.899462,"roadAddr":"서울특별시 영등포구 대림로 157","jibunAddr":"서울특별시 영등포구 대림동 710-10","openHours":"07:00~22:00","maleToilets":4,"femaleToilets":2,"disabled":false,"diaperTable":false,"emergencyBell":true,"cctv":false,"managerTel":"028315100","source":"public","category":"public"},{"id":"202031800000100096","name":"도림동 주민센터 1층","lat":37.509493,"lng":126.896,"roadAddr":"서울특별시 영등포구 도영로7길 10, 도림동주민센터 (도림동)","jibunAddr":"서울특별시 영등포구 도림동 222번지 7호 도림동주민센터","openHours":"09:00~18:00","maleToilets":2,"femaleToilets":1,"disabled":true,"diaperTable":false,"emergencyBell":true,"cctv":false,"managerTel":"0226701454","source":"public","category":"public"},{"id":"202031800000104651","name":"동국메뜨리앙 빌딩","lat":37.520649,"lng":126.889906,"roadAddr":"서울특별시 영등포구 선유로 76","jibunAddr":"서울특별시 영등포구 문래동3가 84-2","openHours":"24시간","maleToilets":6,"femaleToilets":3,"disabled":false,"diaperTable":false,"emergencyBell":true,"cctv":true,"managerTel":"0220688769","source":"public","category":"public"},{"id":"202431800000100001","name":"문래동 꽃밭정원","lat":37.51711,"lng":126.899523,"roadAddr":"서울특별시 영등포구 문래로28길 15, 문래동 꽃밭정원 (문래동3가)","jibunAddr":"서울특별시 영등포구 문래동3가 55-16 문래동주민센터","openHours":"상시","maleToilets":1,"femaleToilets":2,"disabled":true,"diaperTable":false,"emergencyBell":true,"cctv":false,"managerTel":"0226703761","source":"public","category":"public"},{"id":"202031800000104634","name":"당산빌딩","lat":37.521384,"lng":126.898116,"roadAddr":"서울특별시 영등포구 영등포로 147","jibunAddr":"서울특별시 영등포구 당산동1가 53-1","openHours":"24시간","maleToilets":4,"femaleToilets":2,"disabled":true,"diaperTable":false,"emergencyBell":true,"cctv":true,"managerTel":"0226751291","source":"public","category":"public"},{"id":"202031800000100036","name":"대림운동장 화장실","lat":37.49967,"lng":126.893997,"roadAddr":"서울특별시 영등포구 가마산로31길 16, 대림운동장 (대림동)","jibunAddr":"서울특별시 영등포구 대림동 780번지 대림운동장","openHours":"24시간","maleToilets":4,"femaleToilets":4,"disabled":true,"diaperTable":false,"emergencyBell":false,"cctv":false,"managerTel":"0226704096","source":"public","category":"public"},{"id":"202031800000104665","name":"홍익금융프라자-시티은행","lat":37.520018,"lng":126.902955,"roadAddr":"서울특별시 영등포구 영등포로 194","jibunAddr":"서울특별시 영등포구 영등포동4가 147-1","openHours":"07:00~22:00","maleToilets":4,"femaleToilets":2,"disabled":false,"diaperTable":false,"emergencyBell":true,"cctv":false,"managerTel":"0220691618","source":"public","category":"public"},{"id":"202031800000104756","name":"신길3동 주민센터 1층 화장실","lat":37.507299,"lng":126.907753,"roadAddr":"서울특별시 영등포구 신길로41라길 13-8 (신길동, 신길3동주민센터)","jibunAddr":"서울특별시 영등포구 신길동268-4","openHours":"09:00~18:00","maleToilets":4,"femaleToilets":3,"disabled":true,"diaperTable":false,"emergencyBell":true,"cctv":false,"managerTel":"0226701265","source":"public","category":"public"},{"id":"202331800000100003","name":"영등포세무서 공중화장실","lat":37.525308,"lng":126.892798,"roadAddr":"서울특별시 영등포구 선유동1로 38, 영등포세무서 (당산동3가)","jibunAddr":"서울특별시 영등포구 당산동3가 552-1 영등포세무서","openHours":"정시(09:00-18:00)","maleToilets":24,"femaleToilets":12,"disabled":false,"diaperTable":false,"emergencyBell":false,"cctv":false,"managerTel":"0226309244","source":"public","category":"public"},{"id":"202031800000104653","name":"문래아카데미","lat":37.519281,"lng":126.889027,"roadAddr":"서울특별시 영등포구 선유로 59","jibunAddr":"서울특별시 영등포구 문래동6가 5-2","openHours":"07:00~22:00","maleToilets":5,"femaleToilets":2,"disabled":false,"diaperTable":false,"emergencyBell":true,"cctv":true,"managerTel":"0226757700","source":"public","category":"public"},{"id":"202031800000104691","name":"대림역 화장실(1)","lat":37.492743,"lng":126.896612,"roadAddr":"서울특별시 영등포구 도림로 지하137","jibunAddr":"서울특별시 영등포구 도림로 지하137","openHours":"05:00~01:00","maleToilets":13,"femaleToilets":8,"disabled":true,"diaperTable":true,"emergencyBell":true,"cctv":true,"managerTel":"0263117441","source":"public","category":"public"},{"id":"202031800000104754","name":"신길6동 주민센터 1층 화장실","lat":37.499423,"lng":126.909867,"roadAddr":"서울특별시 영등포구 대방천로 167, 신길6동 주민센터 1층 (신길동)","jibunAddr":"서울특별시 영등포구 신길동 3741-11 신길6동 주민센터","openHours":"09:00~18:00","maleToilets":2,"femaleToilets":2,"disabled":true,"diaperTable":true,"emergencyBell":true,"cctv":true,"managerTel":"0226701330","source":"public","category":"public"},{"id":"202031800000104612","name":"패션관 지하1층","lat":37.51719,"lng":126.905567,"roadAddr":"서울특별시 영등포구 영중로 9(영등포동13가, 신세계백화점)","openHours":"11:00~20:00","maleToilets":0,"femaleToilets":4,"disabled":false,"diaperTable":true,"emergencyBell":false,"cctv":false,"managerTel":"0226391041","source":"public","category":"public"},{"id":"202031800000104620","name":"신동시장 화장실","lat":37.506132,"lng":126.909607,"roadAddr":"서울 영등포구 가마산로69가길 12 (신길동)","openHours":"24시간","maleToilets":6,"femaleToilets":6,"disabled":false,"diaperTable":false,"emergencyBell":false,"cctv":true,"managerTel":"028321752","source":"public","category":"public"},{"id":"202031800000100024","name":"철제상가","lat":37.515116,"lng":126.901659,"roadAddr":"서울특별시 영등포구 경인로93길 1-28 (문래동3가)","jibunAddr":"서울특별시 영등포구 문래동3가 4번지 38호","openHours":"24시간","maleToilets":5,"femaleToilets":2,"disabled":true,"diaperTable":false,"emergencyBell":true,"cctv":false,"managerTel":"0226703499","source":"public","category":"public"},{"id":"202031800000104664","name":"우리은행 영등포중앙지점","lat":37.519881,"lng":126.903573,"roadAddr":"서울특별시 영등포구 영등포로 200","jibunAddr":"서울특별시 영등포구 영등포동4가 142","openHours":"07:00~22:00","maleToilets":4,"femaleToilets":2,"disabled":false,"diaperTable":false,"emergencyBell":true,"cctv":false,"managerTel":"0226787921","source":"public","category":"public"},{"id":"202031800000104644","name":"베뢰아국제대학원","lat":37.500916,"lng":126.898249,"roadAddr":"서울특별시 영등포구 가마산로 359","jibunAddr":"서울특별시 영등포구 대림3동 665-10","openHours":"09:00~18:00","maleToilets":2,"femaleToilets":2,"disabled":false,"diaperTable":false,"emergencyBell":true,"cctv":false,"managerTel":"028312272","source":"public","category":"public"},{"id":"202031800000104697","name":"양남어린이공원","lat":37.523205,"lng":126.888317,"roadAddr":"서울특별시 영등포구 선유로23길 18","jibunAddr":"서울특별시 영등포구 양평동1가 205","openHours":"24시간","maleToilets":2,"femaleToilets":1,"disabled":true,"diaperTable":true,"emergencyBell":true,"cctv":false,"managerTel":"0226703761","source":"public","category":"public"},{"id":"202031800000104647","name":"한경빌딩","lat":37.496705,"lng":126.899406,"roadAddr":"서울특별시 영등포구 대림로 178","jibunAddr":"서울특별시 영등포구 대림동 693-1","openHours":"07:00~22:00","maleToilets":12,"femaleToilets":4,"disabled":false,"diaperTable":false,"emergencyBell":true,"cctv":false,"managerTel":"028484493","source":"public","category":"public"},{"id":"202031800000104713","name":"억새2축구장","lat":37.520096,"lng":126.882118,"roadAddr":"서울특별시 영등포구 문래동6가 45-2","jibunAddr":"서울특별시 영등포구 문래동6가 45-2","openHours":"24시간","maleToilets":3,"femaleToilets":2,"disabled":false,"diaperTable":true,"emergencyBell":true,"cctv":false,"managerTel":"0226703773","source":"public","category":"public"},{"id":"202031800000100023","name":"철공소공단(문래우체국 뒤)","lat":37.513674,"lng":126.893888,"roadAddr":"서울특별시 영등포구 도림로125가길 14-1 (문래동2가)","jibunAddr":"서울특별시 영등포구 문래동2가 14번지 85호","openHours":"24시간","maleToilets":2,"femaleToilets":1,"disabled":false,"diaperTable":false,"emergencyBell":true,"cctv":false,"managerTel":"0226703499","source":"public","category":"public"},{"id":"202031800000104337","name":"문래동 자치회관 화장실","lat":37.515532,"lng":126.891355,"roadAddr":"서울특별시 영등포구 도림로141가길 16, 목화마을활력소 (문래동4가)","jibunAddr":"서울특별시 영등포구 문래동4가 6번지 9호","openHours":"평일 09:00~18:00","maleToilets":2,"femaleToilets":2,"disabled":false,"diaperTable":true,"emergencyBell":false,"cctv":false,"managerTel":"0226701175","source":"public","category":"public"},{"id":"202031800000104714","name":"영롱이인라인","lat":37.518412,"lng":126.880568,"roadAddr":"서울특별시 영등포구 문래동5가 31","jibunAddr":"서울특별시 영등포구 문래동5가 31","openHours":"24시간","maleToilets":3,"femaleToilets":2,"disabled":false,"diaperTable":true,"emergencyBell":true,"cctv":false,"managerTel":"0226703773","source":"public","category":"public"},{"id":"202031800000100068","name":"롯데백화점 신관 지하1층","lat":37.515668,"lng":126.907666,"roadAddr":"서울특별시 영등포구 경인로 846(영등포동, 영등포민자역사)","openHours":"10:30~20:00","maleToilets":4,"femaleToilets":5,"disabled":false,"diaperTable":true,"emergencyBell":false,"cctv":false,"managerTel":"0226708832","source":"public","category":"public"},{"id":"202031800000100064","name":"당산1동 주민센터 1층","lat":37.525128,"lng":126.897405,"roadAddr":"서울특별시 영등포구 양산로23길 11, 당산1동주민자치센터 (당산동3가)","jibunAddr":"서울특별시 영등포구 당산동3가 250번지 당산1동주민자치센터","openHours":"09:00 ~ 18:00","maleToilets":2,"femaleToilets":1,"disabled":true,"diaperTable":false,"emergencyBell":true,"cctv":false,"managerTel":"0226701106","source":"public","category":"public"},{"id":"202031800000104763","name":"양평1동 주민센터 화장실","lat":37.523646,"lng":126.888226,"roadAddr":"서울특별시 영등포구 영등포로11길 12 (양평동1가, 양평1동주민센터)","openHours":"09:00~18:00","maleToilets":2,"femaleToilets":1,"disabled":true,"diaperTable":true,"emergencyBell":true,"cctv":false,"managerTel":"0226701455","source":"public","category":"public"},{"id":"202031800000104823","name":"영등포시장지하도상가 출입구A 화장실","lat":37.519722,"lng":126.906052,"roadAddr":"서울특별시 영등포구 영등포로 지하 221 (영등포동3가, 영등포시장지하도상가)","openHours":"05:00~12:00","maleToilets":6,"femaleToilets":2,"disabled":true,"diaperTable":true,"emergencyBell":true,"cctv":true,"managerTel":"0222906539","source":"public","category":"public"},{"id":"202231800000100028","name":"양평역 화장실(2)","lat":37.525512,"lng":126.886866,"roadAddr":"서울특별시 영등포구 양산로 지하 21 (양평동2가, 양평역)","openHours":"05:00~12:00","maleToilets":8,"femaleToilets":9,"disabled":true,"diaperTable":true,"emergencyBell":true,"cctv":true,"managerTel":"0263115221","source":"public","category":"public"},{"id":"202031800000104639","name":"영등포구 보건소 1층 화장실","lat":37.525963,"lng":126.896367,"roadAddr":"영등포구 당산로 123(당산동3가)","jibunAddr":"영등포구 당산동3가 385-1 영등포구 보건소","openHours":"08:00~18:00","maleToilets":5,"femaleToilets":2,"disabled":true,"diaperTable":true,"emergencyBell":false,"cctv":true,"managerTel":"0226703317","source":"public","category":"public"},{"id":"202031800000104704","name":"영등포공원","lat":37.516127,"lng":126.912126,"roadAddr":"서울특별시 영등포구 신길로 275","jibunAddr":"서울특별시 영등포구 영등포동 582-3","openHours":"24시간","maleToilets":4,"femaleToilets":6,"disabled":true,"diaperTable":true,"emergencyBell":true,"cctv":false,"managerTel":"0226703716","source":"public","category":"public"},{"id":"202231800000100030","name":"영등포시장역 화장실(2)","lat":37.522735,"lng":126.904959,"roadAddr":"서울특별시 영등포구 양산로 지하 200 (영등포동5가, 영등포시장역)","openHours":"05:00~12:00","maleToilets":9,"femaleToilets":10,"disabled":true,"diaperTable":true,"emergencyBell":true,"cctv":true,"managerTel":"0263115241","source":"public","category":"public"},{"id":"202031800000100025","name":"문래동","lat":37.518613,"lng":126.88661,"roadAddr":"서울특별시 영등포구 문래로10길 18-10 (문래동6가)","jibunAddr":"서울특별시 영등포구 문래동6가 22번지 3호","openHours":"24시간","maleToilets":2,"femaleToilets":1,"disabled":false,"diaperTable":false,"emergencyBell":true,"cctv":false,"managerTel":"0226703499","source":"public","category":"public"},{"id":"202031800000100110","name":"대림1동 주민센터 1층 화장실","lat":37.495457,"lng":126.905842,"roadAddr":"서울특별시 영등포구 디지털로 441, 대림제1동주민센터 (대림동)","jibunAddr":"서울특별시 영등포구 대림동 899번지 2호 대림제1동사무소/대림1동복지관","openHours":"08:00~18:00","maleToilets":3,"femaleToilets":2,"disabled":true,"diaperTable":true,"emergencyBell":true,"cctv":false,"managerTel":"26701380","source":"public","category":"public"},{"id":"202031800000104702","name":"동심어린이공원","lat":37.498773,"lng":126.89735,"roadAddr":"서울특별시 영등포구 대림로35길 7","jibunAddr":"서울특별시 영등포구 대림3동 742","openHours":"24시간","maleToilets":2,"femaleToilets":1,"disabled":true,"diaperTable":true,"emergencyBell":true,"cctv":false,"managerTel":"0226703761","source":"public","category":"public"},{"id":"202031800000100121","name":"우신빌딩 화장실","lat":37.522908,"lng":126.883517,"roadAddr":"서울특별시 영등포구 영등포로 20, 우신빌딩 (양평동2가)","jibunAddr":"서울특별시 영등포구 양평동2가 21번지 우신빌딩","openHours":"08:00~18:00","maleToilets":4,"femaleToilets":2,"disabled":false,"diaperTable":false,"emergencyBell":true,"cctv":false,"managerTel":"0226317954","source":"public","category":"public"},{"id":"202031800000104652","name":"대륭빌딩","lat":37.516633,"lng":126.887952,"roadAddr":"서울특별시 영등포구 선유로 27","jibunAddr":"서울특별시 영등포구 문래동5가 2","openHours":"07:00~22:00","maleToilets":6,"femaleToilets":3,"disabled":false,"diaperTable":false,"emergencyBell":true,"cctv":true,"managerTel":"0226758154","source":"public","category":"public"},{"id":"202231800000100020","name":"영등포역","lat":37.516463,"lng":126.906659,"roadAddr":"영등포구 경인로 843","jibunAddr":"영등포동3가 33","openHours":"09~23시","maleToilets":8,"femaleToilets":12,"disabled":true,"diaperTable":true,"emergencyBell":true,"cctv":false,"managerTel":"0222906459","source":"public","category":"public"},{"id":"202231800000100025","name":"신풍역 화장실(1)","lat":37.500117,"lng":126.909842,"roadAddr":"서울특별시 영등포구 신풍로 지하 27, 신풍역 (신길동)","jibunAddr":"서울특별시 영등포구 신길동 3599번지 신풍역","openHours":"05:00~24:30","maleToilets":6,"femaleToilets":6,"disabled":true,"diaperTable":true,"emergencyBell":true,"cctv":true,"managerTel":"0263117431","source":"public","category":"public"},{"id":"202031800000100016","name":"쪽방촌 화장실","lat":37.514749,"lng":126.904614,"roadAddr":"서울특별시 영등포구 경인로96길 12 (영등포동)","jibunAddr":"서울특별시 영등포구 영등포동 618번지 5호","openHours":"24시간","maleToilets":4,"femaleToilets":4,"disabled":true,"diaperTable":false,"emergencyBell":true,"cctv":false,"managerTel":"0226703499","source":"public","category":"public"},{"id":"202031800000104738","name":"영등포제1스포츠센터 1층화장실","lat":37.500542,"lng":126.906305,"roadAddr":"서울 영등포구 신풍로 1 (신길동, 영등포제1스포츠센터)","openHours":"06:00~22:00","maleToilets":8,"femaleToilets":4,"disabled":false,"diaperTable":false,"emergencyBell":false,"cctv":true,"managerTel":"0226501500","source":"public","category":"public"},{"id":"202031800000100069","name":"롯데백화점 신관 2층","lat":37.515668,"lng":126.907666,"roadAddr":"서울특별시 영등포구 경인로 846(영등포동, 영등포민자역사)","openHours":"10:30~20:00","maleToilets":0,"femaleToilets":5,"disabled":false,"diaperTable":true,"emergencyBell":false,"cctv":false,"managerTel":"0226708832","source":"public","category":"public"},{"id":"202031800000104797","name":"CM병원 화장실","lat":37.518816,"lng":126.903876,"roadAddr":"서울특별시 영등포구 영등포로36길 13 (영등포동4가, 충무병원)","openHours":"09:00~18:00","maleToilets":5,"femaleToilets":4,"disabled":true,"diaperTable":true,"emergencyBell":true,"cctv":false,"managerTel":"0226780001","source":"public","category":"public"},{"id":"202031800000104625","name":"영등포시장지하도상가 화장실","lat":37.519722,"lng":126.906052,"roadAddr":"서울특별시 영등포구 영등포로 지하 221(영등포역지하도상가)","openHours":"05:30~23:30","maleToilets":9,"femaleToilets":6,"disabled":true,"diaperTable":false,"emergencyBell":false,"cctv":true,"managerTel":"0222906558","source":"public","category":"public"},{"id":"202331800000100005","name":"우체국보험 영등포회관(1층)","lat":37.51653,"lng":126.906043,"roadAddr":"서울특별시 영등포구 경인로 841, 서울영등포동4가우체국 (영등포동4가)","jibunAddr":"서울특별시 영등포구 영등포동4가 425-2 서울영등포동4가우체국","openHours":"정시(09:00-18:00)","maleToilets":2,"femaleToilets":1,"disabled":false,"diaperTable":false,"emergencyBell":false,"cctv":false,"managerTel":"0226106331","source":"public","category":"public"},{"id":"202031800000104640","name":"영등포구청 별관 1층 화장실","lat":37.52862,"lng":126.89449,"roadAddr":"영등포구 선유동1로 80(당산동3가, 영등포구청 별관)","jibunAddr":"영등포구 당산동3가 560 영등포구청 별관","openHours":"12시간","maleToilets":7,"femaleToilets":4,"disabled":true,"diaperTable":true,"emergencyBell":false,"cctv":true,"managerTel":"0226703003","source":"public","category":"public"},{"id":"202031800000100020","name":"조광시장","lat":37.522512,"lng":126.901106,"roadAddr":"서울특별시 영등포구 영신로45길 3-3 (당산동1가)","jibunAddr":"서울특별시 영등포구 당산동1가 186번지 23호","openHours":"24시간","maleToilets":3,"femaleToilets":3,"disabled":false,"diaperTable":false,"emergencyBell":true,"cctv":false,"managerTel":"0226703499","source":"public","category":"public"},{"id":"202031800000104715","name":"도림천화장실","lat":37.511771,"lng":126.891085,"roadAddr":"서울특별시 영등포구 문래동2가 63","jibunAddr":"서울특별시 영등포구 문래동2가 63","openHours":"24시간","maleToilets":2,"femaleToilets":2,"disabled":false,"diaperTable":false,"emergencyBell":true,"cctv":false,"managerTel":"0226703773","source":"public","category":"public"},{"id":"202031800000104800","name":"신화요양병원 2층 화장실","lat":37.525127,"lng":126.905825,"roadAddr":"서울특별시 영등포구 영중로 100 (영등포동7가)","openHours":"09:00~18:00","maleToilets":4,"femaleToilets":0,"disabled":true,"diaperTable":false,"emergencyBell":false,"cctv":true,"managerTel":"0226328114","source":"public","category":"public"},{"id":"202031800000104812","name":"대림역 화장실(2)","lat":37.492743,"lng":126.896612,"roadAddr":"서울특별시 영등포구 도림로 지하 137 (대림동, 대림역)","openHours":"05:00~12:00","maleToilets":9,"femaleToilets":9,"disabled":true,"diaperTable":true,"emergencyBell":true,"cctv":true,"managerTel":"0263117441","source":"public","category":"public"},{"id":"202231800000100010","name":"문래역(2)","lat":37.518701,"lng":126.894562,"roadAddr":"서울특별시 영등포구 문래동3가 68-1문래역","openHours":"05~24","maleToilets":12,"femaleToilets":14,"disabled":false,"diaperTable":true,"emergencyBell":true,"cctv":true,"managerTel":"0261102351","source":"public","category":"public"},{"id":"202031800000104789","name":"한강성심병원(1층화장실)","lat":37.500542,"lng":126.906305,"roadAddr":"서울특별시 영등포구 신풍로 1 (신길동, 영등포제1스포츠센터) 한강성심병원","openHours":"09:00~18:00","maleToilets":8,"femaleToilets":4,"disabled":true,"diaperTable":false,"emergencyBell":false,"cctv":false,"managerTel":"0226501500","source":"public","category":"public"},{"id":"202231800000100011","name":"영등포구청역(2)","lat":37.525402,"lng":126.896952,"roadAddr":"서울특별시 영등포구 당산동3가 270-1 영등포구청역(2호선)","openHours":"05~24","maleToilets":12,"femaleToilets":14,"disabled":false,"diaperTable":true,"emergencyBell":true,"cctv":true,"managerTel":"0261102361","source":"public","category":"public"},{"id":"202031800000104824","name":"영등포시장 화장실","lat":37.519722,"lng":126.906052,"roadAddr":"서울특별시 영등포구 영등포로 지하 221 (영등포동3가, 영등포시장지하도상가)","openHours":"05:00~12:00","maleToilets":13,"femaleToilets":4,"disabled":false,"diaperTable":false,"emergencyBell":true,"cctv":true,"managerTel":"0222906487","source":"public","category":"public"},{"id":"202031800000104749","name":"대림3동 주민센터 1층 화장실","lat":37.498358,"lng":126.898082,"roadAddr":"서울특별시 영등포구 대림로 197 (대림동, 대림3동주민센터)","openHours":"09:00~18:00","maleToilets":4,"femaleToilets":2,"disabled":false,"diaperTable":false,"emergencyBell":true,"cctv":false,"managerTel":"0226701425","source":"public","category":"public"},{"id":"202031800000104650","name":"대소빌딩","lat":37.519243,"lng":126.892233,"roadAddr":"서울특별시 영등포구 문래로 92","jibunAddr":"서울특별시 영등포구 문래동3가 77-13","openHours":"07:00~22:00","maleToilets":4,"femaleToilets":2,"disabled":false,"diaperTable":false,"emergencyBell":true,"cctv":true,"managerTel":"0226770830","source":"public","category":"public"},{"id":"202031800000104666","name":"영신상가","lat":37.51992,"lng":126.906655,"roadAddr":"서울특별시 영등포구 영등포로 225","jibunAddr":"서울특별시 영등포구 영등포동5가 18-1","openHours":"07:00~22:00","maleToilets":6,"femaleToilets":4,"disabled":false,"diaperTable":false,"emergencyBell":true,"cctv":false,"managerTel":"0226346020","source":"public","category":"public"},{"id":"202031800000104705","name":"중마루공원","lat":37.519919,"lng":126.911497,"roadAddr":"서울특별시 영등포구 영등포로53길 14","jibunAddr":"서울특별시 영등포구 영등포동2가 222","openHours":"24시간","maleToilets":4,"femaleToilets":2,"disabled":false,"diaperTable":true,"emergencyBell":true,"cctv":false,"managerTel":"0226703716","source":"public","category":"public"},{"id":"202031800000104806","name":"영등포역 지하철역화장실","lat":37.515171,"lng":126.903886,"roadAddr":"서울특별시 영등포구 경인로 818 (영등포동)","openHours":"05:00~12:00","maleToilets":9,"femaleToilets":8,"disabled":false,"diaperTable":false,"emergencyBell":false,"cctv":false,"managerTel":"0226703447","source":"public","category":"public"},{"id":"202031800000104741","name":"영등포문화원","lat":37.516127,"lng":126.912126,"roadAddr":"서울 영등포구 신길로 275 (영등포동, 영등포문화원)","openHours":"06:00~22:00","maleToilets":18,"femaleToilets":9,"disabled":false,"diaperTable":false,"emergencyBell":false,"cctv":false,"managerTel":"028460155","source":"public","category":"public"},{"id":"202031800000104617","name":"리빙관 2층","lat":37.51719,"lng":126.905567,"roadAddr":"서울특별시 영등포구 영중로 9(영등포동18가, 신세계백화점)","openHours":"11:00~20:00","maleToilets":5,"femaleToilets":2,"disabled":false,"diaperTable":true,"emergencyBell":true,"cctv":false,"managerTel":"0226391041","source":"public","category":"public"},{"id":"202031800000104699","name":"신우어린이공원","lat":37.503579,"lng":126.899091,"roadAddr":"서울특별시 영등포구 가마산로47길 13","jibunAddr":"서울특별시 영등포구 대림3동 657","openHours":"24시간","maleToilets":3,"femaleToilets":2,"disabled":true,"diaperTable":true,"emergencyBell":true,"cctv":false,"managerTel":"0226703761","source":"public","category":"public"},{"id":"202031800000100017","name":"광야교회 화장실","lat":37.514749,"lng":126.904614,"roadAddr":"서울특별시 영등포구 경인로96길 12 (영등포동)","jibunAddr":"서울특별시 영등포구 영등포동 618번지 5호","openHours":"24시간","maleToilets":7,"femaleToilets":3,"disabled":true,"diaperTable":false,"emergencyBell":true,"cctv":false,"managerTel":"0226703499","source":"public","category":"public"},{"id":"202331900000100173","name":"우성스포츠센터","lat":37.49226,"lng":126.90996,"roadAddr":"서울특별시 동작구 여의대방로 2 (신대방동, 신대방동우성스포츠센타)","openHours":"00:00~24:00","maleToilets":5,"femaleToilets":3,"disabled":false,"diaperTable":false,"emergencyBell":false,"cctv":false,"source":"public","category":"public"},{"id":"202331900000100068","name":"신대방역(2)","lat":37.48755,"lng":126.91296,"roadAddr":"서울특별시 동작구 신대방동 643-1 신대방역 2호선","openHours":"05:00~24:00","maleToilets":9,"femaleToilets":13,"disabled":false,"diaperTable":true,"emergencyBell":true,"cctv":true,"managerTel":"0261102311","source":"public","category":"public"},{"id":"202331900000100126","name":"신대방누리도서관","lat":37.486068,"lng":126.905885,"roadAddr":"서울특별시 동작구 신대방동 1다길 19","jibunAddr":"서울특별시 동작구 신대방 1동 686-78","openHours":"09:00~18:00","maleToilets":9,"femaleToilets":9,"disabled":true,"diaperTable":false,"emergencyBell":true,"cctv":true,"managerTel":"028598588","source":"public","category":"public"},{"id":"202431900000100171","name":"신대방역(2)","lat":37.487576,"lng":126.913176,"roadAddr":"서울특별시 동작구 대림로 2","jibunAddr":"서울특별시 동작구 신대방동 643-1 신대방역 2호선","openHours":"정시","maleToilets":9,"femaleToilets":13,"disabled":false,"diaperTable":true,"emergencyBell":true,"cctv":true,"managerTel":"0261102311","source":"public","category":"public"},{"id":"202331900000100165","name":"신대방1동주민센터","lat":37.488945,"lng":126.910039,"roadAddr":"서울특별시 동작구 신대방길 72","jibunAddr":"서울특별시 동작구 신대방동 604-8","openHours":"09:00~18:00","maleToilets":4,"femaleToilets":2,"disabled":true,"diaperTable":false,"emergencyBell":true,"cctv":false,"managerTel":"028202808","source":"public","category":"public"},{"id":"202431900000100112","name":"도림천 공중화장실","lat":37.486526,"lng":126.91014,"jibunAddr":"서울특별시 동작구 신대방동 702-8","openHours":"상시","maleToilets":1,"femaleToilets":1,"disabled":true,"diaperTable":true,"emergencyBell":true,"cctv":true,"managerTel":"028209143","source":"public","category":"public"},{"id":"202331900000100090","name":"sk네트워크 21세기주유소","lat":37.487084,"lng":126.905639,"roadAddr":"서울특별시 동작구 시흥대로 616 (신대방동, 21세기주유소)","openHours":"00:00~24:00","maleToilets":3,"femaleToilets":1,"disabled":false,"diaperTable":false,"emergencyBell":false,"cctv":false,"source":"public","category":"public"},{"id":"202431900000100047","name":"신대방1동주민센터 화장실","lat":37.488945,"lng":126.910039,"roadAddr":"서울특별시 동작구 신대방길 72","jibunAddr":"서울특별시 동작구 신대방동 604-8","openHours":"정시","maleToilets":4,"femaleToilets":2,"disabled":true,"diaperTable":false,"emergencyBell":true,"cctv":false,"managerTel":"028202808","source":"public","category":"public"},{"id":"202432000000100253","name":"1-2 신대방역 공중화장실","lat":37.487302,"lng":126.9135,"roadAddr":"서울특별시 관악구 난곡로 374","jibunAddr":"서울특별시 관악구 신림동 516","openHours":"상시","maleToilets":4,"femaleToilets":4,"disabled":true,"diaperTable":true,"emergencyBell":true,"cctv":true,"managerTel":"028796274","source":"public","category":"public"},{"id":"202439000000100328","name":"안양천 공중화장실(철산주공13단지)","lat":37.488295,"lng":126.870264,"roadAddr":"경기도 광명시 안양천서자전거길 854","jibunAddr":"경기도 광명시 철산동 459(철산주공13단지)","openHours":"정시","maleToilets":3,"femaleToilets":3,"disabled":true,"diaperTable":true,"emergencyBell":true,"cctv":false,"managerTel":"0226802985","source":"public","category":"public"}]