[{"id":"202435105000100792","name":"인천종합버스터미널","lat":37.442506,"lng":126.701519,"roadAddr":"인천광역시 미추홀구 연남로 35, 인천종합터미널,롯데백화점 (관교동)","jibunAddr":"인천광역시 미추홀구 관교동 15 인천종합터미널,롯데백화점","openHours":"상시","maleToilets":42,"femaleToilets":32,"disabled":true,"diaperTable":false,"emergencyBell":false,"cctv":true,"managerTel":"0324258780","source":"public","category":"public"},{"id":"202435105000100664","name":"롯데백화점 인천터미널점 1F","lat":37.442506,"lng":126.701519,"roadAddr":"인천광역시 미추홀구 연남로 35","jibunAddr":"인천광역시 미추홀구 관교동 15","openHours":"상시","maleToilets":3,"femaleToilets":12,"disabled":true,"diaperTable":true,"emergencyBell":true,"cctv":false,"managerTel":"0322422816","source":"public","category":"public"},{"id":"202435105000100885","name":"인천경원초등학교","lat":37.461366,"lng":126.695769,"roadAddr":"인천광역시 미추홀구 경인로 511","jibunAddr":"인천광역시 미추홀구 주안동 1620","openHours":"상시","maleToilets":0,"femaleToilets":0,"disabled":false,"diaperTable":false,"emergencyBell":false,"cctv":false,"source":"public","category":"public"},{"id":"202435105000100776","name":"인천미추홀소방서관교119안전센터","lat":37.444309,"lng":126.69659,"roadAddr":"인천광역시 미추홀구 인하로 450","jibunAddr":"인천광역시 미추홀구 관교동 13-1","openHours":"상시","maleToilets":1,"femaleToilets":1,"disabled":true,"diaperTable":false,"emergencyBell":false,"cctv":false,"source":"public","category":"public"},{"id":"202435105000100797","name":"인천터미널역","lat":37.442506,"lng":126.701519,"roadAddr":"인천광역시 미추홀구 연남로 35, 인천종합터미널,롯데백화점 (관교동)","jibunAddr":"인천광역시 미추홀구 관교동 15 인천종합터미널,롯데백화점","openHours":"상시","maleToilets":8,"femaleToilets":4,"disabled":true,"diaperTable":true,"emergencyBell":true,"cctv":true,"managerTel":"0324413126","source":"public","category":"public"},{"id":"202435105000100646","name":"관교동 행정복지센터","lat":37.444179,"lng":126.696809,"roadAddr":"인천광역시 미추홀구 인하로 452 (관교동, 관교동행정복지센터)","jibunAddr":"인천광역시 미추홀구 관교동 13-1","openHours":"상시","maleToilets":4,"femaleToilets":2,"disabled":true,"diaperTable":false,"emergencyBell":false,"cctv":false,"managerTel":"0327286483","source":"public","category":"public"},{"id":"202435105000100637","name":"(주)한진 인천터미널주유소","lat":37.442506,"lng":126.701519,"roadAddr":"인천광역시 미추홀구 연남로 35 (관교동)","jibunAddr":"인천광역시 미추홀구 관교동 15","openHours":"상시","maleToilets":4,"femaleToilets":2,"disabled":false,"diaperTable":false,"emergencyBell":false,"cctv":false,"source":"public","category":"public"},{"id":"202435105000100645","name":"관교도서관","lat":37.444179,"lng":126.696809,"roadAddr":"인천광역시 미추홀구 인하로 452 (관교동, 관교동주민센터)","jibunAddr":"인천광역시 미추홀구 관교동 13-1","openHours":"10:00~22:00","maleToilets":3,"femaleToilets":2,"disabled":false,"diaperTable":false,"emergencyBell":false,"cctv":true,"managerTel":"0324218630","source":"public","category":"public"},{"id":"202435300000101178","name":"만수주공쇼핑센터","lat":37.455554,"lng":126.733374,"roadAddr":"인천광역시 남동구 백범로124번길 7","jibunAddr":"인천광역시 남동구 만수동 40","openHours":"상시","maleToilets":5,"femaleToilets":3,"disabled":false,"diaperTable":false,"emergencyBell":false,"cctv":true,"source":"public","category":"public"},{"id":"202435300000101205","name":"정해네트웍스(주)남동주유소지점","lat":37.44956,"lng":126.716176,"roadAddr":"인천광역시 남동구 인주대로 709, GS칼텍스 (구월동)","jibunAddr":"인천광역시 남동구 구월동 1221-10 GS칼텍스","openHours":"상시","maleToilets":3,"femaleToilets":1,"disabled":false,"diaperTable":false,"emergencyBell":false,"cctv":false,"managerTel":"0324536124","source":"public","category":"public"},{"id":"202435300000101157","name":"간석자유시장","lat":37.464109,"lng":126.715004,"roadAddr":"인천광역시 남동구 백범로 312-45","jibunAddr":"인천광역시 남동구 간석동 41-45","openHours":"08:00~21:00","maleToilets":7,"femaleToilets":6,"disabled":true,"diaperTable":false,"emergencyBell":true,"cctv":false,"managerTel":"0324532668","source":"public","category":"public"},{"id":"202435300000101152","name":"만수3동 행정복지센터","lat":37.461963,"lng":126.723005,"roadAddr":"인천광역시 남동구 서판로 11","jibunAddr":"인천광역시 남동구 만수동 847-1","openHours":"09:00~18:00","maleToilets":11,"femaleToilets":12,"disabled":true,"diaperTable":false,"emergencyBell":true,"cctv":false,"managerTel":"0324535420","source":"public","category":"public"},{"id":"202535300000100003","name":"작은구월어린이공원","lat":37.449907,"lng":126.720932,"roadAddr":"인천광역시 남동구 인주대로751번길 18 (구월동, 가든빌라)","jibunAddr":"인천광역시 남동구 구월동 1281 가든빌라","openHours":"상시","maleToilets":2,"femaleToilets":3,"disabled":true,"diaperTable":true,"emergencyBell":true,"cctv":true,"source":"public","category":"public"},{"id":"202435300000101103","name":"모래내어린이공원","lat":37.45451,"lng":126.72354,"roadAddr":"인천광역시 남동구 호구포로810번길 73","jibunAddr":"인천광역시 남동구 구월동 1258번지 4호","openHours":"상시","maleToilets":4,"femaleToilets":3,"disabled":false,"diaperTable":false,"emergencyBell":true,"cctv":true,"managerTel":"0324536145","source":"public","category":"public"},{"id":"202435300000101121","name":"반월어린이공원","lat":37.446944,"lng":126.695141,"roadAddr":"인천광역시 남동구 문화서로3번길 22-18","jibunAddr":"인천광역시 남동구 구월동 1390번지","openHours":"상시","maleToilets":3,"femaleToilets":0,"disabled":false,"diaperTable":false,"emergencyBell":true,"cctv":true,"managerTel":"0324536145","source":"public","category":"public"},{"id":"202535300000100011","name":"인천남동경찰서","lat":37.442391,"lng":126.707416,"roadAddr":"인천광역시 남동구 남동대로 668, 인천남동경찰서 (구월동)","jibunAddr":"인천광역시 남동구 구월동 1447-2 인천남동경찰서","openHours":"09:00~18:00","maleToilets":4,"femaleToilets":4,"disabled":true,"diaperTable":false,"emergencyBell":true,"cctv":true,"managerTel":"0327189577","source":"public","category":"public"},{"id":"202435300000101250","name":"만수역","lat":37.454962,"lng":126.731904,"roadAddr":"인천광역시 남동구 구월로 367","jibunAddr":"인천광역시 남동구 만수동 993","openHours":"05:00~01:00","maleToilets":5,"femaleToilets":5,"disabled":true,"diaperTable":true,"emergencyBell":true,"cctv":true,"managerTel":"0324514324","source":"public","category":"public"},{"id":"202435300000101247","name":"인천시청역(인천2호선)","lat":37.456881,"lng":126.701302,"roadAddr":"인천광역시 남동구 구월로 지하99","jibunAddr":"인천광역시 남동구 간석동 493-27","openHours":"05:00~01:00","maleToilets":5,"femaleToilets":6,"disabled":true,"diaperTable":true,"emergencyBell":true,"cctv":true,"managerTel":"0324514321","source":"public","category":"public"},{"id":"202435300000101246","name":"예술회관역","lat":37.449446,"lng":126.701163,"roadAddr":"인천광역시 남동구 예술로 지하172","jibunAddr":"인천광역시 남동구 구월동 1408","openHours":"05:00~01:00","maleToilets":11,"femaleToilets":14,"disabled":true,"diaperTable":true,"emergencyBell":true,"cctv":true,"managerTel":"0324513125","source":"public","category":"public"},{"id":"202435300000101063","name":"인천광역시청(본관)","lat":37.45605,"lng":126.705256,"roadAddr":"인천광역시 남동구 정각로 29","jibunAddr":"인천광역시 남동구 구월동 1138","openHours":"09:00~18:00","maleToilets":63,"femaleToilets":31,"disabled":true,"diaperTable":false,"emergencyBell":true,"cctv":false,"managerTel":"0324408415","source":"public","category":"public"},{"id":"202435300000101145","name":"남동구보건소","lat":37.447388,"lng":126.730677,"roadAddr":"인천광역시 남동구 소래로 633","jibunAddr":"인천광역시 남동구 만수동 1008","openHours":"09:00~18:00","maleToilets":20,"femaleToilets":20,"disabled":true,"diaperTable":false,"emergencyBell":true,"cctv":false,"managerTel":"0324535074","source":"public","category":"public"},{"id":"202435300000101060","name":"인천광역시청(시민화장실)","lat":37.45605,"lng":126.705256,"roadAddr":"인천광역시 남동구 정각로 29","jibunAddr":"인천광역시 남동구 구월동 1138","openHours":"00:00~24:00","maleToilets":6,"femaleToilets":7,"disabled":true,"diaperTable":true,"emergencyBell":true,"cctv":false,"managerTel":"0324408415","source":"public","category":"public"},{"id":"202435300000101125","name":"구월도매시장 공영주차장","lat":37.444406,"lng":126.704324,"roadAddr":"인천광역시 남동구 성말로32번길 19","jibunAddr":"인천광역시 남동구 구월동 1171번지 3호","openHours":"상시","maleToilets":2,"femaleToilets":1,"disabled":true,"diaperTable":false,"emergencyBell":true,"cctv":true,"managerTel":"0324600530","source":"public","category":"public"},{"id":"202435300000101061","name":"인천광역시청(통합데이터센터)","lat":37.45605,"lng":126.705256,"roadAddr":"인천광역시 남동구 정각로 29","jibunAddr":"인천광역시 남동구 구월동 1138","openHours":"09:00~18:00","maleToilets":21,"femaleToilets":17,"disabled":true,"diaperTable":false,"emergencyBell":true,"cctv":false,"managerTel":"0324408415","source":"public","category":"public"},{"id":"202435300000101025","name":"만월지구대","lat":37.443803,"lng":126.737299,"roadAddr":"인천광역시 남동구 장승남로47번길 7","jibunAddr":"인천광역시 남동구 만수동 1019-2","openHours":"상시","maleToilets":2,"femaleToilets":1,"disabled":true,"diaperTable":false,"emergencyBell":false,"cctv":false,"managerTel":"0324549301","source":"public","category":"public"},{"id":"202435300000101020","name":"인천고용복지플러스센터","lat":37.45068,"lng":126.699288,"roadAddr":"인천광역시 남동구 문화로 131, 대용빌딩 (구월동)","jibunAddr":"인천광역시 남동구 구월동 1112 대용빌딩","openHours":"05:00~01:00","maleToilets":30,"femaleToilets":18,"disabled":true,"diaperTable":true,"emergencyBell":true,"cctv":true,"managerTel":"0324604859","source":"public","category":"public"},{"id":"202435300000101347","name":"중앙공원 1지구","lat":37.464316,"lng":126.701353,"roadAddr":"인천광역시 남동구 경인로 579, 희망의숲 공중화장실 (간석동)","jibunAddr":"인천광역시 남동구 간석동 366 희망의숲 공중화장실","openHours":"상시","maleToilets":4,"femaleToilets":4,"disabled":true,"diaperTable":false,"emergencyBell":true,"cctv":true,"managerTel":"0324405878","source":"public","category":"public"},{"id":"202435300000101127","name":"남동국민체육센터","lat":37.457908,"lng":126.736388,"roadAddr":"인천광역시 남동구 백범로124번길 94","jibunAddr":"인천광역시 남동구 만수동 15번지","openHours":"06:00~21:30","maleToilets":12,"femaleToilets":11,"disabled":true,"diaperTable":true,"emergencyBell":true,"cctv":false,"managerTel":"0324600600","source":"public","category":"public"},{"id":"202435300000101244","name":"간석오거리역","lat":37.466646,"lng":126.708161,"roadAddr":"인천광역시 남동구 경인로 지하642","jibunAddr":"인천광역시 남동구 간석동 239-3","openHours":"05:00~01:00","maleToilets":5,"femaleToilets":8,"disabled":true,"diaperTable":true,"emergencyBell":true,"cctv":true,"managerTel":"0324513123","source":"public","category":"public"},{"id":"202435300000101186","name":"구월1동 행정복지센터","lat":37.447651,"lng":126.712493,"roadAddr":"인천광역시 남동구 선수촌공원로 104","jibunAddr":"인천광역시 남동구 구월동 1484","openHours":"(평일)08:30~18:00","maleToilets":16,"femaleToilets":16,"disabled":true,"diaperTable":false,"emergencyBell":true,"cctv":true,"managerTel":"0324535220","source":"public","category":"public"},{"id":"202435300000101361","name":"성우네오빌","lat":37.467903,"lng":126.700188,"roadAddr":"인천광역시 남동구 백범로 457, 성우네오빌 (간석동)","jibunAddr":"인천광역시 남동구 간석동 573-1 성우네오빌","openHours":"상시","maleToilets":4,"femaleToilets":2,"disabled":false,"diaperTable":false,"emergencyBell":false,"cctv":false,"source":"public","category":"public"},{"id":"202435300000101078","name":"아단어린이공원","lat":37.456065,"lng":126.732848,"roadAddr":"인천광역시 남동구 만수로 14-64","jibunAddr":"인천광역시 남동구 만수동 37번지","openHours":"상시","maleToilets":2,"femaleToilets":0,"disabled":false,"diaperTable":false,"emergencyBell":true,"cctv":true,"managerTel":"0324536145","source":"public","category":"public"},{"id":"202435300000101256","name":"㈜ 가스코 제일충전소","lat":37.46706,"lng":126.705911,"roadAddr":"인천광역시 남동구 백범로 409","jibunAddr":"인천광역시 남동구 간석동 238-1","openHours":"상시","maleToilets":2,"femaleToilets":1,"disabled":false,"diaperTable":false,"emergencyBell":false,"cctv":true,"source":"public","category":"public"},{"id":"202435300000101362","name":"장승백이상가(5동)","lat":37.44567,"lng":126.735833,"roadAddr":"인천광역시 남동구 장승로 25, 장승백이상가 (만수동)","jibunAddr":"인천광역시 남동구 만수동 1087 장승백이상가","openHours":"상시","maleToilets":6,"femaleToilets":4,"disabled":false,"diaperTable":false,"emergencyBell":true,"cctv":true,"managerTel":"0324711216","source":"public","category":"public"},{"id":"202435300000101022","name":"하촌어린이공원","lat":37.451374,"lng":126.73296,"roadAddr":"인천광역시 남동구 하촌로 40-7","jibunAddr":"인천광역시 남동구 만수동 969","openHours":"상시","maleToilets":4,"femaleToilets":3,"disabled":false,"diaperTable":false,"emergencyBell":true,"cctv":true,"managerTel":"0324536145","source":"public","category":"public"},{"id":"202435300000101196","name":"현대주유소","lat":37.452482,"lng":126.736461,"roadAddr":"인천광역시 남동구 백범로 85 (만수동)","jibunAddr":"인천광역시 남동구 만수동 387-7","openHours":"05:00~24:00","maleToilets":3,"femaleToilets":1,"disabled":false,"diaperTable":false,"emergencyBell":false,"cctv":false,"managerTel":"0324536124","source":"public","category":"public"},{"id":"202435300000101208","name":"(주)석산에너지 도지주유소","lat":37.468483,"lng":126.69859,"roadAddr":"인천광역시 남동구 백범로 471","jibunAddr":"인천광역시 남동구 간석4동570-4","openHours":"05:00~23:00","maleToilets":4,"femaleToilets":1,"disabled":false,"diaperTable":false,"emergencyBell":false,"cctv":false,"managerTel":"0324536124","source":"public","category":"public"},{"id":"202435300000101206","name":"보문주유소","lat":37.462595,"lng":126.700732,"roadAddr":"인천광역시 남동구 경인로 558, 보문주유소 (간석동)","jibunAddr":"인천광역시 남동구 간석동 542-1 보문주유소","openHours":"05:00~24:00","maleToilets":2,"femaleToilets":1,"disabled":false,"diaperTable":false,"emergencyBell":false,"cctv":false,"managerTel":"0324536124","source":"public","category":"public"},{"id":"202435300000101151","name":"남동구청 차량등록민원실","lat":37.447388,"lng":126.730677,"roadAddr":"인천광역시 남동구 소래로 633","jibunAddr":"인천광역시 남동구 만수동 1008","openHours":"상시","maleToilets":11,"femaleToilets":8,"disabled":true,"diaperTable":true,"emergencyBell":true,"cctv":true,"managerTel":"0324532273","source":"public","category":"public"},{"id":"202435300000101067","name":"만수2동 행정복지센터","lat":37.46139,"lng":126.731161,"roadAddr":"인천광역시 남동구 만수서로 46","jibunAddr":"인천광역시 남동구 만수동 1116번지 2호","openHours":"09:00~18:00","maleToilets":15,"femaleToilets":15,"disabled":true,"diaperTable":true,"emergencyBell":true,"cctv":false,"managerTel":"0324535403","source":"public","category":"public"},{"id":"202435300000101251","name":"남동구청역","lat":37.448172,"lng":126.736636,"roadAddr":"인천광역시 남동구 인주대로 지하889","jibunAddr":"인천광역시 남동구 만수동 1006","openHours":"05:00~익일01:00","maleToilets":5,"femaleToilets":5,"disabled":true,"diaperTable":true,"emergencyBell":true,"cctv":true,"managerTel":"0324514325","source":"public","category":"public"},{"id":"202435300000101038","name":"문화예술회관(야외화장실)","lat":37.447589,"lng":126.700056,"roadAddr":"인천광역시 남동구 예술로 149","jibunAddr":"인천광역시 남동구 구월동 1408","openHours":"상시","maleToilets":9,"femaleToilets":5,"disabled":true,"diaperTable":false,"emergencyBell":true,"cctv":true,"managerTel":"0324202723","source":"public","category":"public"},{"id":"202435300000101191","name":"남동문화체육광장(2호)","lat":37.443947,"lng":126.733415,"roadAddr":"인천광역시 남동구 장승남로 11","jibunAddr":"인천광역시 남동구 만수동 834-10","openHours":"06:00~22:00","maleToilets":2,"femaleToilets":1,"disabled":false,"diaperTable":true,"emergencyBell":true,"cctv":false,"managerTel":"0324536280","source":"public","category":"public"},{"id":"202435300000101076","name":"남동어린이공원","lat":37.444588,"lng":126.737994,"roadAddr":"인천광역시 남동구 담방로47번길 14-14","jibunAddr":"인천광역시 남동구 만수동 1022-4","openHours":"상시","maleToilets":3,"femaleToilets":2,"disabled":true,"diaperTable":false,"emergencyBell":true,"cctv":true,"managerTel":"0324536145","source":"public","category":"public"},{"id":"202435300000101149","name":"구월4동 행정복지센터","lat":37.449659,"lng":126.724082,"roadAddr":"인천광역시 남동구 구월말로 7","jibunAddr":"인천광역시 남동구 구월동 1296-6","openHours":"09:00~18:00","maleToilets":4,"femaleToilets":3,"disabled":false,"diaperTable":false,"emergencyBell":true,"cctv":false,"managerTel":"0324535282","source":"public","category":"public"},{"id":"202435300000101165","name":"만수6동 행정복지센터","lat":37.443767,"lng":126.737651,"roadAddr":"인천광역시 남동구 장승남로 47","jibunAddr":"인천광역시 남동구 만수동 1020","openHours":"09:00~18:00","maleToilets":3,"femaleToilets":1,"disabled":true,"diaperTable":false,"emergencyBell":true,"cctv":false,"managerTel":"0324535480","source":"public","category":"public"},{"id":"202435300000101136","name":"국가데이터처 인천사무소","lat":37.44616,"lng":126.703451,"roadAddr":"인천광역시 남동구 인하로507번길 66","jibunAddr":"인천광역시 남동구 구월동 1460번지","openHours":"09:00~18:00","maleToilets":15,"femaleToilets":8,"disabled":true,"diaperTable":false,"emergencyBell":true,"cctv":false,"managerTel":"0324602512","source":"public","category":"public"},{"id":"202435300000101188","name":"만수4동 행정복지센터","lat":37.459475,"lng":126.735621,"roadAddr":"인천광역시 남동구 만수로50번길 39","jibunAddr":"인천광역시 남동구 만수동 21","openHours":"(평일)08:30~18:00","maleToilets":7,"femaleToilets":4,"disabled":true,"diaperTable":true,"emergencyBell":true,"cctv":false,"managerTel":"0324535448","source":"public","category":"public"},{"id":"202435300000101158","name":"구월시장","lat":37.453369,"lng":126.720268,"roadAddr":"인천광역시 남동구 호구포로790번길 21-13","jibunAddr":"인천광역시 남동구 구월동 1266-5","openHours":"상시","maleToilets":5,"femaleToilets":4,"disabled":true,"diaperTable":true,"emergencyBell":true,"cctv":false,"managerTel":"0324532668","source":"public","category":"public"},{"id":"202435300000101044","name":"중앙공원 3지구","lat":37.459684,"lng":126.701461,"roadAddr":"인천광역시 남동구 문화로 232, 중앙근린공원 공중화장실 (간석동)","jibunAddr":"인천광역시 남동구 간석동 491-1 중앙근린공원 공중화장실","openHours":"상시","maleToilets":5,"femaleToilets":3,"disabled":true,"diaperTable":false,"emergencyBell":true,"cctv":true,"managerTel":"0324405878","source":"public","category":"public"},{"id":"202435300000101132","name":"만수지구대","lat":37.461433,"lng":126.733669,"roadAddr":"인천광역시 남동구 만수서로 68, 만수지구대 (만수동)","jibunAddr":"인천광역시 남동구 만수동 1119-2 만수지구대","openHours":"상시","maleToilets":1,"femaleToilets":0,"disabled":true,"diaperTable":true,"emergencyBell":true,"cctv":true,"managerTel":"0327189171","source":"public","category":"public"},{"id":"202435300000101352","name":"신비프라자","lat":37.446629,"lng":126.734236,"roadAddr":"인천광역시 남동구 장승로 9","jibunAddr":"인천광역시 남동구 만수동 1076-7","openHours":"상시","maleToilets":3,"femaleToilets":1,"disabled":true,"diaperTable":false,"emergencyBell":false,"cctv":false,"managerTel":"0324713743","source":"public","category":"public"},{"id":"202435300000101179","name":"경복빌딩","lat":37.465323,"lng":126.705122,"roadAddr":"인천광역시 남동구 경인로 607","jibunAddr":"인천광역시 남동구 간석동 250-3","openHours":"상시","maleToilets":3,"femaleToilets":1,"disabled":false,"diaperTable":false,"emergencyBell":false,"cctv":false,"source":"public","category":"public"},{"id":"202435300000101042","name":"중앙공원 5지구","lat":37.450663,"lng":126.700299,"roadAddr":"인천광역시 남동구 문화로 130, 중앙공원 공중화장실 (구월동)","jibunAddr":"인천광역시 남동구 구월동 180-5 중앙공원 공중화장실","openHours":"상시","maleToilets":4,"femaleToilets":4,"disabled":true,"diaperTable":false,"emergencyBell":true,"cctv":true,"managerTel":"0324405878","source":"public","category":"public"},{"id":"202435300000101181","name":"동호프라자","lat":37.455871,"lng":126.714956,"roadAddr":"인천광역시 남동구 용천로 70","jibunAddr":"인천광역시 남동구 구월동 25","openHours":"상시","maleToilets":6,"femaleToilets":3,"disabled":false,"diaperTable":false,"emergencyBell":false,"cctv":false,"source":"public","category":"public"},{"id":"202435300000101249","name":"모래내시장역","lat":37.45588,"lng":126.719514,"roadAddr":"인천광역시 남동구 구월로 지하255","jibunAddr":"인천광역시 남동구 구월동 341-6","openHours":"05:00~01:00","maleToilets":4,"femaleToilets":6,"disabled":true,"diaperTable":true,"emergencyBell":true,"cctv":true,"managerTel":"0324514323","source":"public","category":"public"},{"id":"202435300000101064","name":"인천도서관","lat":37.447047,"lng":126.72487,"roadAddr":"인천광역시 남동구 인주대로776번길 53","jibunAddr":"인천광역시 남동구 구월동 610-4","openHours":"06:00-22:00","maleToilets":32,"femaleToilets":34,"disabled":true,"diaperTable":false,"emergencyBell":true,"cctv":true,"managerTel":"0324406619","source":"public","category":"public"},{"id":"202435300000101169","name":"탑프라자","lat":37.460754,"lng":126.697036,"roadAddr":"인천광역시 남동구 경인로 520","jibunAddr":"인천광역시 남동구 간석동 520","openHours":"상시","maleToilets":5,"femaleToilets":2,"disabled":true,"diaperTable":false,"emergencyBell":false,"cctv":true,"source":"public","category":"public"},{"id":"202435300000101059","name":"인천광역시청(신관)","lat":37.4544,"lng":126.707771,"roadAddr":"인천광역시 남동구 남동대로 809","jibunAddr":"인천광역시 남동구 구월동 1608","openHours":"09:00~18:00","maleToilets":66,"femaleToilets":33,"disabled":false,"diaperTable":true,"emergencyBell":true,"cctv":false,"managerTel":"0324402655","source":"public","category":"public"},{"id":"202435300000101148","name":"구월4동 무료급식센터","lat":37.449659,"lng":126.724082,"roadAddr":"인천광역시 남동구 구월말로 7","jibunAddr":"인천광역시 남동구 구월동 1296-6","openHours":"09:00~18:00","maleToilets":2,"femaleToilets":1,"disabled":true,"diaperTable":false,"emergencyBell":true,"cctv":false,"managerTel":"0324535282","source":"public","category":"public"},{"id":"202435300000101245","name":"인천시청역(인천1호선)","lat":37.457419,"lng":126.702342,"roadAddr":"인천광역시 남동구 예술로 지하264","jibunAddr":"인천광역시 남동구 간석동 927","openHours":"05:00~01:00","maleToilets":13,"femaleToilets":14,"disabled":true,"diaperTable":true,"emergencyBell":true,"cctv":false,"managerTel":"0324513124","source":"public","category":"public"},{"id":"202435300000101172","name":"뉴인천빌딩","lat":37.449926,"lng":126.713907,"roadAddr":"인천광역시 남동구 용천로 3","jibunAddr":"인천광역시 남동구 구월동 1219-5","openHours":"상시","maleToilets":4,"femaleToilets":2,"disabled":false,"diaperTable":false,"emergencyBell":false,"cctv":true,"source":"public","category":"public"},{"id":"202435300000101156","name":"만수시장","lat":37.460047,"lng":126.731784,"roadAddr":"인천광역시 남동구 만수로27번길 10-11","jibunAddr":"인천광역시 남동구 만수동 868-26","openHours":"08:00~21:00","maleToilets":10,"femaleToilets":10,"disabled":true,"diaperTable":true,"emergencyBell":true,"cctv":false,"managerTel":"0324532668","source":"public","category":"public"},{"id":"202435300000101185","name":"장승백이상가(1동)","lat":37.446922,"lng":126.735735,"roadAddr":"인천광역시 남동구 인주대로888번길 27","jibunAddr":"인천광역시 남동구 만수동 1082","openHours":"상시","maleToilets":6,"femaleToilets":3,"disabled":false,"diaperTable":false,"emergencyBell":true,"cctv":false,"source":"public","category":"public"},{"id":"202435300000101028","name":"구월게이트볼장","lat":37.457375,"lng":126.718899,"roadAddr":"인천광역시 남동구 구월로251","jibunAddr":"인천광역시 남동구 구월동 1246","openHours":"06:00~22:00","maleToilets":8,"femaleToilets":4,"disabled":true,"diaperTable":false,"emergencyBell":true,"cctv":false,"managerTel":"0324536280","source":"public","category":"public"},{"id":"202435300000101105","name":"구월체육시설(신) 공원화장실","lat":37.457375,"lng":126.718899,"roadAddr":"인천광역시 남동구 구월로 251","jibunAddr":"인천광역시 남동구 구월동 1246","openHours":"상시","maleToilets":8,"femaleToilets":3,"disabled":true,"diaperTable":false,"emergencyBell":true,"cctv":false,"managerTel":"0324536280","source":"public","category":"public"},{"id":"202435300000101202","name":"인주대로주유소","lat":37.448097,"lng":126.732629,"roadAddr":"인천광역시 남동구 인주대로 858 (만수동)","jibunAddr":"인천광역시 남동구 만수동 984-3","openHours":"05:00~01:00","maleToilets":2,"femaleToilets":0,"disabled":false,"diaperTable":false,"emergencyBell":false,"cctv":false,"managerTel":"0324536124","source":"public","category":"public"},{"id":"202435300000101268","name":"인천남동소방서","lat":37.448881,"lng":126.716892,"roadAddr":"인천광역시 남동구 인주대로 714","jibunAddr":"인천광역시 남동구 구월동 300-40","openHours":"09:00~18:00","maleToilets":21,"femaleToilets":6,"disabled":false,"diaperTable":false,"emergencyBell":true,"cctv":false,"managerTel":"0328705245","source":"public","category":"public"},{"id":"202435300000101039","name":"문화예술회관","lat":37.447589,"lng":126.700056,"roadAddr":"인천광역시 남동구 예술로 149","jibunAddr":"인천광역시 남동구 구월동 1408","openHours":"대/소공연장 공연시","maleToilets":47,"femaleToilets":67,"disabled":true,"diaperTable":true,"emergencyBell":true,"cctv":true,"managerTel":"0324202723","source":"public","category":"public"},{"id":"202435300000101153","name":"간석지구대","lat":37.460463,"lng":126.711728,"roadAddr":"인천광역시 남동구 석산로 176","jibunAddr":"인천광역시 남동구 간석동 939-1","openHours":"상시","maleToilets":3,"femaleToilets":1,"disabled":true,"diaperTable":false,"emergencyBell":false,"cctv":false,"managerTel":"0327189173","source":"public","category":"public"},{"id":"202435300000101170","name":"세계로기업","lat":37.452287,"lng":126.699505,"roadAddr":"인천광역시 남동구 문화로 147","jibunAddr":"인천광역시 남동구 구월동 1092-55","openHours":"상시","maleToilets":5,"femaleToilets":2,"disabled":true,"diaperTable":false,"emergencyBell":false,"cctv":false,"source":"public","category":"public"},{"id":"202435300000101068","name":"석촌근린공원","lat":37.471718,"lng":126.710971,"roadAddr":"인천광역시 남동구 경인로742번길 102, 석촌근린공원 공중화장실 (간석동)","jibunAddr":"인천광역시 남동구 간석동 5 석촌근린공원 공중화장실","openHours":"상시","maleToilets":7,"femaleToilets":8,"disabled":true,"diaperTable":true,"emergencyBell":true,"cctv":true,"managerTel":"0324536145","source":"public","category":"public"},{"id":"202435300000101193","name":"현대오일뱅크㈜직영 수인주유소","lat":37.46058,"lng":126.720824,"roadAddr":"인천광역시 남동구 백범로 255 (구월동)","jibunAddr":"인천광역시 남동구 구월동 1249-3","openHours":"05:00~23:00","maleToilets":6,"femaleToilets":2,"disabled":false,"diaperTable":false,"emergencyBell":false,"cctv":false,"managerTel":"0324536124","source":"public","category":"public"},{"id":"202435300000101086","name":"이화어린이공원","lat":37.462912,"lng":126.703363,"roadAddr":"인천광역시 남동구 이화로 8 (간석동)","jibunAddr":"인천광역시 남동구 간석동 439","openHours":"상시","maleToilets":4,"femaleToilets":3,"disabled":false,"diaperTable":false,"emergencyBell":true,"cctv":true,"managerTel":"0324536145","source":"public","category":"public"},{"id":"202435300000101031","name":"남동어울림체육관","lat":37.445824,"lng":126.731003,"roadAddr":"인천광역시 남동구 인주대로820번길 75","jibunAddr":"인천광역시 남동구 수산동 8-1","openHours":"06:00~22:00","maleToilets":4,"femaleToilets":2,"disabled":true,"diaperTable":false,"emergencyBell":true,"cctv":false,"managerTel":"0324536280","source":"public","category":"public"},{"id":"202435300000101192","name":"소래샛길 체육시설","lat":37.445824,"lng":126.731003,"roadAddr":"인천광역시 남동구 인주대로820번길 75","jibunAddr":"인천광역시 남동구 수산동 8-1","openHours":"06:00~22:00","maleToilets":2,"femaleToilets":1,"disabled":false,"diaperTable":false,"emergencyBell":true,"cctv":false,"managerTel":"0324536280","source":"public","category":"public"},{"id":"202435300000101122","name":"구월예술어린이공원","lat":37.446705,"lng":126.696963,"roadAddr":"인천광역시 남동구 문화서로4번길 13-18","jibunAddr":"인천광역시 남동구 구월동 1377번지 5호","openHours":"상시","maleToilets":2,"femaleToilets":2,"disabled":true,"diaperTable":true,"emergencyBell":true,"cctv":true,"managerTel":"0324536145","source":"public","category":"public"},{"id":"202435300000101159","name":"인천모래내전통시장","lat":37.453689,"lng":126.721715,"roadAddr":"인천광역시 남동구 모래내로25번길 13, 인천모래내전통시장 공중화장실 (구월동)","jibunAddr":"인천광역시 남동구 구월동 1261-19 인천모래내전통시장 공중화장실","openHours":"08:00~22:00","maleToilets":5,"femaleToilets":5,"disabled":true,"diaperTable":true,"emergencyBell":true,"cctv":false,"managerTel":"0324532668","source":"public","category":"public"},{"id":"202435300000101204","name":"농장주유소","lat":37.468069,"lng":126.721053,"roadAddr":"인천광역시 남동구 만월로 22 (간석동)","jibunAddr":"인천광역시 남동구 간석동 1-485","openHours":"상시","maleToilets":2,"femaleToilets":1,"disabled":false,"diaperTable":false,"emergencyBell":false,"cctv":false,"managerTel":"0324536124","source":"public","category":"public"},{"id":"202435300000101141","name":"부평농장","lat":37.470266,"lng":126.718463,"roadAddr":"인천광역시 남동구 만월북로 40, 부평농장 공중화장실 (간석동)","jibunAddr":"인천광역시 남동구 간석동 1-255 부평농장 공중화장실","openHours":"상시","maleToilets":10,"femaleToilets":5,"disabled":true,"diaperTable":false,"emergencyBell":true,"cctv":true,"managerTel":"0324532342","source":"public","category":"public"},{"id":"202435300000101144","name":"만월산배수지체육광장","lat":37.475237,"lng":126.711208,"roadAddr":"인천광역시 남동구 간석동 평온로 12","jibunAddr":"인천광역시 남동구 간석동 산 19-50","openHours":"06:00~22:00","maleToilets":2,"femaleToilets":2,"disabled":true,"diaperTable":true,"emergencyBell":true,"cctv":false,"managerTel":"0324536280","source":"public","category":"public"},{"id":"202435300000101146","name":"만수1동 행정복지센터","lat":37.448721,"lng":126.731968,"roadAddr":"인천광역시 남동구 인주대로 851","jibunAddr":"인천광역시 남동구 만수동 983-5","openHours":"(평일)09:00-18:00","maleToilets":12,"femaleToilets":8,"disabled":true,"diaperTable":true,"emergencyBell":true,"cctv":false,"managerTel":"0324536343","source":"public","category":"public"},{"id":"202435300000101119","name":"간석3동 행정복지센터","lat":37.466138,"lng":126.71455,"roadAddr":"인천광역시 남동구 용천로 186","jibunAddr":"인천광역시 남동구 간석동 49번지 1호","openHours":"09:00~18:00","maleToilets":14,"femaleToilets":13,"disabled":true,"diaperTable":true,"emergencyBell":true,"cctv":true,"managerTel":"0324535340","source":"public","category":"public"},{"id":"202435300000101123","name":"둥지어린이공원","lat":37.458266,"lng":126.734725,"roadAddr":"인천광역시 남동구 백범로124번길 43","jibunAddr":"인천광역시 남동구 만수동 29번지","openHours":"상시","maleToilets":3,"femaleToilets":0,"disabled":false,"diaperTable":false,"emergencyBell":true,"cctv":true,"managerTel":"0324536145","source":"public","category":"public"},{"id":"202435300000101160","name":"남동구의회","lat":37.447388,"lng":126.730677,"roadAddr":"인천광역시 남동구 소래로 633","jibunAddr":"인천광역시 남동구 만수동 1008","openHours":"09:00~18:00","maleToilets":22,"femaleToilets":8,"disabled":true,"diaperTable":true,"emergencyBell":true,"cctv":false,"managerTel":"0324535025","source":"public","category":"public"},{"id":"202435300000101200","name":"한사랑주유소","lat":37.448611,"lng":126.723212,"roadAddr":"인천광역시 남동구 인주대로 774 (구월동)","jibunAddr":"인천광역시 남동구 구월동 1294-12","openHours":"05:00~24:00","maleToilets":3,"femaleToilets":1,"disabled":false,"diaperTable":false,"emergencyBell":false,"cctv":false,"managerTel":"0324536124","source":"public","category":"public"},{"id":"202435300000101248","name":"석천사거리역","lat":37.45678,"lng":126.710497,"roadAddr":"인천광역시 남동구 구월로 지하181","jibunAddr":"인천광역시 남동구 구월동 73-3","openHours":"05:00~01:00","maleToilets":5,"femaleToilets":5,"disabled":true,"diaperTable":true,"emergencyBell":true,"cctv":false,"managerTel":"0324514322","source":"public","category":"public"},{"id":"202435300000101102","name":"전재울근린공원","lat":37.447078,"lng":126.71569,"roadAddr":"인천광역시 남동구 호구포로 721","jibunAddr":"인천광역시 남동구 구월동 1501번지","openHours":"상시","maleToilets":7,"femaleToilets":5,"disabled":true,"diaperTable":true,"emergencyBell":true,"cctv":true,"managerTel":"0324536145","source":"public","category":"public"},{"id":"202435300000101104","name":"구월체육시설(구) 공원화장실","lat":37.458915,"lng":126.718318,"roadAddr":"인천광역시 남동구 호구포로857번길 23","jibunAddr":"인천광역시 남동구 구월동 1246","openHours":"상시","maleToilets":7,"femaleToilets":3,"disabled":true,"diaperTable":false,"emergencyBell":true,"cctv":false,"managerTel":"0324536280","source":"public","category":"public"},{"id":"202435300000101173","name":"퍼스트하임프라자","lat":37.455365,"lng":126.719668,"roadAddr":"인천광역시 남동구 호구포로 818","jibunAddr":"인천광역시 남동구 구월동 1264","openHours":"상시","maleToilets":7,"femaleToilets":2,"disabled":true,"diaperTable":true,"emergencyBell":false,"cctv":false,"source":"public","category":"public"},{"id":"202635300000100002","name":"인천간석동우체국","lat":37.462602,"lng":126.714297,"roadAddr":"인천광역시 남동구 용천로 145, 간석동우체국 (간석동)","jibunAddr":"인천광역시 남동구 간석동 133-2 간석동우체국","openHours":"09:00~18:00","maleToilets":2,"femaleToilets":0,"disabled":true,"diaperTable":false,"emergencyBell":true,"cctv":true,"managerTel":"0324212005","source":"public","category":"public"},{"id":"202435300000101189","name":"남동종합문화체육광장(3호)1","lat":37.441705,"lng":126.733867,"roadAddr":"인천광역시 남동구 장승남로 12","jibunAddr":"인천광역시 남동구 만수동 834-10","openHours":"06:00~22:00","maleToilets":4,"femaleToilets":2,"disabled":false,"diaperTable":false,"emergencyBell":true,"cctv":false,"managerTel":"0324536280","source":"public","category":"public"},{"id":"202435300000101081","name":"구월문화어린이공원","lat":37.448753,"lng":126.698031,"roadAddr":"인천광역시 남동구 문화서로28번길 33-31","jibunAddr":"인천광역시 남동구 구월동 1350번지","openHours":"상시","maleToilets":2,"femaleToilets":0,"disabled":false,"diaperTable":false,"emergencyBell":true,"cctv":true,"managerTel":"0324536145","source":"public","category":"public"},{"id":"202435300000101164","name":"만수5동 행정복지센터","lat":37.457951,"lng":126.727774,"roadAddr":"인천광역시 남동구 만경로28번길 3","jibunAddr":"인천광역시 남동구 만수동 876","openHours":"09:00~18:00","maleToilets":12,"femaleToilets":11,"disabled":true,"diaperTable":true,"emergencyBell":true,"cctv":false,"managerTel":"0324535460","source":"public","category":"public"},{"id":"202435300000101099","name":"남동문화근린공원","lat":37.446516,"lng":126.726148,"roadAddr":"인천광역시 남동구 경신상로 28, 남동문화근린공원 (구월동)","jibunAddr":"인천광역시 남동구 구월동 620-13 남동문화근린공원","openHours":"상시","maleToilets":7,"femaleToilets":7,"disabled":true,"diaperTable":true,"emergencyBell":true,"cctv":true,"managerTel":"0324536145","source":"public","category":"public"},{"id":"202435300000101116","name":"간석2동 행정복지센터","lat":37.463982,"lng":126.710944,"roadAddr":"인천광역시 남동구 남동대로916번길 47","jibunAddr":"인천광역시 남동구 간석동 167번지 8호","openHours":"09:00~18:00","maleToilets":8,"femaleToilets":12,"disabled":true,"diaperTable":false,"emergencyBell":true,"cctv":false,"managerTel":"0324535322","source":"public","category":"public"},{"id":"202435300000101348","name":"구월지웰시티 푸르지오","lat":37.454395,"lng":126.707188,"roadAddr":"인천광역시 남동구 남동대로799번길 34","jibunAddr":"인천광역시 남동구 구월동 1608","openHours":"상시","maleToilets":16,"femaleToilets":16,"disabled":false,"diaperTable":false,"emergencyBell":false,"cctv":false,"managerTel":"0324299240","source":"public","category":"public"},{"id":"202435300000101212","name":"KH에너지㈜ 직영 문광주유소","lat":37.467354,"lng":126.704209,"roadAddr":"인천광역시 남동구 백범로 423, 문광주유소 (간석동)","jibunAddr":"인천광역시 남동구 간석동 237-2 문광주유소","openHours":"상시","maleToilets":4,"femaleToilets":2,"disabled":false,"diaperTable":false,"emergencyBell":false,"cctv":false,"managerTel":"0324536124","source":"public","category":"public"},{"id":"202435300000101162","name":"구월3동 행정복지센터","lat":37.452693,"lng":126.696941,"roadAddr":"인천광역시 남동구 문화서로 84","jibunAddr":"인천광역시 남동구 구월동 1098-7","openHours":"(평일)09:00~18:00","maleToilets":12,"femaleToilets":6,"disabled":true,"diaperTable":false,"emergencyBell":true,"cctv":false,"managerTel":"0324535260","source":"public","category":"public"},{"id":"202435300000101232","name":"구월아시아드주유소","lat":37.447173,"lng":126.718104,"roadAddr":"인천광역시 남동구 호구포로 725","jibunAddr":"인천광역시 남동구 구월동 1506","openHours":"상시","maleToilets":3,"femaleToilets":1,"disabled":false,"diaperTable":false,"emergencyBell":false,"cctv":false,"managerTel":"0324536124","source":"public","category":"public"},{"id":"202435300000101213","name":"신화상사㈜주원고개주유소","lat":37.462888,"lng":126.699221,"roadAddr":"인천광역시 남동구 주안로 264 (간석동)","jibunAddr":"인천광역시 남동구 간석동 527-4","openHours":"상시","maleToilets":3,"femaleToilets":2,"disabled":false,"diaperTable":false,"emergencyBell":false,"cctv":false,"managerTel":"0324536124","source":"public","category":"public"},{"id":"202435300000101147","name":"간석4동 행정복지센터","lat":37.466645,"lng":126.70076,"roadAddr":"인천광역시 남동구 벽돌말로19번길 7","jibunAddr":"인천광역시 남동구 간석동 575-17","openHours":"09:00~18:00","maleToilets":16,"femaleToilets":16,"disabled":true,"diaperTable":true,"emergencyBell":true,"cctv":true,"managerTel":"0324535360","source":"public","category":"public"},{"id":"202435300000101023","name":"산밑말근린공원","lat":37.467028,"lng":126.735903,"roadAddr":"인천광역시 남동구 만수로111번길 38-2, 산밑말근린공원 공중화장실 (만수동)","jibunAddr":"인천광역시 남동구 만수동 1124 산밑말근린공원 공중화장실","openHours":"상시","maleToilets":4,"femaleToilets":3,"disabled":true,"diaperTable":true,"emergencyBell":true,"cctv":true,"managerTel":"0324536145","source":"public","category":"public"},{"id":"202435300000101150","name":"남동구청","lat":37.447388,"lng":126.730677,"roadAddr":"인천광역시 남동구 소래로 633","jibunAddr":"인천광역시 남동구 만수동 1008","openHours":"상시","maleToilets":98,"femaleToilets":34,"disabled":true,"diaperTable":true,"emergencyBell":true,"cctv":true,"managerTel":"0324532273","source":"public","category":"public"},{"id":"202435300000101217","name":"만수광해주유소","lat":37.448524,"lng":126.735056,"roadAddr":"인천광역시 남동구 인주대로 879 (만수동)","jibunAddr":"인천광역시 남동구 만수동 1072-3","openHours":"05:30~01:00","maleToilets":4,"femaleToilets":2,"disabled":false,"diaperTable":false,"emergencyBell":false,"cctv":false,"managerTel":"0324536124","source":"public","category":"public"},{"id":"202435300000101043","name":"중앙공원 4지구","lat":37.4553,"lng":126.701551,"roadAddr":"인천광역시 남동구 예술로 235, 중앙공원 공중화장실 (간석동)","jibunAddr":"인천광역시 남동구 간석동 503-6 중앙공원 공중화장실","openHours":"상시","maleToilets":4,"femaleToilets":4,"disabled":true,"diaperTable":false,"emergencyBell":true,"cctv":true,"managerTel":"0324405878","source":"public","category":"public"},{"id":"202435300000101101","name":"찬우물근린공원","lat":37.442578,"lng":126.717575,"roadAddr":"인천광역시 남동구 호구포로 675","jibunAddr":"인천광역시 남동구 구월동 1522번지","openHours":"상시","maleToilets":6,"femaleToilets":5,"disabled":true,"diaperTable":true,"emergencyBell":true,"cctv":true,"managerTel":"0324536145","source":"public","category":"public"},{"id":"202435300000101209","name":"정해주유소","lat":37.448836,"lng":126.714253,"roadAddr":"인천광역시 남동구 인주대로 696","jibunAddr":"인천광역시 남동구 구월1동290","openHours":"05:00~24:00","maleToilets":2,"femaleToilets":1,"disabled":false,"diaperTable":false,"emergencyBell":false,"cctv":false,"managerTel":"0324536124","source":"public","category":"public"},{"id":"202435300000101134","name":"정각지구대","lat":37.456046,"lng":126.715068,"roadAddr":"인천광역시 남동구 용천로 74, 정각지구대 (구월동)","jibunAddr":"인천광역시 남동구 구월동 24-1 정각지구대","openHours":"상시","maleToilets":2,"femaleToilets":1,"disabled":true,"diaperTable":true,"emergencyBell":false,"cctv":true,"managerTel":"0327189174","source":"public","category":"public"},{"id":"202435300000101207","name":"KH에너지㈜ 수림공원주유소","lat":37.462878,"lng":126.699883,"roadAddr":"인천광역시 남동구 주안로 270, GS수림공원주유소 (간석동)","jibunAddr":"인천광역시 남동구 간석동 526-1 GS수림공원주유소","openHours":"상시","maleToilets":3,"femaleToilets":1,"disabled":false,"diaperTable":false,"emergencyBell":false,"cctv":false,"managerTel":"0324536124","source":"public","category":"public"},{"id":"202435300000101154","name":"구월지구대","lat":37.443175,"lng":126.716053,"roadAddr":"인천광역시 남동구 인하로 623","jibunAddr":"인천광역시 남동구 구월동 1516","openHours":"09:00~18:00","maleToilets":2,"femaleToilets":1,"disabled":false,"diaperTable":true,"emergencyBell":true,"cctv":false,"managerTel":"0327189172","source":"public","category":"public"},{"id":"202435300000101182","name":"한빛빌딩","lat":37.453918,"lng":126.704085,"roadAddr":"인천광역시 남동구 미래로 41","jibunAddr":"인천광역시 남동구 구월동 1133-12","openHours":"상시","maleToilets":6,"femaleToilets":3,"disabled":false,"diaperTable":false,"emergencyBell":false,"cctv":false,"source":"public","category":"public"},{"id":"202435300000101177","name":"벽산아파트상가","lat":37.464329,"lng":126.72118,"roadAddr":"인천광역시 남동구 호구포로 920","jibunAddr":"인천광역시 남동구 만수동 1114","openHours":"상시","maleToilets":6,"femaleToilets":3,"disabled":false,"diaperTable":false,"emergencyBell":false,"cctv":true,"source":"public","category":"public"},{"id":"202435300000101065","name":"인천광역시의회","lat":37.456131,"lng":126.706223,"roadAddr":"인천광역시 남동구 정각로 35","jibunAddr":"인천광역시 남동구 구월동 1138","openHours":"09:00~18:00","maleToilets":47,"femaleToilets":24,"disabled":true,"diaperTable":false,"emergencyBell":true,"cctv":false,"managerTel":"0324406122","source":"public","category":"public"},{"id":"202535300000100010","name":"장승백이상가(7동)","lat":37.446922,"lng":126.735735,"roadAddr":"인천광역시 남동구 인주대로888번길 27, 창대장터상가 (만수동)","jibunAddr":"인천광역시 남동구 만수동 1082 창대장터상가","openHours":"상시","maleToilets":4,"femaleToilets":3,"disabled":false,"diaperTable":true,"emergencyBell":false,"cctv":false,"managerTel":"0324711216","source":"public","category":"public"},{"id":"202435300000101155","name":"간석4파출소","lat":37.465584,"lng":126.69701,"roadAddr":"인천광역시 남동구 석정로552번길 7","jibunAddr":"인천광역시 남동구 간석동 606-21","openHours":"09:00~18:00","maleToilets":2,"femaleToilets":1,"disabled":false,"diaperTable":false,"emergencyBell":false,"cctv":false,"managerTel":"0327189175","source":"public","category":"public"},{"id":"202435300000101163","name":"간석1동 행정복지센터","lat":37.458644,"lng":126.705338,"roadAddr":"인천광역시 남동구 구월로131번길 38, 간석1동 행정복지센터 (간석동)","jibunAddr":"인천광역시 남동구 간석동 353-4 간석1동 행정복지센터","openHours":"09:00~18:00","maleToilets":8,"femaleToilets":8,"disabled":true,"diaperTable":false,"emergencyBell":true,"cctv":true,"managerTel":"0324535300","source":"public","category":"public"},{"id":"202435300000101027","name":"아단배드민턴장","lat":37.455988,"lng":126.732329,"roadAddr":"인천광역시 남동구 백범로 138","jibunAddr":"인천광역시 남동구 만수동 35","openHours":"06:00~22:00","maleToilets":5,"femaleToilets":3,"disabled":false,"diaperTable":false,"emergencyBell":true,"cctv":false,"managerTel":"0324536280","source":"public","category":"public"},{"id":"202435300000101045","name":"중앙공원 2지구","lat":37.461494,"lng":126.701931,"roadAddr":"인천광역시 남동구 예술로 305, 중앙공원관리소, 공중화장실 (간석동)","jibunAddr":"인천광역시 남동구 간석동 420-3 중앙공원관리소, 공중화장실","openHours":"상시","maleToilets":8,"femaleToilets":5,"disabled":true,"diaperTable":false,"emergencyBell":true,"cctv":true,"managerTel":"0324405878","source":"public","category":"public"},{"id":"202435300000101117","name":"남동구평생학습관","lat":37.447715,"lng":126.733084,"roadAddr":"인천광역시 남동구 소래로 645","jibunAddr":"인천광역시 남동구 만수동 984번지 6호","openHours":"09:00~18:00","maleToilets":21,"femaleToilets":29,"disabled":true,"diaperTable":true,"emergencyBell":true,"cctv":true,"managerTel":"0324536054","source":"public","category":"public"},{"id":"202435300000101171","name":"청진네오스빌","lat":37.454551,"lng":126.702091,"roadAddr":"인천광역시 남동구 예술로 230","jibunAddr":"인천광역시 남동구 구월동 1135-1","openHours":"상시","maleToilets":6,"femaleToilets":2,"disabled":true,"diaperTable":false,"emergencyBell":false,"cctv":false,"source":"public","category":"public"},{"id":"202435300000101034","name":"구월3파출소","lat":37.449895,"lng":126.695411,"roadAddr":"인천광역시 남동구 문화서로49번길 16","jibunAddr":"인천광역시 남동구 구월동 1121-13","openHours":"상시","maleToilets":0,"femaleToilets":0,"disabled":true,"diaperTable":false,"emergencyBell":true,"cctv":false,"managerTel":"0327189176","source":"public","category":"public"},{"id":"202435300000101238","name":"석촌근린공원 체육관","lat":37.471718,"lng":126.710971,"roadAddr":"인천광역시 남동구 경인로742번길 102, 석촌근린공원 공중화장실 (간석동)","jibunAddr":"인천광역시 남동구 간석동 5 석촌근린공원 공중화장실","openHours":"상시","maleToilets":5,"femaleToilets":5,"disabled":true,"diaperTable":true,"emergencyBell":true,"cctv":true,"managerTel":"0324536145","source":"public","category":"public"},{"id":"202435300000101210","name":"신향주유소","lat":37.449272,"lng":126.721505,"roadAddr":"인천광역시 남동구 인주대로 759 (구월동)","jibunAddr":"인천광역시 남동구 구월동 1280-2","openHours":"05:00~24:00","maleToilets":3,"femaleToilets":1,"disabled":false,"diaperTable":false,"emergencyBell":false,"cctv":false,"managerTel":"0324536124","source":"public","category":"public"},{"id":"202435300000101069","name":"구월2동 행정복지센터","lat":37.456111,"lng":126.713353,"roadAddr":"인천광역시 남동구 구월로 208","jibunAddr":"인천광역시 남동구 구월동 23번지 1호","openHours":"09:00~18:00","maleToilets":19,"femaleToilets":12,"disabled":true,"diaperTable":false,"emergencyBell":true,"cctv":false,"managerTel":"0324535240","source":"public","category":"public"},{"id":"202435300000101190","name":"남동종합문화체육광장(3호)2","lat":37.441705,"lng":126.733867,"roadAddr":"인천광역시 남동구 장승남로 12","jibunAddr":"인천광역시 남동구 만수동 834-10","openHours":"06:00~22:00","maleToilets":2,"femaleToilets":2,"disabled":false,"diaperTable":false,"emergencyBell":true,"cctv":false,"managerTel":"0324536280","source":"public","category":"public"},{"id":"202435300000101062","name":"인천광역시청(민원동)","lat":37.45605,"lng":126.705256,"roadAddr":"인천광역시 남동구 정각로 29","jibunAddr":"인천광역시 남동구 구월동 1138","openHours":"09:00~18:00","maleToilets":20,"femaleToilets":11,"disabled":true,"diaperTable":false,"emergencyBell":true,"cctv":false,"managerTel":"0324408415","source":"public","category":"public"},{"id":"202435300000101085","name":"만월쉼터","lat":37.465161,"lng":126.727281,"roadAddr":"인천광역시 남동구 서판로53번길 39-9","jibunAddr":"인천광역시 남동구 만수동 산 6번지 2호","openHours":"상시","maleToilets":2,"femaleToilets":1,"disabled":true,"diaperTable":false,"emergencyBell":true,"cctv":true,"managerTel":"0324536145","source":"public","category":"public"},{"id":"202435400000100166","name":"동수역","lat":37.485194,"lng":126.717952,"roadAddr":"인천광역시 부평구 경인로 877 지하","jibunAddr":"인천광역시 부평구 부평동 686","openHours":"상시","maleToilets":5,"femaleToilets":5,"disabled":true,"diaperTable":true,"emergencyBell":true,"cctv":true,"managerTel":"0325163121","source":"public","category":"public"},{"id":"202435400000100161","name":"동암역 고객화장실","lat":37.471006,"lng":126.702935,"roadAddr":"인천광역시 부평구 동암광장로 10","jibunAddr":"인천광역시 부평구 십정동 541","openHours":"상시","maleToilets":10,"femaleToilets":10,"disabled":true,"diaperTable":true,"emergencyBell":true,"cctv":true,"managerTel":"0324217788","source":"public","category":"public"},{"id":"202435400000100162","name":"백운역 고객화장실","lat":37.483225,"lng":126.707273,"roadAddr":"인천광역시 부평구 마장로55번길 14","jibunAddr":"인천광역시 부평구 십정동 541-1","openHours":"상시","maleToilets":9,"femaleToilets":10,"disabled":true,"diaperTable":true,"emergencyBell":true,"cctv":true,"managerTel":"0325247788","source":"public","category":"public"},{"id":"202435400000100287","name":"희망체육공원","lat":37.483074,"lng":126.715045,"roadAddr":"인천광역시 부평구 경인로 842(부평동)","jibunAddr":"인천광역시 부평구 부평동 768-320","openHours":"상시","maleToilets":0,"femaleToilets":1,"disabled":true,"diaperTable":false,"emergencyBell":true,"cctv":false,"managerTel":"0322629288","source":"public","category":"public"},{"id":"202435400000100187","name":"장수셀프주유소","lat":37.470341,"lng":126.69624,"roadAddr":"인천광역시 부평구 백범로 502(십정동)","jibunAddr":"인천광역시 부평구 십정동 316-49","openHours":"상시","maleToilets":3,"femaleToilets":1,"disabled":false,"diaperTable":false,"emergencyBell":false,"cctv":false,"managerTel":"0325096594","source":"public","category":"public"},{"id":"202435400000100189","name":"㈜인에너지","lat":37.479145,"lng":126.695351,"roadAddr":"인천광역시 부평구 경원대로 1091(십정동)","jibunAddr":"인천광역시 부평구 십정동 134-2","openHours":"상시","maleToilets":2,"femaleToilets":2,"disabled":false,"diaperTable":false,"emergencyBell":false,"cctv":true,"managerTel":"0325096594","source":"public","category":"public"},{"id":"202435400000100277","name":"인천가족공원","lat":37.475191,"lng":126.724702,"roadAddr":"인천광역시 부평구 평온로 61","jibunAddr":"인천광역시 부평구 부평동 산57-1","openHours":"상시","maleToilets":103,"femaleToilets":108,"disabled":true,"diaperTable":true,"emergencyBell":true,"cctv":false,"managerTel":"0324562376","source":"public","category":"public"},{"id":"202435400000100257","name":"부평아트센터 해누리극장","lat":37.482238,"lng":126.704933,"roadAddr":"인천광역시 부평구 아트센터로 166","jibunAddr":"인천광역시 부평구 십정동 186-22","openHours":"08:00~21:00","maleToilets":10,"femaleToilets":10,"disabled":true,"diaperTable":true,"emergencyBell":true,"cctv":true,"managerTel":"0325002000","source":"public","category":"public"},{"id":"202435400000100165","name":"부평삼거리역","lat":37.477925,"lng":126.71002,"roadAddr":"인천광역시 부평구 경인로 765 지하","jibunAddr":"인천광역시 부평구 십정동 592","openHours":"상시","maleToilets":5,"femaleToilets":5,"disabled":true,"diaperTable":true,"emergencyBell":true,"cctv":true,"managerTel":"0325163122","source":"public","category":"public"},{"id":"202435400000100105","name":"십정1동 행정복지센터","lat":37.475805,"lng":126.696122,"roadAddr":"인천광역시 부평구 열우물로 103(십정동)","jibunAddr":"인천광역시 부평구 십정동 279-20","openHours":"09:00~18:00","maleToilets":3,"femaleToilets":2,"disabled":true,"diaperTable":false,"emergencyBell":true,"cctv":false,"managerTel":"0322629268","source":"public","category":"public"},{"id":"202435400000100261","name":"부평도서관","lat":37.484996,"lng":126.704586,"roadAddr":"인천광역시 부평구 경원대로1191 (십정동)","jibunAddr":"인천광역시 부평구 십정동 186-454","openHours":"06:00~22:00","maleToilets":26,"femaleToilets":16,"disabled":true,"diaperTable":false,"emergencyBell":true,"cctv":true,"managerTel":"0325107344","source":"public","category":"public"},{"id":"202435400000100305","name":"밤골공원","lat":37.480531,"lng":126.729519,"roadAddr":"인천광역시 부평구 동수로150번길35","jibunAddr":"인천광역시 부평구 부평동944","openHours":"상시","maleToilets":2,"femaleToilets":3,"disabled":true,"diaperTable":false,"emergencyBell":true,"cctv":true,"managerTel":"0322629244","source":"public","category":"public"},{"id":"202435400000100256","name":"열우물전통시장","lat":37.473303,"lng":126.695668,"roadAddr":"인천광역시 부평구 배곶남로21번길 18","jibunAddr":"인천광역시 부평구 십정동 321-6","openHours":"09:00~21:00","maleToilets":6,"femaleToilets":4,"disabled":true,"diaperTable":true,"emergencyBell":true,"cctv":true,"managerTel":"0324246385","source":"public","category":"public"},{"id":"202435400000100301","name":"만월공원","lat":37.484678,"lng":126.72875,"roadAddr":"인천광역시 부평구 동수로94","jibunAddr":"인천광역시 부평구 부평동945","openHours":"상시","maleToilets":1,"femaleToilets":3,"disabled":true,"diaperTable":false,"emergencyBell":true,"cctv":true,"managerTel":"0322629244","source":"public","category":"public"},{"id":"202435400000100132","name":"십정119안전센터","lat":37.480307,"lng":126.697246,"roadAddr":"인천광역시 부평구 경원대로 1111","jibunAddr":"인천광역시 부평구 십정동 160","openHours":"상시","maleToilets":5,"femaleToilets":0,"disabled":false,"diaperTable":false,"emergencyBell":false,"cctv":false,"managerTel":"0327235355","source":"public","category":"public"},{"id":"202435400000100278","name":"부평남부체육센터","lat":37.482082,"lng":126.726473,"roadAddr":"인천광역시 부평구 남부체육센터로 40","jibunAddr":"인천광역시 부평구 부평동 663-30","openHours":"06:00~22:00","maleToilets":21,"femaleToilets":19,"disabled":true,"diaperTable":true,"emergencyBell":true,"cctv":true,"managerTel":"0325287516","source":"public","category":"public"},{"id":"202435400000100227","name":"경인교회","lat":37.480252,"lng":126.710464,"roadAddr":"인천광역시 부평구 마장로 14","jibunAddr":"인천광역시 부평구 십정동 572-5","openHours":"9시간","maleToilets":4,"femaleToilets":2,"disabled":true,"diaperTable":false,"emergencyBell":false,"cctv":true,"managerTel":"0325224347","source":"public","category":"public"},{"id":"202435400000100191","name":"㈜한국주유소","lat":37.480526,"lng":126.710948,"roadAddr":"인천광역시 부평구 경인로 795(십정동)","jibunAddr":"인천광역시 부평구 십정동 571-3","openHours":"17시간","maleToilets":4,"femaleToilets":2,"disabled":false,"diaperTable":false,"emergencyBell":false,"cctv":true,"managerTel":"0325096594","source":"public","category":"public"},{"id":"202435400000100123","name":"동암지구대","lat":37.472633,"lng":126.696908,"roadAddr":"인천광역시 부평구 배곶로 50","jibunAddr":"인천광역시 부평구 십정동 301-15","openHours":"상시","maleToilets":1,"femaleToilets":1,"disabled":false,"diaperTable":false,"emergencyBell":false,"cctv":true,"managerTel":"0323631312","source":"public","category":"public"},{"id":"202435400000100091","name":"부평6동 행정복지센터","lat":37.485136,"lng":126.726602,"roadAddr":"인천광역시 부평구 동수로 70","jibunAddr":"인천광역시 부평구 부평동 663-23","openHours":"09:00~18:00","maleToilets":15,"femaleToilets":11,"disabled":true,"diaperTable":false,"emergencyBell":true,"cctv":true,"managerTel":"0325098350","source":"public","category":"public"},{"id":"202435400000100307","name":"백운공원","lat":37.481592,"lng":126.704118,"roadAddr":"인천광역시 부평구 아트센터로159","jibunAddr":"인천광역시 부평구 십정동186-419","openHours":"상시","maleToilets":5,"femaleToilets":2,"disabled":true,"diaperTable":false,"emergencyBell":true,"cctv":true,"managerTel":"0322629244","source":"public","category":"public"},{"id":"202435400000100258","name":"부평아트센터 달누리극장","lat":37.482238,"lng":126.704933,"roadAddr":"인천광역시 부평구 아트센터로 166","jibunAddr":"인천광역시 부평구 십정동 186-22","openHours":"08:00~21:00","maleToilets":8,"femaleToilets":6,"disabled":true,"diaperTable":true,"emergencyBell":true,"cctv":true,"managerTel":"0325002000","source":"public","category":"public"},{"id":"202435400000100273","name":"가톨릭대학교인천성모병원","lat":37.484132,"lng":126.725207,"roadAddr":"인천광역시 부평구 동수로 56(부평동)","jibunAddr":"인천광역시 부평구 부평동 665-8","openHours":"08:00~18:00","maleToilets":10,"femaleToilets":8,"disabled":true,"diaperTable":false,"emergencyBell":true,"cctv":true,"managerTel":"0322805311","source":"public","category":"public"},{"id":"202435400000100200","name":"동암주유소","lat":37.470318,"lng":126.700737,"roadAddr":"인천광역시 부평구 열우물로 19(십정동)","jibunAddr":"인천광역시 부평구 십정동 419-3","openHours":"17시간","maleToilets":2,"femaleToilets":1,"disabled":false,"diaperTable":false,"emergencyBell":false,"cctv":true,"managerTel":"0325096594","source":"public","category":"public"},{"id":"202435400000100106","name":"십정2동 행정복지센터","lat":37.473875,"lng":126.707862,"roadAddr":"인천광역시 부평구 동암산로33번길 6-7","jibunAddr":"인천광역시 부평구 십정동 584","openHours":"09:00~18:00","maleToilets":8,"femaleToilets":10,"disabled":true,"diaperTable":false,"emergencyBell":true,"cctv":false,"managerTel":"0325098017","source":"public","category":"public"},{"id":"202435400000100172","name":"유카스에너지 열우물주유소","lat":37.480975,"lng":126.69945,"roadAddr":"인천광역시 부평구 경원대로 1132(십정동)","jibunAddr":"인천광역시 부평구 십정동 168-29","openHours":"상시","maleToilets":2,"femaleToilets":1,"disabled":false,"diaperTable":false,"emergencyBell":false,"cctv":false,"managerTel":"0325096594","source":"public","category":"public"},{"id":"202435400000100101","name":"부개1동 행정복지센터","lat":37.484703,"lng":126.736884,"roadAddr":"인천광역시 부평구 동수로162번길 11","jibunAddr":"인천광역시 부평구 부개동 257-6","openHours":"09:00~18:00","maleToilets":19,"femaleToilets":11,"disabled":true,"diaperTable":false,"emergencyBell":true,"cctv":false,"managerTel":"0325098464","source":"public","category":"public"}]