[{"id":"202535500000100431","name":"고용노동부 인천북부지청","lat":37.536477,"lng":126.735781,"roadAddr":"인천광역시 계양구 계양문화로 59번길 6","jibunAddr":"인천광역시 계양구 계산동 1077-1","openHours":"10시간(08:00~18:00)","maleToilets":15,"femaleToilets":9,"disabled":true,"diaperTable":true,"emergencyBell":false,"cctv":true,"source":"public","category":"public"},{"id":"202535500000100443","name":"인천교통연수원","lat":37.543282,"lng":126.716714,"roadAddr":"인천광역시 계양구 경명대로 990","jibunAddr":"인천광역시 계양구 계산동 758-1","openHours":"13시간(07:00~20:00)","maleToilets":32,"femaleToilets":16,"disabled":true,"diaperTable":false,"emergencyBell":false,"cctv":true,"source":"public","category":"public"},{"id":"202535500000100570","name":"노틀담복지관","lat":37.546089,"lng":126.716194,"roadAddr":"인천광역시 계양구 계양산로 35번길 12-40","jibunAddr":"인천광역시 계양구 계산동 산 40","openHours":"9시간(09:00~18:00)","maleToilets":12,"femaleToilets":10,"disabled":true,"diaperTable":true,"emergencyBell":false,"cctv":true,"source":"public","category":"public"},{"id":"202535500000100409","name":"작전1동 행정복지센터","lat":37.530799,"lng":126.729697,"roadAddr":"인천광역시 계양구 봉오대로 727","jibunAddr":"인천광역시 계양구 작전동 231-1","openHours":"9시간(09:00~18:00)","maleToilets":4,"femaleToilets":2,"disabled":false,"diaperTable":false,"emergencyBell":true,"cctv":true,"source":"public","category":"public"},{"id":"202535500000100455","name":"인천명현초","lat":37.531968,"lng":126.712413,"roadAddr":"인천광역시 계양구 봉오대로 569번길 10","jibunAddr":"인천광역시 계양구 효성동 15-3","openHours":"미개방","maleToilets":75,"femaleToilets":50,"disabled":true,"diaperTable":false,"emergencyBell":true,"cctv":false,"source":"public","category":"public"},{"id":"202535500000100586","name":"계양신명스카이홈","lat":37.539379,"lng":126.738209,"roadAddr":"인천광역시 계양구 계산새로 87번길 16","jibunAddr":"인천광역시 계양구 용종동 212-6","openHours":"24시간","maleToilets":6,"femaleToilets":3,"disabled":true,"diaperTable":false,"emergencyBell":false,"cctv":true,"source":"public","category":"public"},{"id":"202535500000100595","name":"계양프라자(주부토로)","lat":37.542564,"lng":126.728048,"roadAddr":"인천광역시 계양구 주부토로 541","jibunAddr":"인천광역시 계양구 계산동 947","openHours":"24시간","maleToilets":30,"femaleToilets":11,"disabled":true,"diaperTable":true,"emergencyBell":false,"cctv":true,"source":"public","category":"public"},{"id":"202535500000100575","name":"상산프라자","lat":37.534089,"lng":126.738106,"roadAddr":"인천광역시 계양구 도두리로 33","jibunAddr":"인천광역시 계양구 계산동 1083-4","openHours":"24시간","maleToilets":26,"femaleToilets":16,"disabled":true,"diaperTable":false,"emergencyBell":false,"cctv":true,"source":"public","category":"public"},{"id":"202535500000100374","name":"목상동 화장실","lat":37.537496,"lng":126.737705,"roadAddr":"인천광역시 계양구","jibunAddr":"인천광역시 계양구 목상동 산34-1","openHours":"24시간","maleToilets":3,"femaleToilets":3,"disabled":false,"diaperTable":false,"emergencyBell":true,"cctv":true,"source":"public","category":"public"},{"id":"202535500000100578","name":"하이베라스","lat":37.53878,"lng":126.735818,"roadAddr":"인천광역시 계양구 계산새로 71","jibunAddr":"인천광역시 계양구 계산동 1062","openHours":"24시간","maleToilets":3,"femaleToilets":2,"disabled":true,"diaperTable":false,"emergencyBell":true,"cctv":true,"source":"public","category":"public"},{"id":"202535500000100499","name":"경인교육대학교","lat":37.536705,"lng":126.718842,"roadAddr":"인천광역시 계양구 계산로 62","jibunAddr":"인천광역시 계양구 계산동 857-87","openHours":"미개방","maleToilets":274,"femaleToilets":223,"disabled":true,"diaperTable":false,"emergencyBell":true,"cctv":false,"source":"public","category":"public"},{"id":"202535500000100496","name":"계산고","lat":37.5471,"lng":126.729588,"roadAddr":"인천광역시 계양구 주부토로 588","jibunAddr":"인천광역시 계양구 계산동 907","openHours":"미개방","maleToilets":116,"femaleToilets":14,"disabled":true,"diaperTable":false,"emergencyBell":false,"cctv":true,"source":"public","category":"public"},{"id":"202535500000100553","name":"엠앤비여성병원","lat":37.536533,"lng":126.734815,"roadAddr":"인천광역시 계양구 장제로772번길 2","jibunAddr":"인천광역시 계양구 계산동 1074-1","openHours":"9시간(09:00~18:00)","maleToilets":2,"femaleToilets":1,"disabled":true,"diaperTable":false,"emergencyBell":false,"cctv":true,"source":"public","category":"public"},{"id":"202535500000100587","name":"영신빌딩","lat":37.529627,"lng":126.723206,"roadAddr":"인천광역시 계양구 봉오대로 668","jibunAddr":"인천광역시 계양구 작전동 866-4","openHours":"7시간30분(평일 09:00~16:30)","maleToilets":28,"femaleToilets":19,"disabled":false,"diaperTable":false,"emergencyBell":false,"cctv":true,"source":"public","category":"public"},{"id":"202535500000100436","name":"계양산성박물관","lat":37.548019,"lng":126.727032,"roadAddr":"인천광역시 계양구 계양산로 101","jibunAddr":"인천광역시 계양구 계산동 산 11","openHours":"9시간(09:00~18:00)","maleToilets":8,"femaleToilets":10,"disabled":true,"diaperTable":true,"emergencyBell":false,"cctv":true,"source":"public","category":"public"},{"id":"202535500000100602","name":"금보프라자","lat":37.54355,"lng":126.730639,"roadAddr":"인천광역시 계양구 경명대로 1111","jibunAddr":"인천광역시 계양구 계산동 918-4","openHours":"미개방","maleToilets":30,"femaleToilets":12,"disabled":false,"diaperTable":false,"emergencyBell":false,"cctv":false,"source":"public","category":"public"},{"id":"202535500000100371","name":"다남녹지공원","lat":37.565632,"lng":126.72029,"roadAddr":"인천광역시 계양구 다남로165번길 71","jibunAddr":"인천광역시 계양구 다남동 42-8","openHours":"24시간","maleToilets":4,"femaleToilets":3,"disabled":true,"diaperTable":true,"emergencyBell":true,"cctv":true,"source":"public","category":"public"},{"id":"202535500000100564","name":"메디플렉스 세종병원","lat":37.532539,"lng":126.736853,"roadAddr":"인천광역시 계양구 계양문화로 20","jibunAddr":"인천광역시 계양구 작전동 909","openHours":"주간 14시간(06:00~20:00)","maleToilets":29,"femaleToilets":30,"disabled":true,"diaperTable":true,"emergencyBell":true,"cctv":true,"source":"public","category":"public"},{"id":"202535500000100640","name":"요지빌딩","lat":37.543165,"lng":126.72413,"roadAddr":"인천광역시 계양구 경명대로 1056","jibunAddr":"인천광역시 계양구 계산동 944-9","openHours":"미개방","maleToilets":12,"femaleToilets":4,"disabled":false,"diaperTable":false,"emergencyBell":false,"cctv":false,"source":"public","category":"public"},{"id":"202535500000100350","name":"가현근린공원","lat":37.531112,"lng":126.718044,"roadAddr":"인천광역시 계양구 봉오대로651번길 9 (작전동, 힐스테이트자이계양)","jibunAddr":"인천광역시 계양구 작전동 0 힐스테이트자이계양","openHours":"24시간","maleToilets":5,"femaleToilets":6,"disabled":true,"diaperTable":true,"emergencyBell":true,"cctv":true,"source":"public","category":"public"},{"id":"202535500000100533","name":"행복날개주유소","lat":37.532135,"lng":126.722185,"roadAddr":"인천광역시 계양구 계양대로 93","jibunAddr":"인천광역시 계양구 작전동 864-8","openHours":"18시간(06:00~24:00)","maleToilets":2,"femaleToilets":1,"disabled":false,"diaperTable":false,"emergencyBell":false,"cctv":false,"source":"public","category":"public"},{"id":"202535500000100365","name":"된밭공원","lat":37.533038,"lng":126.728486,"roadAddr":"인천광역시 계양구 주부토로426번길 5","jibunAddr":"인천광역시 계양구 작전동 88","openHours":"24시간","maleToilets":5,"femaleToilets":3,"disabled":true,"diaperTable":true,"emergencyBell":true,"cctv":true,"source":"public","category":"public"},{"id":"202535500000100514","name":"㈜이마트 계양점","lat":37.531038,"lng":126.736897,"roadAddr":"인천광역시 계양구 봉오대로 785","jibunAddr":"인천광역시 계양구 작전동 911-1","openHours":"12시간(2월, 10시~22시), 13시간(평소, 10시~23시)","maleToilets":6,"femaleToilets":6,"disabled":true,"diaperTable":true,"emergencyBell":true,"cctv":true,"source":"public","category":"public"},{"id":"202535500000100394","name":"경인교대역","lat":37.538084,"lng":126.7226,"roadAddr":"인천광역시 계양구 계양대로 지하162, 경인교대역 (계산동)","jibunAddr":"인천광역시 계양구 계산동 1034 경인교대역","openHours":"19시간(05:00~24:00)","maleToilets":6,"femaleToilets":7,"disabled":true,"diaperTable":true,"emergencyBell":true,"cctv":true,"source":"public","category":"public"},{"id":"202535500000100423","name":"계산동우체국","lat":37.543753,"lng":126.724001,"roadAddr":"인천광역시 계양구 경명대로 1053","jibunAddr":"인천광역시 계양구 계산동 931-55","openHours":"9시간(09:00~18:00)","maleToilets":2,"femaleToilets":0,"disabled":true,"diaperTable":false,"emergencyBell":false,"cctv":false,"source":"public","category":"public"},{"id":"202535500000100620","name":"거승프라자","lat":37.530938,"lng":126.737815,"roadAddr":"인천광역시 계양구 오조산로 1","jibunAddr":"인천광역시 계양구 작전동 911-7","openHours":"24시간","maleToilets":18,"femaleToilets":14,"disabled":true,"diaperTable":false,"emergencyBell":true,"cctv":true,"source":"public","category":"public"},{"id":"202535500000100511","name":"홈플러스㈜계산점","lat":37.539472,"lng":126.736187,"roadAddr":"인천광역시 계양구 오조산공원로 14","jibunAddr":"인천광역시 계양구 계산동 1061","openHours":"14시간(10:00~24:00)","maleToilets":40,"femaleToilets":28,"disabled":true,"diaperTable":true,"emergencyBell":true,"cctv":true,"source":"public","category":"public"},{"id":"202535500000100668","name":"리얼프라자","lat":37.531696,"lng":126.728062,"roadAddr":"인천광역시 계양구 주부토로 422","jibunAddr":"인천광역시 계양구 작전동 261-1","openHours":"미개방","maleToilets":18,"femaleToilets":11,"disabled":true,"diaperTable":false,"emergencyBell":false,"cctv":true,"source":"public","category":"public"},{"id":"202535500000100642","name":"성우프라자","lat":37.531559,"lng":126.737602,"roadAddr":"인천광역시 계양구 오조산로 7번길 4","jibunAddr":"인천광역시 계양구 작전동 910-8","openHours":"미개방","maleToilets":9,"femaleToilets":3,"disabled":true,"diaperTable":false,"emergencyBell":false,"cctv":false,"source":"public","category":"public"},{"id":"202535500000100661","name":"계산메디칼센터","lat":37.542936,"lng":126.728714,"roadAddr":"인천광역시 계양구 경명대로 1096","jibunAddr":"인천광역시 계양구 계산동 880","openHours":"24시간","maleToilets":20,"femaleToilets":12,"disabled":true,"diaperTable":false,"emergencyBell":false,"cctv":true,"source":"public","category":"public"},{"id":"202535500000100573","name":"한미리빌딩","lat":37.531195,"lng":126.73782,"roadAddr":"인천광역시 계양구 오조산로 3","jibunAddr":"인천광역시 계양구 작전동 911-6","openHours":"24시간","maleToilets":23,"femaleToilets":12,"disabled":false,"diaperTable":false,"emergencyBell":false,"cctv":true,"source":"public","category":"public"},{"id":"202535500000100581","name":"삼성프라자(계양대로)","lat":37.532803,"lng":126.722135,"roadAddr":"인천광역시 계양구 계양대로 101","jibunAddr":"인천광역시 계양구 작전동 853-31","openHours":"24시간","maleToilets":18,"femaleToilets":10,"disabled":true,"diaperTable":false,"emergencyBell":false,"cctv":true,"source":"public","category":"public"},{"id":"202535500000100590","name":"삼환1빌딩","lat":37.543097,"lng":126.726218,"roadAddr":"인천광역시 계양구 경명대로 1074","jibunAddr":"인천광역시 계양구 계산동 945-3","openHours":"14시간(08:00~22:00)","maleToilets":5,"femaleToilets":3,"disabled":false,"diaperTable":false,"emergencyBell":false,"cctv":false,"source":"public","category":"public"},{"id":"202535500000100364","name":"임학어린이공원","lat":37.547758,"lng":126.730744,"roadAddr":"인천광역시 계양구 계양산로 135","jibunAddr":"인천광역시 계양구 임학동  135","openHours":"24시간","maleToilets":6,"femaleToilets":6,"disabled":true,"diaperTable":true,"emergencyBell":true,"cctv":true,"source":"public","category":"public"},{"id":"202535500000100384","name":"계양문화회관","lat":37.546079,"lng":126.718131,"roadAddr":"인천광역시 계양구 계양산로 35번길 11","jibunAddr":"인천광역시 계양구 계산동 724","openHours":"9시간(09:00~18:00)","maleToilets":42,"femaleToilets":39,"disabled":false,"diaperTable":true,"emergencyBell":true,"cctv":true,"source":"public","category":"public"},{"id":"202535500000100646","name":"한별프라자","lat":37.535376,"lng":126.734805,"roadAddr":"인천광역시 계양구 장제로 756번길 5","jibunAddr":"인천광역시 계양구 계산동 1074-6","openHours":"미개방","maleToilets":24,"femaleToilets":12,"disabled":false,"diaperTable":false,"emergencyBell":false,"cctv":false,"source":"public","category":"public"},{"id":"202535500000100386","name":"청룡정(다남동 국궁장)","lat":37.565632,"lng":126.72029,"roadAddr":"인천광역시 계양구 다남로 165번길 71","jibunAddr":"인천광역시 계양구 계양구 다남동 35-5","openHours":"9시간(09:00~18:00)","maleToilets":2,"femaleToilets":1,"disabled":true,"diaperTable":true,"emergencyBell":true,"cctv":true,"source":"public","category":"public"},{"id":"202535500000100432","name":"LX한국국토정보공사부평계양지사","lat":37.53977,"lng":126.734327,"roadAddr":"인천광역시 계양구 장제로 805","jibunAddr":"인천광역시 계양구 계산동 1064-3","openHours":"9시간(09:00~18:00)","maleToilets":4,"femaleToilets":1,"disabled":false,"diaperTable":false,"emergencyBell":false,"cctv":false,"source":"public","category":"public"},{"id":"202535500000100635","name":"진빌딩(계산로)","lat":37.537475,"lng":126.725823,"roadAddr":"인천광역시 계양구 계산로 121","jibunAddr":"인천광역시 계양구 계산동 965","openHours":"미개방","maleToilets":20,"femaleToilets":10,"disabled":false,"diaperTable":false,"emergencyBell":false,"cctv":false,"source":"public","category":"public"},{"id":"202535500000100566","name":"하나미엘여성의원","lat":37.543287,"lng":126.735735,"roadAddr":"인천광역시 계양구 경명대로 1157","jibunAddr":"인천광역시 계양구 임학동 73-18","openHours":"9시간(09:00~18:00)","maleToilets":1,"femaleToilets":3,"disabled":false,"diaperTable":false,"emergencyBell":false,"cctv":true,"source":"public","category":"public"},{"id":"202535500000100567","name":"중앙산부인과","lat":37.54312,"lng":126.72568,"roadAddr":"인천광역시 계양구 경명대로 1070","jibunAddr":"인천광역시 계양구 계산동 945-2","openHours":"10시간(09:00~19:00)","maleToilets":1,"femaleToilets":2,"disabled":false,"diaperTable":false,"emergencyBell":false,"cctv":false,"source":"public","category":"public"},{"id":"202535500000100599","name":"강남프라자","lat":37.535649,"lng":126.737231,"roadAddr":"인천광역시 계양구 오조산로57번길 11-1","jibunAddr":"인천광역시 계양구 계산동 1081-2","openHours":"24시간","maleToilets":7,"femaleToilets":3,"disabled":false,"diaperTable":false,"emergencyBell":false,"cctv":true,"source":"public","category":"public"},{"id":"202535500000100600","name":"효성프라자","lat":37.531923,"lng":126.711071,"roadAddr":"인천광역시 계양구 안남로 548","jibunAddr":"인천광역시 계양구 효성동 63-8","openHours":"24시간","maleToilets":24,"femaleToilets":12,"disabled":true,"diaperTable":false,"emergencyBell":false,"cctv":true,"source":"public","category":"public"},{"id":"202535500000100608","name":"유연프라자","lat":37.535259,"lng":126.73726,"roadAddr":"인천광역시 계양구 오조산로45번길 12","jibunAddr":"인천광역시 계양구 계산동 1081-4","openHours":"24시간","maleToilets":34,"femaleToilets":13,"disabled":true,"diaperTable":false,"emergencyBell":false,"cctv":false,"source":"public","category":"public"},{"id":"202535500000100607","name":"대진빌딩","lat":37.543893,"lng":126.723422,"roadAddr":"인천광역시 계양구 경명대로 1049","jibunAddr":"인천광역시 계양구 계산동 931-51","openHours":"24시간","maleToilets":14,"femaleToilets":10,"disabled":false,"diaperTable":false,"emergencyBell":false,"cctv":false,"source":"public","category":"public"},{"id":"202535500000100593","name":"여흥프라자","lat":37.535215,"lng":126.736795,"roadAddr":"인천광역시 계양구 오조산로45번길 16","jibunAddr":"인천광역시 계양구 계산동 1081-6","openHours":"미개방","maleToilets":32,"femaleToilets":16,"disabled":false,"diaperTable":false,"emergencyBell":false,"cctv":false,"source":"public","category":"public"},{"id":"202535500000100482","name":"계산여중","lat":37.53635,"lng":126.732668,"roadAddr":"인천광역시 계양구 장제로 755번길 16","jibunAddr":"인천광역시 계양구 계산동 292","openHours":"미개방","maleToilets":21,"femaleToilets":93,"disabled":true,"diaperTable":false,"emergencyBell":false,"cctv":false,"source":"public","category":"public"},{"id":"202535500000100430","name":"상수도사업본부북부수도사업소","lat":37.536957,"lng":126.736308,"roadAddr":"인천광역시 계양구 계양문화로 67","jibunAddr":"인천광역시 계양구 계산동 1078-3","openHours":"15시간(07:00~22:00)","maleToilets":14,"femaleToilets":4,"disabled":true,"diaperTable":false,"emergencyBell":false,"cctv":true,"source":"public","category":"public"},{"id":"202535500000100577","name":"영화빌딩","lat":37.532095,"lng":126.723009,"roadAddr":"인천광역시 계양구 계양대로 94","jibunAddr":"인천광역시 계양구 작전동 863-3","openHours":"13시간30분(9:30~23:00)","maleToilets":3,"femaleToilets":2,"disabled":false,"diaperTable":false,"emergencyBell":false,"cctv":true,"source":"public","category":"public"},{"id":"202535500000100658","name":"인평프라자","lat":37.543481,"lng":126.730936,"roadAddr":"인천광역시 계양구 경명대로 1115","jibunAddr":"인천광역시 계양구 계산동 918-6","openHours":"15시간(06:00~21:00)","maleToilets":23,"femaleToilets":15,"disabled":false,"diaperTable":false,"emergencyBell":false,"cctv":true,"source":"public","category":"public"},{"id":"202535500000100501","name":"효성노인문화센터","lat":37.529597,"lng":126.706189,"roadAddr":"인천광역시 계양구 봉오대로 516","jibunAddr":"인천광역시 계양구 효성동 177-4","openHours":"9시간(09:00~18:00)","maleToilets":11,"femaleToilets":9,"disabled":true,"diaperTable":false,"emergencyBell":true,"cctv":true,"source":"public","category":"public"},{"id":"202535500000100354","name":"계양구보건소","lat":37.536428,"lng":126.736245,"roadAddr":"인천광역시 계양구 계양문화로 63","jibunAddr":"인천광역시 계양구 계산동 1077-2","openHours":"9시간(09:00~18:00)","maleToilets":17,"femaleToilets":17,"disabled":true,"diaperTable":true,"emergencyBell":true,"cctv":true,"source":"public","category":"public"},{"id":"202535500000100518","name":"임학주유소","lat":37.543269,"lng":126.736036,"roadAddr":"인천광역시 계양구 경명대로 1161","jibunAddr":"인천광역시 계양구 임학동 73-8","openHours":"24시간","maleToilets":3,"femaleToilets":2,"disabled":false,"diaperTable":false,"emergencyBell":false,"cctv":true,"source":"public","category":"public"},{"id":"202535500000100479","name":"명현중","lat":37.532062,"lng":126.713968,"roadAddr":"인천광역시 계양구 안남로 554번길 26","jibunAddr":"인천광역시 계양구 효성동 20","openHours":"본관1층 교직원, 장애인 화장실만 9시간(08:30~16:30)","maleToilets":6,"femaleToilets":12,"disabled":true,"diaperTable":false,"emergencyBell":false,"cctv":true,"source":"public","category":"public"},{"id":"202535500000100651","name":"덕수프라자","lat":37.531563,"lng":126.737907,"roadAddr":"인천광역시 계양구 오조산로 7","jibunAddr":"인천광역시 계양구 작전동 910-7","openHours":"미개방","maleToilets":20,"femaleToilets":15,"disabled":true,"diaperTable":false,"emergencyBell":false,"cctv":false,"source":"public","category":"public"},{"id":"202535500000100563","name":"브니엘요양병원","lat":37.538239,"lng":126.728387,"roadAddr":"인천광역시 계양구 주부토로 494","jibunAddr":"인천광역시 계양구 계산동 320-7","openHours":"9시간(09:00~18:00)","maleToilets":4,"femaleToilets":2,"disabled":true,"diaperTable":true,"emergencyBell":true,"cctv":true,"source":"public","category":"public"},{"id":"202535500000100555","name":"인천마디병원","lat":37.542116,"lng":126.722987,"roadAddr":"인천광역시 계양구 계양대로 204","jibunAddr":"인천광역시 계양구 계산동 944-30","openHours":"미개방","maleToilets":1,"femaleToilets":0,"disabled":true,"diaperTable":false,"emergencyBell":true,"cctv":false,"source":"public","category":"public"},{"id":"202535500000100558","name":"더드림병원","lat":37.535,"lng":126.722252,"roadAddr":"인천광역시 계양구 계양대로 123","jibunAddr":"인천광역시 계양구 작전동 852-40","openHours":"1층만 개방, 9시간(09:00~18:00)","maleToilets":35,"femaleToilets":16,"disabled":true,"diaperTable":false,"emergencyBell":true,"cctv":true,"source":"public","category":"public"},{"id":"202535500000100428","name":"인천계양소방서 계산119안전센터","lat":37.543989,"lng":126.728242,"roadAddr":"인천광역시 계양구 주부토로 557","jibunAddr":"인천광역시 계양구 계산동 920-14","openHours":"24시간","maleToilets":4,"femaleToilets":0,"disabled":false,"diaperTable":false,"emergencyBell":false,"cctv":false,"source":"public","category":"public"},{"id":"202535500000100671","name":"능진빌딩","lat":37.539334,"lng":126.728361,"roadAddr":"인천광역시 계양구 주부토로 506","jibunAddr":"인천광역시 계양구 계산동 332-4","openHours":"미개방","maleToilets":16,"femaleToilets":0,"disabled":false,"diaperTable":false,"emergencyBell":false,"cctv":false,"source":"public","category":"public"},{"id":"202535500000100380","name":"계양산산림욕장(장미원)","lat":37.546598,"lng":126.712032,"roadAddr":"인천광역시 계양구 경명대로 955번길 17","jibunAddr":"인천광역시 계양구 계산동 산48","openHours":"24시간","maleToilets":7,"femaleToilets":5,"disabled":false,"diaperTable":false,"emergencyBell":true,"cctv":true,"source":"public","category":"public"},{"id":"202535500000100617","name":"정우빌딩","lat":37.540884,"lng":126.728067,"roadAddr":"인천광역시 계양구 주부토로 525","jibunAddr":"인천광역시 계양구 계산동 948-2","openHours":"11시간(09:00~20:00)","maleToilets":14,"femaleToilets":7,"disabled":false,"diaperTable":false,"emergencyBell":false,"cctv":true,"source":"public","category":"public"},{"id":"202535500000100498","name":"경인여자대학교","lat":37.548435,"lng":126.723506,"roadAddr":"인천광역시 계양구 계양산로 63","jibunAddr":"인천광역시 계양구 계산동 548-4","openHours":"미개방","maleToilets":156,"femaleToilets":182,"disabled":true,"diaperTable":false,"emergencyBell":false,"cctv":true,"source":"public","category":"public"},{"id":"202535500000100505","name":"보훈회관","lat":37.532103,"lng":126.728209,"roadAddr":"인천광역시 계양구 주부토로 426번길 1","jibunAddr":"인천광역시 계양구 작전동 258-1외 1필지","openHours":"8시간(09:00~17:00)","maleToilets":4,"femaleToilets":4,"disabled":false,"diaperTable":false,"emergencyBell":true,"cctv":true,"source":"public","category":"public"},{"id":"202535500000100372","name":"이촌근린공원","lat":37.536247,"lng":126.712109,"roadAddr":"인천광역시 계양구 안남로 606","jibunAddr":"인천광역시 계양구 효성동 산18","openHours":"24시간","maleToilets":5,"femaleToilets":5,"disabled":true,"diaperTable":true,"emergencyBell":true,"cctv":true,"source":"public","category":"public"},{"id":"202535500000100441","name":"계양도서관","lat":37.546004,"lng":126.73011,"roadAddr":"인천광역시 계양구 계양산로 134번길 18","jibunAddr":"인천광역시 계양구 계산동 907-4","openHours":"17시간(06:00~22:00)","maleToilets":23,"femaleToilets":15,"disabled":true,"diaperTable":true,"emergencyBell":false,"cctv":true,"source":"public","category":"public"},{"id":"202535500000100412","name":"계양2동 행정복지센터","lat":37.543793,"lng":126.737055,"roadAddr":"인천광역시 계양구 장제로 853","jibunAddr":"인천광역시 계양구 임학동  69-23","openHours":"9시간(09:00~18:00)","maleToilets":5,"femaleToilets":3,"disabled":true,"diaperTable":true,"emergencyBell":true,"cctv":true,"source":"public","category":"public"},{"id":"202535500000100515","name":"미담주유소","lat":37.533559,"lng":126.723017,"roadAddr":"인천광역시 계양구 계양대로 108","jibunAddr":"인천광역시 계양구 작전동 854-3","openHours":"20시간(05:00~익일1:00)","maleToilets":4,"femaleToilets":2,"disabled":false,"diaperTable":false,"emergencyBell":false,"cctv":true,"source":"public","category":"public"},{"id":"202535500000100467","name":"인천부현초","lat":37.535794,"lng":126.732006,"roadAddr":"인천광역시 계양구 장제로 755번길 30","jibunAddr":"인천광역시 계양구 계산동 65-4","openHours":"미개방","maleToilets":8,"femaleToilets":6,"disabled":true,"diaperTable":false,"emergencyBell":false,"cctv":false,"source":"public","category":"public"},{"id":"202535500000100649","name":"모드니프라자","lat":37.533184,"lng":126.73429,"roadAddr":"인천광역시 계양구 장제로 732","jibunAddr":"인천광역시 계양구 작전동 899-4","openHours":"미개방","maleToilets":28,"femaleToilets":14,"disabled":false,"diaperTable":false,"emergencyBell":false,"cctv":false,"source":"public","category":"public"},{"id":"202535500000100414","name":"효성1동 행정복지센터","lat":37.532462,"lng":126.712134,"roadAddr":"인천광역시 계양구 봉오대로 569번길 22","jibunAddr":"인천광역시 계양구 효성동 23-28","openHours":"9시간(09:00~18:00)","maleToilets":9,"femaleToilets":9,"disabled":true,"diaperTable":false,"emergencyBell":true,"cctv":true,"source":"public","category":"public"},{"id":"202535500000100410","name":"작전2동 행정복지센터","lat":37.532914,"lng":126.723909,"roadAddr":"인천광역시 계양구 봉오대로 677번길 23","jibunAddr":"인천광역시 계양구 작전동 854-11","openHours":"9시간(09:00~18:00)","maleToilets":13,"femaleToilets":12,"disabled":true,"diaperTable":false,"emergencyBell":true,"cctv":true,"source":"public","category":"public"},{"id":"202535500000100624","name":"계산메가타운","lat":37.542974,"lng":126.728048,"roadAddr":"인천광역시 계양구 경명대로 1090","jibunAddr":"인천광역시 계양구 계산동 946-6","openHours":"1층만 24시간 개방","maleToilets":18,"femaleToilets":6,"disabled":true,"diaperTable":false,"emergencyBell":false,"cctv":true,"source":"public","category":"public"},{"id":"202535500000100601","name":"영산빌딩","lat":37.539484,"lng":126.734961,"roadAddr":"인천광역시 계양구 장제로 804","jibunAddr":"인천광역시 계양구 계산동 1063-12","openHours":"13시간30분","maleToilets":60,"femaleToilets":23,"disabled":true,"diaperTable":false,"emergencyBell":false,"cctv":false,"source":"public","category":"public"},{"id":"202535500000100692","name":"계림빌딩","lat":37.543863,"lng":126.723707,"roadAddr":"인천광역시 계양구 경명대로 1051","jibunAddr":"인천광역시 계양구 계산동 931-52","openHours":"미개방","maleToilets":24,"femaleToilets":12,"disabled":false,"diaperTable":false,"emergencyBell":false,"cctv":true,"source":"public","category":"public"},{"id":"202535500000100462","name":"인천부평초","lat":37.541371,"lng":126.723351,"roadAddr":"인천광역시 계양구 어사대로 20","jibunAddr":"인천광역시 계양구 계산동 943","openHours":"미개방","maleToilets":82,"femaleToilets":68,"disabled":true,"diaperTable":false,"emergencyBell":false,"cctv":false,"source":"public","category":"public"},{"id":"202535500000100557","name":"의료법인인성의료재단한림병원","lat":37.532247,"lng":126.734335,"roadAddr":"인천광역시 계양구 장제로 722","jibunAddr":"인천광역시 계양구 작전동 900-4","openHours":"상시","maleToilets":20,"femaleToilets":14,"disabled":true,"diaperTable":true,"emergencyBell":true,"cctv":true,"source":"public","category":"public"},{"id":"202535500000100439","name":"작전도서관","lat":37.533006,"lng":126.737729,"roadAddr":"인천광역시 계양구 오조산로 21번길 4","jibunAddr":"인천광역시 계양구 작전동 908","openHours":"16시간(06:00~22:00)","maleToilets":9,"femaleToilets":12,"disabled":true,"diaperTable":false,"emergencyBell":true,"cctv":true,"source":"public","category":"public"},{"id":"202535500000100650","name":"태흥프라자","lat":37.539353,"lng":126.735254,"roadAddr":"인천광역시 계양구 계산새로 65번길 13","jibunAddr":"인천광역시 계양구 계산동 1063-3","openHours":"24시간","maleToilets":28,"femaleToilets":14,"disabled":false,"diaperTable":false,"emergencyBell":false,"cctv":true,"source":"public","category":"public"},{"id":"202535500000100366","name":"작전문화공원","lat":37.531146,"lng":126.735775,"roadAddr":"인천광역시 계양구 계양문화로 1","jibunAddr":"인천광역시 계양구 작전동 902","openHours":"24시간","maleToilets":10,"femaleToilets":6,"disabled":true,"diaperTable":false,"emergencyBell":true,"cctv":true,"source":"public","category":"public"},{"id":"202535500000100639","name":"창석빌딩","lat":37.532779,"lng":126.734536,"roadAddr":"인천광역시 계양구 도두리로 6번길 14","jibunAddr":"인천광역시 계양구 작전동 900-5","openHours":"미개방","maleToilets":28,"femaleToilets":14,"disabled":false,"diaperTable":false,"emergencyBell":true,"cctv":false,"source":"public","category":"public"},{"id":"202535500000100648","name":"대주프라자","lat":37.535609,"lng":126.734845,"roadAddr":"인천광역시 계양구 계양문화로53번길 13","jibunAddr":"인천광역시 계양구 계산동 1074-5","openHours":"미개방","maleToilets":28,"femaleToilets":14,"disabled":false,"diaperTable":false,"emergencyBell":false,"cctv":true,"source":"public","category":"public"},{"id":"202535500000100654","name":"로얄프라자","lat":37.543645,"lng":126.726665,"roadAddr":"인천광역시 계양구 경명대로 1077","jibunAddr":"인천광역시 계양구 계산동 928-27","openHours":"미개방","maleToilets":24,"femaleToilets":16,"disabled":false,"diaperTable":false,"emergencyBell":false,"cctv":true,"source":"public","category":"public"},{"id":"202535500000100633","name":"주영빌딩","lat":37.535394,"lng":126.737772,"roadAddr":"인천광역시 계양구 오조산로 45번길 8-1","jibunAddr":"인천광역시 계양구 계산동 1080-6","openHours":"24시간","maleToilets":14,"femaleToilets":6,"disabled":false,"diaperTable":false,"emergencyBell":false,"cctv":true,"source":"public","category":"public"},{"id":"202535500000100418","name":"계양산지구대","lat":37.547548,"lng":126.725902,"roadAddr":"인천광역시 계양구 계양산로 92","jibunAddr":"인천광역시 계양구 계산동 903-2","openHours":"24시간","maleToilets":1,"femaleToilets":1,"disabled":false,"diaperTable":false,"emergencyBell":false,"cctv":true,"source":"public","category":"public"},{"id":"202535500000100686","name":"자이빌딩","lat":37.543318,"lng":126.733803,"roadAddr":"인천광역시 계양구 경명대로 1139","jibunAddr":"인천광역시 계양구 계산동 917-14","openHours":"15시간(08:00~21:00)","maleToilets":8,"femaleToilets":4,"disabled":false,"diaperTable":false,"emergencyBell":false,"cctv":true,"source":"public","category":"public"},{"id":"202535500000100682","name":"서송요양병원","lat":37.543152,"lng":126.713652,"roadAddr":"인천광역시 계양구 경명대로972번길 9","jibunAddr":"인천광역시 계양구 계산동 산 52-27","openHours":"9시간(09:00~18:00)","maleToilets":3,"femaleToilets":4,"disabled":true,"diaperTable":true,"emergencyBell":true,"cctv":true,"source":"public","category":"public"},{"id":"202535500000100559","name":"효성요양병원","lat":37.53095,"lng":126.711267,"roadAddr":"인천광역시 계양구 안남로 538","jibunAddr":"인천광역시 계양구 효성동 66-3","openHours":"9시간(08:30~17:30)","maleToilets":2,"femaleToilets":1,"disabled":true,"diaperTable":true,"emergencyBell":true,"cctv":true,"source":"public","category":"public"},{"id":"202535500000100618","name":"계양메디칼센터","lat":37.539832,"lng":126.735327,"roadAddr":"인천광역시 계양구 계산새로65번길 17","jibunAddr":"인천광역시 계양구 계산동 1063-1","openHours":"13시간(06:00~19:00)","maleToilets":24,"femaleToilets":12,"disabled":false,"diaperTable":false,"emergencyBell":false,"cctv":true,"source":"public","category":"public"},{"id":"202535500000100687","name":"서운간이체육관","lat":37.537496,"lng":126.737705,"roadAddr":"인천광역시 계양구","jibunAddr":"인천광역시 계양구 서운동 140-5","openHours":"12시간(09:00~21:00)","maleToilets":5,"femaleToilets":5,"disabled":false,"diaperTable":false,"emergencyBell":true,"cctv":false,"source":"public","category":"public"},{"id":"202535500000100510","name":"롯데쇼핑㈜롯데마트계양점","lat":37.540849,"lng":126.736003,"roadAddr":"인천광역시 계양구 장제로 822","jibunAddr":"인천광역시 계양구 계산동 1059-1","openHours":"13시간(10:00~23:00)","maleToilets":42,"femaleToilets":28,"disabled":true,"diaperTable":true,"emergencyBell":false,"cctv":true,"source":"public","category":"public"},{"id":"202535500000100396","name":"계양역","lat":37.571609,"lng":126.736023,"roadAddr":"인천광역시 계양구 다남로 24, 계양역 (귤현동)","jibunAddr":"인천광역시 계양구 귤현동 451-264 계양역","openHours":"19시간(05:00~24:00)","maleToilets":19,"femaleToilets":15,"disabled":true,"diaperTable":true,"emergencyBell":true,"cctv":true,"source":"public","category":"public"},{"id":"202535500000100540","name":"명품주유소","lat":37.544339,"lng":126.714787,"roadAddr":"인천광역시 계양구 경명대로 971","jibunAddr":"인천광역시 계양구 계산동 728-4","openHours":"18시간(05:00~23:00)","maleToilets":5,"femaleToilets":2,"disabled":false,"diaperTable":false,"emergencyBell":false,"cctv":false,"source":"public","category":"public"},{"id":"202535500000100652","name":"니꼴빌딩","lat":37.538792,"lng":126.738152,"roadAddr":"인천광역시 계양구 오조산로 89번길 5","jibunAddr":"인천광역시 계양구 용종동 211-8","openHours":"미개방","maleToilets":27,"femaleToilets":13,"disabled":false,"diaperTable":false,"emergencyBell":false,"cctv":true,"source":"public","category":"public"},{"id":"202535500000100367","name":"까치근린공원","lat":37.533006,"lng":126.737729,"roadAddr":"인천광역시 계양구 오조산로 21번길 4","jibunAddr":"인천광역시 계양구 작전동 908","openHours":"24시간","maleToilets":4,"femaleToilets":5,"disabled":true,"diaperTable":false,"emergencyBell":true,"cctv":true,"source":"public","category":"public"},{"id":"202535500000100381","name":"계양근린공원","lat":37.550131,"lng":126.723382,"roadAddr":"인천광역시 계양구 계양산로 75번길 26","jibunAddr":"인천광역시 계양구 계산동 산52-1","openHours":"24시간","maleToilets":8,"femaleToilets":8,"disabled":false,"diaperTable":false,"emergencyBell":true,"cctv":true,"source":"public","category":"public"},{"id":"202535500000100609","name":"강북프라자","lat":37.53924,"lng":126.737229,"roadAddr":"인천광역시 계양구 계양문화로 96","jibunAddr":"인천광역시 계양구 용종동 209-3","openHours":"24시간(00:00~24:00)","maleToilets":49,"femaleToilets":21,"disabled":false,"diaperTable":false,"emergencyBell":false,"cctv":true,"source":"public","category":"public"},{"id":"202535500000100626","name":"상록프라자","lat":37.531838,"lng":126.734283,"roadAddr":"인천광역시 계양구 장제로 718","jibunAddr":"인천광역시 계양구 작전동 901-1","openHours":"미개방","maleToilets":22,"femaleToilets":18,"disabled":true,"diaperTable":false,"emergencyBell":false,"cctv":true,"source":"public","category":"public"},{"id":"202535500000100457","name":"인천효성동초","lat":37.532772,"lng":126.715864,"roadAddr":"인천광역시 계양구 새벌로 171번길 4","jibunAddr":"인천광역시 계양구 효성동 1-4","openHours":"8시간(08:30~16:30)","maleToilets":83,"femaleToilets":68,"disabled":true,"diaperTable":false,"emergencyBell":true,"cctv":true,"source":"public","category":"public"},{"id":"202535500000100611","name":"대산월드프라자","lat":37.535496,"lng":126.736844,"roadAddr":"인천광역시 계양구 계양문화로 54","jibunAddr":"인천광역시 계양구 계산동 1081-7","openHours":"미개방","maleToilets":68,"femaleToilets":27,"disabled":true,"diaperTable":false,"emergencyBell":false,"cctv":true,"source":"public","category":"public"},{"id":"202535500000100465","name":"인천안산초","lat":37.544093,"lng":126.731753,"roadAddr":"인천광역시 계양구 임학서로 15","jibunAddr":"인천광역시 계양구 계산동 914","openHours":"미개방","maleToilets":92,"femaleToilets":84,"disabled":true,"diaperTable":false,"emergencyBell":false,"cctv":false,"source":"public","category":"public"},{"id":"202535500000100391","name":"계산국민체육센터","lat":37.546113,"lng":126.729192,"roadAddr":"인천광역시 계양구 주부토로 580","jibunAddr":"인천광역시 계양구 계산동 907-2","openHours":"9시간(09:00~18:00)","maleToilets":13,"femaleToilets":8,"disabled":true,"diaperTable":false,"emergencyBell":true,"cctv":true,"source":"public","category":"public"},{"id":"202535500000100406","name":"계산2동 행정복지센터","lat":37.544209,"lng":126.728142,"roadAddr":"인천광역시 계양구 주부토로 559","jibunAddr":"인천광역시 계양구 계산동 920","openHours":"9시간(09:00~18:00)","maleToilets":9,"femaleToilets":6,"disabled":false,"diaperTable":false,"emergencyBell":true,"cctv":true,"source":"public","category":"public"},{"id":"202535500000100574","name":"경원빌딩","lat":37.539677,"lng":126.738256,"roadAddr":"인천광역시 계양구 오조산로 30","jibunAddr":"인천광역시 계양구 용종동 212-8","openHours":"미개방","maleToilets":31,"femaleToilets":27,"disabled":false,"diaperTable":false,"emergencyBell":false,"cctv":true,"source":"public","category":"public"},{"id":"202535500000100568","name":"성베드로한방병원","lat":37.537894,"lng":126.733998,"roadAddr":"인천광역시 계양구 장제로 785","jibunAddr":"인천광역시 계양구 계산동 1068-2","openHours":"15시간(08:00~23:00)","maleToilets":0,"femaleToilets":2,"disabled":true,"diaperTable":false,"emergencyBell":false,"cctv":true,"source":"public","category":"public"},{"id":"202535500000100672","name":"신세계빌딩","lat":37.543641,"lng":126.726217,"roadAddr":"인천광역시 계양구 경명대로 1071","jibunAddr":"인천광역시 계양구 계산동 928-29","openHours":"미개방","maleToilets":15,"femaleToilets":10,"disabled":false,"diaperTable":false,"emergencyBell":false,"cctv":false,"source":"public","category":"public"},{"id":"202535500000100576","name":"KT&G북인천지사","lat":37.54408,"lng":126.719245,"roadAddr":"인천광역시 계양구 경명대로 1011","jibunAddr":"인천광역시 계양구 계산동 935-6","openHours":"12시간(08:00~20:00)","maleToilets":2,"femaleToilets":1,"disabled":true,"diaperTable":false,"emergencyBell":false,"cctv":true,"source":"public","category":"public"},{"id":"202535500000100666","name":"대건빌딩","lat":37.539102,"lng":126.737623,"roadAddr":"인천광역시 계양구 오조산로89번길 12","jibunAddr":"인천광역시 계양구 용종동 209-6","openHours":"24시간","maleToilets":27,"femaleToilets":12,"disabled":false,"diaperTable":false,"emergencyBell":false,"cctv":false,"source":"public","category":"public"},{"id":"202535500000100689","name":"영프라자","lat":37.532798,"lng":126.734267,"roadAddr":"인천광역시 계양구 장제로 728","jibunAddr":"인천광역시 계양구 작전동 900-1","openHours":"24시간","maleToilets":14,"femaleToilets":14,"disabled":true,"diaperTable":true,"emergencyBell":true,"cctv":true,"source":"public","category":"public"},{"id":"202535500000100472","name":"인천안남중","lat":37.539452,"lng":126.730699,"roadAddr":"인천광역시 계양구 계산새로 33번길 5","jibunAddr":"인천광역시 계양구 계산동 337-30","openHours":"미개방","maleToilets":80,"femaleToilets":68,"disabled":true,"diaperTable":false,"emergencyBell":false,"cctv":true,"source":"public","category":"public"},{"id":"202535500000100485","name":"작전중","lat":37.533589,"lng":126.729673,"roadAddr":"인천광역시 계양구 주부토로 448번길 16","jibunAddr":"인천광역시 계양구 작전동 85","openHours":"미개방","maleToilets":66,"femaleToilets":64,"disabled":true,"diaperTable":false,"emergencyBell":false,"cctv":false,"source":"public","category":"public"},{"id":"202535500000100674","name":"동림빌딩","lat":37.538416,"lng":126.734102,"roadAddr":"인천광역시 계양구 장제로 789","jibunAddr":"인천광역시 계양구 계산동 1066-4","openHours":"미개방","maleToilets":17,"femaleToilets":8,"disabled":true,"diaperTable":false,"emergencyBell":false,"cctv":false,"source":"public","category":"public"},{"id":"202535500000100585","name":"라이즈빌","lat":37.534561,"lng":126.736737,"roadAddr":"인천광역시 계양구 계양문화로 44","jibunAddr":"인천광역시 계양구 계산동 1082-7","openHours":"미개방","maleToilets":14,"femaleToilets":10,"disabled":true,"diaperTable":false,"emergencyBell":false,"cctv":true,"source":"public","category":"public"},{"id":"202535500000100580","name":"계산새마을금고","lat":37.541783,"lng":126.722331,"roadAddr":"인천광역시 계양구 계양대로 201","jibunAddr":"인천광역시 계양구 계산동 942-8","openHours":"미개방","maleToilets":12,"femaleToilets":8,"disabled":true,"diaperTable":false,"emergencyBell":false,"cctv":true,"source":"public","category":"public"},{"id":"202535500000100627","name":"미소지움 메디컬","lat":37.535589,"lng":126.738254,"roadAddr":"인천광역시 계양구 오조산로 53","jibunAddr":"인천광역시 계양구 계산동 1080-2","openHours":"9시간(09:00~18:00)","maleToilets":8,"femaleToilets":4,"disabled":true,"diaperTable":false,"emergencyBell":false,"cctv":false,"source":"public","category":"public"},{"id":"202535500000100444","name":"인천계산초","lat":37.544484,"lng":126.717363,"roadAddr":"인천광역시 계양구 경명대로 1005","jibunAddr":"인천광역시 계양구 계산동 737","openHours":"미개방","maleToilets":0,"femaleToilets":0,"disabled":true,"diaperTable":false,"emergencyBell":false,"cctv":true,"source":"public","category":"public"},{"id":"202535500000100460","name":"인천효성초","lat":37.536754,"lng":126.710785,"roadAddr":"인천광역시 계양구 안남로 601","jibunAddr":"인천광역시 계양구 효성동 28-1","openHours":"미개방","maleToilets":90,"femaleToilets":54,"disabled":true,"diaperTable":false,"emergencyBell":false,"cctv":true,"source":"public","category":"public"},{"id":"202535500000100584","name":"맘모스타운","lat":37.533719,"lng":126.735567,"roadAddr":"인천광역시 계양구 도두리로 14","jibunAddr":"인천광역시 계양구 작전동 907-2","openHours":"24시간","maleToilets":21,"femaleToilets":11,"disabled":false,"diaperTable":false,"emergencyBell":false,"cctv":true,"source":"public","category":"public"},{"id":"202535500000100495","name":"작전여고","lat":37.532136,"lng":126.730077,"roadAddr":"인천광역시 계양구 주부토로 426번길 15","jibunAddr":"인천광역시 계양구 작전동 92","openHours":"미개방","maleToilets":6,"femaleToilets":3,"disabled":false,"diaperTable":false,"emergencyBell":true,"cctv":true,"source":"public","category":"public"},{"id":"202535500000100490","name":"작전고","lat":37.532856,"lng":126.73039,"roadAddr":"인천광역시 계양구 봉오대로 729번길 27","jibunAddr":"인천광역시 계양구 작전동 90","openHours":"9시간(08:40~17:40)","maleToilets":156,"femaleToilets":17,"disabled":true,"diaperTable":false,"emergencyBell":false,"cctv":true,"source":"public","category":"public"},{"id":"202535500000100643","name":"한빛프라자","lat":37.534872,"lng":126.73718,"roadAddr":"인천광역시 계양구 오조산로 45번길 11","jibunAddr":"인천광역시 계양구 계산동 1082-1","openHours":"24시간","maleToilets":34,"femaleToilets":12,"disabled":false,"diaperTable":false,"emergencyBell":false,"cctv":true,"source":"public","category":"public"},{"id":"202535500000100669","name":"대정프라자","lat":37.532477,"lng":126.71075,"roadAddr":"인천광역시 계양구 안남로554번길 1","jibunAddr":"인천광역시 계양구 효성동 60-7","openHours":"24시간","maleToilets":20,"femaleToilets":10,"disabled":false,"diaperTable":false,"emergencyBell":false,"cctv":true,"source":"public","category":"public"},{"id":"202535500000100629","name":"계양프라자(오조산공원로)","lat":37.539626,"lng":126.737274,"roadAddr":"인천광역시 계양구 오조산공원로 22","jibunAddr":"인천광역시 계양구 용종동 209-4","openHours":"24시간","maleToilets":36,"femaleToilets":18,"disabled":false,"diaperTable":false,"emergencyBell":false,"cctv":true,"source":"public","category":"public"},{"id":"202535500000100480","name":"인천효성중","lat":37.537455,"lng":126.710275,"roadAddr":"인천광역시 계양구 안남로 607","jibunAddr":"인천광역시 계양구 효성동 28-43","openHours":"미개방","maleToilets":79,"femaleToilets":17,"disabled":true,"diaperTable":false,"emergencyBell":false,"cctv":false,"source":"public","category":"public"},{"id":"202535500000100623","name":"썬프라자","lat":37.531884,"lng":126.710101,"roadAddr":"인천광역시 계양구 봉오대로555번길 14","jibunAddr":"인천광역시 계양구 효성동 66-1","openHours":"미개방","maleToilets":45,"femaleToilets":24,"disabled":true,"diaperTable":false,"emergencyBell":false,"cctv":false,"source":"public","category":"public"},{"id":"202535500000100632","name":"대덕노바체","lat":37.540517,"lng":126.723115,"roadAddr":"인천광역시 계양구 계양대로 188","jibunAddr":"인천광역시 계양구 계산동 956-6","openHours":"24시간","maleToilets":32,"femaleToilets":15,"disabled":true,"diaperTable":false,"emergencyBell":false,"cctv":true,"source":"public","category":"public"},{"id":"202535500000100445","name":"인천안남초","lat":37.541209,"lng":126.732402,"roadAddr":"인천광역시 계양구 경명대로 1114번길 26","jibunAddr":"인천광역시 계양구 계산동 34-2","openHours":"미개방","maleToilets":48,"femaleToilets":43,"disabled":true,"diaperTable":false,"emergencyBell":false,"cctv":false,"source":"public","category":"public"},{"id":"202535500000100605","name":"뉴월드프라자","lat":37.534908,"lng":126.736764,"roadAddr":"인천광역시 계양구 계양문화로 48","jibunAddr":"인천광역시 계양구 계산동 1082-10","openHours":"24시간","maleToilets":38,"femaleToilets":28,"disabled":false,"diaperTable":false,"emergencyBell":false,"cctv":false,"source":"public","category":"public"},{"id":"202535500000100655","name":"계양신협","lat":37.533697,"lng":126.722215,"roadAddr":"인천광역시 계양구 계양대로 111","jibunAddr":"인천광역시 계양구 작전동 853-38","openHours":"7시간30분(평일 09:00~16:30)","maleToilets":4,"femaleToilets":2,"disabled":false,"diaperTable":false,"emergencyBell":false,"cctv":false,"source":"public","category":"public"},{"id":"202535500000100471","name":"북인천중","lat":37.542587,"lng":126.717111,"roadAddr":"인천광역시 계양구 계산로 22번길 6","jibunAddr":"인천광역시 계양구 계산동 765","openHours":"미개방","maleToilets":59,"femaleToilets":51,"disabled":true,"diaperTable":false,"emergencyBell":false,"cctv":true,"source":"public","category":"public"},{"id":"202535500000100419","name":"계산1파출소","lat":37.539101,"lng":126.725786,"roadAddr":"인천광역시 계양구 계산천동로 19번길 14","jibunAddr":"인천광역시 계양구 계산동 962-36","openHours":"24시간","maleToilets":0,"femaleToilets":1,"disabled":false,"diaperTable":false,"emergencyBell":false,"cctv":true,"source":"public","category":"public"},{"id":"202535500000100416","name":"계양경찰서","lat":37.537596,"lng":126.735747,"roadAddr":"인천광역시 계양구 계산새로 68","jibunAddr":"인천광역시 계양구 계산동 1078-1","openHours":"24시간","maleToilets":27,"femaleToilets":4,"disabled":true,"diaperTable":false,"emergencyBell":true,"cctv":true,"source":"public","category":"public"},{"id":"202535500000100634","name":"축협계산빌딩","lat":37.536986,"lng":126.727742,"roadAddr":"인천광역시 계양구 주부토로 479","jibunAddr":"인천광역시 계양구 계산동 990-14","openHours":"12시간30분(07:00~19:30)","maleToilets":19,"femaleToilets":10,"disabled":false,"diaperTable":false,"emergencyBell":false,"cctv":true,"source":"public","category":"public"},{"id":"202535500000100426","name":"인천계양소방서 작전119안전센터","lat":37.537054,"lng":126.734918,"roadAddr":"인천광역시 계양구 장제로 774","jibunAddr":"인천광역시 계양구 계산동 1078-4","openHours":"24시간","maleToilets":25,"femaleToilets":5,"disabled":false,"diaperTable":false,"emergencyBell":false,"cctv":true,"source":"public","category":"public"},{"id":"202535500000100596","name":"이-프라자","lat":37.534182,"lng":126.736714,"roadAddr":"인천광역시 계양구 도두리로 21","jibunAddr":"인천광역시 계양구 계산동 1082-6","openHours":"24시간","maleToilets":14,"femaleToilets":21,"disabled":false,"diaperTable":false,"emergencyBell":false,"cctv":true,"source":"public","category":"public"},{"id":"202535500000100422","name":"인천계양우체국","lat":37.537465,"lng":126.736187,"roadAddr":"인천광역시 계양구 계산새로 76","jibunAddr":"인천광역시 계양구 계산동 1078-2","openHours":"9시간(09:00~18:00)","maleToilets":16,"femaleToilets":10,"disabled":true,"diaperTable":false,"emergencyBell":false,"cctv":true,"source":"public","category":"public"},{"id":"202535500000100400","name":"계양구청","lat":37.537441,"lng":126.73776,"roadAddr":"인천광역시 계양구 계산새로 88","jibunAddr":"인천광역시 계양구 계산동 1079-1","openHours":"9시간(09:00~18:00)","maleToilets":108,"femaleToilets":49,"disabled":true,"diaperTable":true,"emergencyBell":true,"cctv":true,"source":"public","category":"public"},{"id":"202535500000100461","name":"경인교육대학교 부설초","lat":37.537643,"lng":126.712594,"roadAddr":"인천광역시 계양구 안남로 612","jibunAddr":"인천광역시 계양구 효성동 산 19-1","openHours":"미개방","maleToilets":63,"femaleToilets":34,"disabled":false,"diaperTable":false,"emergencyBell":false,"cctv":false,"source":"public","category":"public"},{"id":"202535500000100541","name":"미래석유㈜","lat":37.543914,"lng":126.713894,"roadAddr":"인천광역시 계양구 경명대로 966","jibunAddr":"인천광역시 계양구 계산동 728-6","openHours":"18시간(05:00~23:00)","maleToilets":3,"femaleToilets":2,"disabled":false,"diaperTable":false,"emergencyBell":false,"cctv":true,"source":"public","category":"public"},{"id":"202535500000100375","name":"천마산(등산로입구)화장실","lat":37.537496,"lng":126.737705,"roadAddr":"인천광역시 계양구","jibunAddr":"인천광역시 계양구 효성동 101-106","openHours":"24시간","maleToilets":3,"femaleToilets":4,"disabled":false,"diaperTable":false,"emergencyBell":true,"cctv":true,"source":"public","category":"public"},{"id":"202535500000100393","name":"계산역","lat":37.54329,"lng":126.728081,"roadAddr":"인천광역시 계양구 경명대로 지하1089, 계산역 (계산동)","jibunAddr":"인천광역시 계양구 계산동 1014 계산역","openHours":"19시간(05:00~24:00)","maleToilets":12,"femaleToilets":5,"disabled":true,"diaperTable":true,"emergencyBell":true,"cctv":true,"source":"public","category":"public"},{"id":"202535500000100694","name":"계양유소년축구장","lat":37.552497,"lng":126.737309,"roadAddr":"인천광역시 계양구 방축로 55","jibunAddr":"인천광역시 계양구 방축동 102","openHours":"15시간30분(06:30~22:00)","maleToilets":6,"femaleToilets":6,"disabled":true,"diaperTable":true,"emergencyBell":true,"cctv":true,"source":"public","category":"public"},{"id":"202535500000100662","name":"삼환2빌딩","lat":37.543678,"lng":126.725669,"roadAddr":"인천광역시 계양구 경명대로 1067","jibunAddr":"인천광역시 계양구 계산동 929-3","openHours":"미개방","maleToilets":20,"femaleToilets":10,"disabled":false,"diaperTable":false,"emergencyBell":false,"cctv":false,"source":"public","category":"public"},{"id":"202535500000100644","name":"광성프라자","lat":37.535832,"lng":126.734859,"roadAddr":"인천광역시 계양구 계양문화로 53번길 14","jibunAddr":"인천광역시 계양구 계산동 1074-4","openHours":"미개방","maleToilets":21,"femaleToilets":14,"disabled":false,"diaperTable":false,"emergencyBell":false,"cctv":true,"source":"public","category":"public"},{"id":"202535500000100588","name":"세종팰리스","lat":37.531357,"lng":126.734234,"roadAddr":"인천광역시 계양구 장제로 714","jibunAddr":"인천광역시 계양구 작전동 901-3","openHours":"24시간","maleToilets":4,"femaleToilets":1,"disabled":true,"diaperTable":false,"emergencyBell":false,"cctv":true,"source":"public","category":"public"},{"id":"202535500000100636","name":"태평프라자상가","lat":37.539948,"lng":126.732537,"roadAddr":"인천광역시 계양구 주부토로 532번길 43","jibunAddr":"인천광역시 계양구 계산동 49-2","openHours":"미개방","maleToilets":32,"femaleToilets":8,"disabled":false,"diaperTable":false,"emergencyBell":false,"cctv":true,"source":"public","category":"public"},{"id":"202535500000100663","name":"미래사랑빌딩","lat":37.5356,"lng":126.737861,"roadAddr":"인천광역시 계양구 오조산로57번길 7-1","jibunAddr":"인천광역시 계양구 계산동 1080-7","openHours":"미개방","maleToilets":28,"femaleToilets":14,"disabled":false,"diaperTable":false,"emergencyBell":false,"cctv":false,"source":"public","category":"public"},{"id":"202535500000100513","name":"㈜메트로몰","lat":37.533726,"lng":126.734526,"roadAddr":"인천광역시 계양구 장제로 738","jibunAddr":"인천광역시 계양구 작전동 899-1","openHours":"10시간(12:00~22:00)","maleToilets":63,"femaleToilets":43,"disabled":true,"diaperTable":false,"emergencyBell":false,"cctv":true,"source":"public","category":"public"},{"id":"202535500000100647","name":"태영프라자","lat":37.538812,"lng":126.737604,"roadAddr":"인천광역시 계양구 오조산로 89번길 9","jibunAddr":"인천광역시 계양구 용종동 210-1","openHours":"24시간","maleToilets":24,"femaleToilets":12,"disabled":false,"diaperTable":false,"emergencyBell":false,"cctv":true,"source":"public","category":"public"},{"id":"202535500000100526","name":"삼미상사㈜ 북인천주유소","lat":37.543018,"lng":126.727044,"roadAddr":"인천광역시 계양구 경명대로 1082","jibunAddr":"인천광역시 계양구 계산동 946","openHours":"24시간","maleToilets":4,"femaleToilets":1,"disabled":false,"diaperTable":false,"emergencyBell":false,"cctv":true,"source":"public","category":"public"},{"id":"202535500000100645","name":"에메랄드빌딩","lat":37.539071,"lng":126.738177,"roadAddr":"인천광역시 계양구 오조산로 89번길 6","jibunAddr":"인천광역시 계양구 용종동 212-5","openHours":"24시간","maleToilets":25,"femaleToilets":10,"disabled":false,"diaperTable":false,"emergencyBell":false,"cctv":false,"source":"public","category":"public"},{"id":"202535500000100610","name":"천년뷔페 웨딩홀","lat":37.542962,"lng":126.73056,"roadAddr":"인천광역시 계양구 경명대로 1108","jibunAddr":"인천광역시 계양구 계산동 348-4","openHours":"미개방","maleToilets":24,"femaleToilets":15,"disabled":false,"diaperTable":false,"emergencyBell":false,"cctv":false,"source":"public","category":"public"},{"id":"202535500000100360","name":"병방어린이공원","lat":37.54814,"lng":126.738034,"roadAddr":"인천광역시 계양구 병방시장로55번길 4","jibunAddr":"인천광역시 계양구 병방동 367","openHours":"24시간","maleToilets":4,"femaleToilets":3,"disabled":true,"diaperTable":true,"emergencyBell":true,"cctv":true,"source":"public","category":"public"},{"id":"202535500000100399","name":"작전역","lat":37.530313,"lng":126.72257,"roadAddr":"인천광역시 계양구 계양대로 지하73, 작전역 (작전동)","jibunAddr":"인천광역시 계양구 작전동 878 작전역","openHours":"19시간(05:00~24:00)","maleToilets":7,"femaleToilets":9,"disabled":true,"diaperTable":true,"emergencyBell":true,"cctv":true,"source":"public","category":"public"},{"id":"202535500000100606","name":"보람비즈니스프라자","lat":37.538198,"lng":126.737536,"roadAddr":"인천광역시 계양구 계산새로 85","jibunAddr":"인천광역시 계양구 용종동 210-6","openHours":"미개방","maleToilets":28,"femaleToilets":21,"disabled":true,"diaperTable":false,"emergencyBell":false,"cctv":true,"source":"public","category":"public"},{"id":"202535500000100500","name":"계산노인문화센터","lat":37.543628,"lng":126.715609,"roadAddr":"인천광역시 계양구 경명대로 980","jibunAddr":"인천광역시 계양구 계산동 885-24","openHours":"9시간(09:00~18:00)","maleToilets":18,"femaleToilets":16,"disabled":true,"diaperTable":false,"emergencyBell":true,"cctv":true,"source":"public","category":"public"},{"id":"202535500000100641","name":"동성프라자","lat":37.545013,"lng":126.722818,"roadAddr":"인천광역시 계양구 경명대로 1045번길 15","jibunAddr":"인천광역시 계양구 계산동 931-24","openHours":"미개방","maleToilets":9,"femaleToilets":6,"disabled":false,"diaperTable":false,"emergencyBell":false,"cctv":false,"source":"public","category":"public"},{"id":"202535500000100405","name":"계산1동 행정복지센터","lat":37.539605,"lng":126.721348,"roadAddr":"인천광역시 계양구 향교로 24","jibunAddr":"인천광역시 계양구 계산동 972-1","openHours":"9시간(09:00~18:00)","maleToilets":11,"femaleToilets":8,"disabled":true,"diaperTable":false,"emergencyBell":true,"cctv":true,"source":"public","category":"public"},{"id":"202535500000100582","name":"덕영빌딩","lat":37.531089,"lng":126.722992,"roadAddr":"인천광역시 계양구 계양대로 82","jibunAddr":"인천광역시 계양구 작전동 863-15","openHours":"13시간(08:00~21:00)","maleToilets":24,"femaleToilets":14,"disabled":false,"diaperTable":false,"emergencyBell":false,"cctv":true,"source":"public","category":"public"},{"id":"202535500000100659","name":"레드몰 1차","lat":37.538541,"lng":126.737425,"roadAddr":"인천광역시 계양구 계산새로 87번길 5","jibunAddr":"인천광역시 계양구 용종동 210-2","openHours":"24시간","maleToilets":60,"femaleToilets":24,"disabled":false,"diaperTable":false,"emergencyBell":false,"cctv":true,"source":"public","category":"public"},{"id":"202535500000100603","name":"계림빌딩","lat":37.543159,"lng":126.72445,"roadAddr":"인천광역시 계양구 경명대로 1058","jibunAddr":"인천광역시 계양구 계산동 944-11","openHours":"미개방","maleToilets":24,"femaleToilets":12,"disabled":false,"diaperTable":false,"emergencyBell":false,"cctv":true,"source":"public","category":"public"},{"id":"202535500000100446","name":"인천해서초","lat":37.540142,"lng":126.717663,"roadAddr":"인천광역시 계양구 계산로 42-1","jibunAddr":"인천광역시 계양구 계산동 783-5","openHours":"미개방","maleToilets":50,"femaleToilets":36,"disabled":true,"diaperTable":false,"emergencyBell":true,"cctv":false,"source":"public","category":"public"},{"id":"202535500000100670","name":"동남빌딩","lat":37.542799,"lng":126.733295,"roadAddr":"인천광역시 계양구 경명대로 1138","jibunAddr":"인천광역시 계양구 계산동 4-3","openHours":"17시간(06:00~23:00)","maleToilets":15,"femaleToilets":10,"disabled":false,"diaperTable":false,"emergencyBell":false,"cctv":false,"source":"public","category":"public"},{"id":"202535500000100401","name":"의회청사","lat":37.536298,"lng":126.738273,"roadAddr":"인천광역시 계양구 오조산로 59, 의회청사 (계산동)","jibunAddr":"인천광역시 계양구 계산동 1079-4 의회청사","openHours":"9시간(09:00~18:00)","maleToilets":8,"femaleToilets":3,"disabled":false,"diaperTable":false,"emergencyBell":true,"cctv":true,"source":"public","category":"public"},{"id":"202535500000100469","name":"인천작전초","lat":37.535026,"lng":126.729276,"roadAddr":"인천광역시 계양구 주부토길 456","jibunAddr":"인천광역시 계양구 작전동 41-3","openHours":"미개방","maleToilets":8,"femaleToilets":10,"disabled":true,"diaperTable":false,"emergencyBell":true,"cctv":true,"source":"public","category":"public"},{"id":"202535500000100421","name":"효성지구대","lat":37.532495,"lng":126.714143,"roadAddr":"인천광역시 계양구 안남로 554번길 31","jibunAddr":"인천광역시 계양구 효성동 21-26","openHours":"24시간","maleToilets":2,"femaleToilets":1,"disabled":false,"diaperTable":false,"emergencyBell":false,"cctv":true,"source":"public","category":"public"},{"id":"202535500000100675","name":"유진빌딩","lat":37.534783,"lng":126.738064,"roadAddr":"인천광역시 계양구 오조산로45번길 3","jibunAddr":"인천광역시 계양구 계산동 1083-9","openHours":"24시간","maleToilets":15,"femaleToilets":7,"disabled":true,"diaperTable":false,"emergencyBell":false,"cctv":false,"source":"public","category":"public"},{"id":"202535500000100491","name":"인천효성고","lat":37.531467,"lng":126.714997,"roadAddr":"인천광역시 계양구 새벌로 171번길 21","jibunAddr":"인천광역시 계양구 효성동 13-1","openHours":"8시간(08:40~16:40)","maleToilets":90,"femaleToilets":68,"disabled":true,"diaperTable":false,"emergencyBell":false,"cctv":false,"source":"public","category":"public"},{"id":"202535500000100407","name":"계산3동 행정복지센터","lat":37.537734,"lng":126.728979,"roadAddr":"인천광역시 계양구 계산새로 7","jibunAddr":"인천광역시 계양구 계산동 480-7","openHours":"9시간(09:00~18:00)","maleToilets":12,"femaleToilets":12,"disabled":true,"diaperTable":true,"emergencyBell":true,"cctv":true,"source":"public","category":"public"},{"id":"202535500000100357","name":"계산체육공원","lat":37.545044,"lng":126.728998,"roadAddr":"인천광역시 계양구 주부토로 570","jibunAddr":"인천광역시 계양구 계산동 907-1","openHours":"24시간","maleToilets":7,"femaleToilets":6,"disabled":true,"diaperTable":true,"emergencyBell":true,"cctv":true,"source":"public","category":"public"},{"id":"202535500000100673","name":"에펠빌딩","lat":37.541104,"lng":126.722297,"roadAddr":"인천광역시 계양구 계양대로 193","jibunAddr":"인천광역시 계양구 계산동 942-24","openHours":"미개방","maleToilets":10,"femaleToilets":5,"disabled":false,"diaperTable":false,"emergencyBell":false,"cctv":false,"source":"public","category":"public"},{"id":"202535500000100604","name":"명동빌딩","lat":37.535951,"lng":126.736866,"roadAddr":"인천광역시 계양구 오조산로57번길 15","jibunAddr":"인천광역시 계양구 계산동 1081-10","openHours":"24시간","maleToilets":28,"femaleToilets":16,"disabled":false,"diaperTable":false,"emergencyBell":false,"cctv":true,"source":"public","category":"public"},{"id":"202535500000100594","name":"대림프라자","lat":37.538173,"lng":126.738064,"roadAddr":"인천광역시 계양구 계산새로 89","jibunAddr":"인천광역시 계양구 용종동 211-5","openHours":"미개방","maleToilets":48,"femaleToilets":30,"disabled":false,"diaperTable":false,"emergencyBell":false,"cctv":true,"source":"public","category":"public"},{"id":"202535500000100653","name":"삼희빌딩","lat":37.53378,"lng":126.736029,"roadAddr":"인천광역시 계양구 계양문화로 33","jibunAddr":"인천광역시 계양구 작전동 907-4","openHours":"미개방","maleToilets":28,"femaleToilets":14,"disabled":false,"diaperTable":true,"emergencyBell":true,"cctv":true,"source":"public","category":"public"},{"id":"202535500000100614","name":"대우프라자","lat":37.538324,"lng":126.737089,"roadAddr":"인천광역시 계양구 계양문화로 86","jibunAddr":"인천광역시 계양구 용종동 210-3","openHours":"상시","maleToilets":30,"femaleToilets":12,"disabled":false,"diaperTable":false,"emergencyBell":false,"cctv":true,"source":"public","category":"public"},{"id":"202535500000100385","name":"계산고양골체육관","lat":37.540588,"lng":126.715333,"roadAddr":"인천광역시 계양구 계산로 22번길 24","jibunAddr":"인천광역시 계양구 계산동 774","openHours":"15시간(06:00~21:00)","maleToilets":8,"femaleToilets":7,"disabled":false,"diaperTable":false,"emergencyBell":true,"cctv":true,"source":"public","category":"public"},{"id":"202535500000100583","name":"에이스타운","lat":37.543049,"lng":126.723036,"roadAddr":"인천광역시 계양구 계양대로 214","jibunAddr":"인천광역시 계양구 계산동 944","openHours":"14시간(10:00~24:00)","maleToilets":32,"femaleToilets":22,"disabled":true,"diaperTable":true,"emergencyBell":false,"cctv":true,"source":"public","category":"public"},{"id":"202535500000100509","name":"계산시장 고객지원센터","lat":37.539329,"lng":126.724758,"roadAddr":"인천광역시 계양구 계산시장길 10-22","jibunAddr":"인천광역시 계양구 계양구 계산동 960-26 일원","openHours":"10시간(09:00~19:00)","maleToilets":5,"femaleToilets":3,"disabled":false,"diaperTable":false,"emergencyBell":true,"cctv":true,"source":"public","category":"public"},{"id":"202535500000100560","name":"인천하이병원","lat":37.543546,"lng":126.73007,"roadAddr":"인천광역시 계양구 경명대로 1107","jibunAddr":"인천광역시 계양구 계산동 918-1","openHours":"24시간","maleToilets":24,"femaleToilets":14,"disabled":false,"diaperTable":false,"emergencyBell":false,"cctv":true,"source":"public","category":"public"},{"id":"202535500000100680","name":"임학도서관","lat":37.54435,"lng":126.73621,"roadAddr":"인천광역시 계양구 임학동로 26-1","jibunAddr":"인천광역시 계양구 임학동 69-9","openHours":"09:00~18:00","maleToilets":8,"femaleToilets":6,"disabled":true,"diaperTable":true,"emergencyBell":true,"cctv":true,"source":"public","category":"public"},{"id":"202535500000100613","name":"새롬프라자","lat":37.538763,"lng":126.737142,"roadAddr":"인천광역시 계양구 계양문화로 90","jibunAddr":"인천광역시 계양구 용종동 210-4","openHours":"미개방","maleToilets":42,"femaleToilets":21,"disabled":false,"diaperTable":false,"emergencyBell":false,"cctv":false,"source":"public","category":"public"},{"id":"202535500000100638","name":"성웅빌딩","lat":37.5332,"lng":126.733573,"roadAddr":"인천광역시 계양구 장제로 731","jibunAddr":"인천광역시 계양구 작전동 898-3","openHours":"24시간","maleToilets":21,"femaleToilets":9,"disabled":false,"diaperTable":false,"emergencyBell":false,"cctv":false,"source":"public","category":"public"},{"id":"202535500000100657","name":"동구프라자","lat":37.538503,"lng":126.738025,"roadAddr":"인천광역시 계양구 계산새로 87번길 6","jibunAddr":"인천광역시 계양구 용종동 211-6","openHours":"24시간","maleToilets":30,"femaleToilets":12,"disabled":false,"diaperTable":false,"emergencyBell":false,"cctv":true,"source":"public","category":"public"},{"id":"202535500000100507","name":"계양구 사회복지회관","lat":37.547444,"lng":126.727094,"roadAddr":"인천광역시 계양구 계양산로 102번길 5","jibunAddr":"인천광역시 계양구 계산동 906","openHours":"9시간(09:00~18:00)","maleToilets":20,"femaleToilets":16,"disabled":true,"diaperTable":true,"emergencyBell":true,"cctv":false,"source":"public","category":"public"},{"id":"202535500000100656","name":"루비프라자","lat":37.534152,"lng":126.737118,"roadAddr":"인천광역시 계양구 도두리로 25","jibunAddr":"인천광역시 계양구 계산동 1082-5","openHours":"미개방","maleToilets":35,"femaleToilets":14,"disabled":false,"diaperTable":false,"emergencyBell":false,"cctv":false,"source":"public","category":"public"},{"id":"202535500000100628","name":"성림프라자","lat":37.535843,"lng":126.73787,"roadAddr":"인천광역시 계양구 오조산로57번길 7","jibunAddr":"인천광역시 계양구 계산동 1080-8","openHours":"24시간","maleToilets":42,"femaleToilets":21,"disabled":false,"diaperTable":false,"emergencyBell":false,"cctv":false,"source":"public","category":"public"},{"id":"202135610000100770","name":"안개협곡화장실(남)","lat":37.570836,"lng":126.699412,"roadAddr":"인천광역시 서해구 정서진로 881(검암동)","jibunAddr":"인천광역시 서해구 검암동 869-9","openHours":"09-18시","maleToilets":4,"femaleToilets":3,"disabled":false,"diaperTable":false,"emergencyBell":true,"cctv":false,"source":"public","category":"public"}]