[{"id":"202435010000100203","name":"만석어린이공원(이동)","lat":37.485917,"lng":126.620331,"roadAddr":"인천광역시 제물포구 만석동","jibunAddr":"인천광역시 제물포구 만석동","openHours":"상시","maleToilets":3,"femaleToilets":2,"disabled":false,"diaperTable":false,"emergencyBell":true,"cctv":false,"managerTel":"0327706202","source":"public","category":"public"},{"id":"202435010000100207","name":"화수부두 공중화장실","lat":37.488064,"lng":126.629297,"roadAddr":"인천광역시 제물포구 화수부두로 35번길 7","jibunAddr":"인천광역시 제물포구 화수동 7-199","openHours":"상시","maleToilets":3,"femaleToilets":4,"disabled":true,"diaperTable":false,"emergencyBell":true,"cctv":false,"managerTel":"0327706504","source":"public","category":"public"},{"id":"202435010000100208","name":"화수부두회센터 공중화장실","lat":37.488896,"lng":126.629821,"roadAddr":"인천광역시 제물포구 화수부두로 28-2","jibunAddr":"인천광역시 제물포구 화수동 7-358","openHours":"상시","maleToilets":4,"femaleToilets":5,"disabled":true,"diaperTable":false,"emergencyBell":true,"cctv":false,"managerTel":"0327706504","source":"public","category":"public"},{"id":"202435010000100209","name":"만석부두 공중화장실","lat":37.488586,"lng":126.622547,"roadAddr":"인천광역시 제물포구 만석부두로 10","jibunAddr":"인천광역시 제물포구 만석동 2-1","openHours":"상시","maleToilets":3,"femaleToilets":3,"disabled":true,"diaperTable":false,"emergencyBell":true,"cctv":false,"managerTel":"0327706504","source":"public","category":"public"},{"id":"202435010000100210","name":"만석부두 이동식화장실","lat":37.491542,"lng":126.622424,"roadAddr":"인천광역시 제물포구 만석부두로 44","jibunAddr":"인천광역시 제물포구 만석동 2-320","openHours":"상시","maleToilets":3,"femaleToilets":2,"disabled":false,"diaperTable":false,"emergencyBell":true,"cctv":false,"managerTel":"0327706504","source":"public","category":"public"},{"id":"202435010000100168","name":"송현주유소","lat":37.485754,"lng":126.645431,"roadAddr":"인천광역시 제물포구 중봉대로 70(송현동)","openHours":"정시","maleToilets":2,"femaleToilets":2,"disabled":false,"diaperTable":false,"emergencyBell":false,"cctv":true,"managerTel":"0327661363","source":"public","category":"public"},{"id":"202435010000100229","name":"KH에너지㈜직영북항주유소","lat":37.488114,"lng":126.645572,"roadAddr":"인천광역시 제물포구 중봉대로 91","openHours":"정시","maleToilets":3,"femaleToilets":1,"disabled":false,"diaperTable":false,"emergencyBell":false,"cctv":false,"managerTel":"0327726084","source":"public","category":"public"},{"id":"202435010000100230","name":"㈜창조구도일주유소 창조 청라","lat":37.487301,"lng":126.645506,"roadAddr":"인천광역시 제물포구 중봉대로 83","openHours":"상시","maleToilets":4,"femaleToilets":1,"disabled":false,"diaperTable":false,"emergencyBell":false,"cctv":true,"managerTel":"0327778580","source":"public","category":"public"},{"id":"202435010000100232","name":"㈜광역주유소 만석점","lat":37.487487,"lng":126.622253,"roadAddr":"인천광역시 제물포구 인중로 441","openHours":"정시","maleToilets":4,"femaleToilets":2,"disabled":false,"diaperTable":false,"emergencyBell":false,"cctv":true,"managerTel":"0327615149","source":"public","category":"public"},{"id":"202435010000100233","name":"갤러리주유소","lat":37.487269,"lng":126.621194,"roadAddr":"인천광역시 제물포구 인중로 431","openHours":"정시","maleToilets":2,"femaleToilets":1,"disabled":false,"diaperTable":false,"emergencyBell":false,"cctv":true,"managerTel":"0327722031","source":"public","category":"public"},{"id":"202435010000100250","name":"한일가스산업㈜ 주유소","lat":37.488212,"lng":126.64608,"roadAddr":"인천광역시 제물포구 중봉대로 93","openHours":"정시","maleToilets":2,"femaleToilets":1,"disabled":false,"diaperTable":false,"emergencyBell":false,"cctv":false,"managerTel":"0327615411","source":"public","category":"public"},{"id":"202135610000100791","name":"포리마루공원(항만1)","lat":37.508382,"lng":126.644639,"roadAddr":"인천광역시 서해구 북항로32번길 19 (원창동)","jibunAddr":"인천광역시 서해구 원창동 381-114","openHours":"상시","maleToilets":3,"femaleToilets":3,"disabled":false,"diaperTable":false,"emergencyBell":true,"cctv":false,"source":"public","category":"public"},{"id":"202135610000100793","name":"율도근린공원","lat":37.507968,"lng":126.624894,"roadAddr":"인천광역시 서해구 북항로206번길 17, 율도공원(근린2호) 화장실 (원창동)","jibunAddr":"인천광역시 서해구 원창동 485-5 율도공원(근린2호) 화장실","openHours":"상시","maleToilets":4,"femaleToilets":2,"disabled":true,"diaperTable":false,"emergencyBell":true,"cctv":false,"source":"public","category":"public"},{"id":"202135610000100794","name":"소첨도근린공원","lat":37.511945,"lng":126.628196,"roadAddr":"인천광역시 서해구 북항로178번길 57 (원창동)","jibunAddr":"인천광역시 서해구 원창동 486-1","openHours":"상시","maleToilets":4,"femaleToilets":2,"disabled":false,"diaperTable":false,"emergencyBell":true,"cctv":false,"source":"public","category":"public"},{"id":"202135610000100812","name":"청라관리과청사","lat":37.526251,"lng":126.633174,"roadAddr":"인천광역시 서해구 청라대로 46, 경제자유구역청 청라관리과 (청라동)","jibunAddr":"인천광역시 서해구 청라동 106-2 경제자유구역청 청라관리과","openHours":"정시","maleToilets":3,"femaleToilets":2,"disabled":false,"diaperTable":false,"emergencyBell":false,"cctv":false,"source":"public","category":"public"},{"id":"202135610000100813","name":"문점공원","lat":37.522957,"lng":126.628265,"roadAddr":"청라동 105-151","jibunAddr":"인천광역시 서해구 청라동 105-151","openHours":"상시","maleToilets":5,"femaleToilets":6,"disabled":true,"diaperTable":true,"emergencyBell":true,"cctv":false,"source":"public","category":"public"},{"id":"202135610000100816","name":"포리공원","lat":37.52768,"lng":126.642814,"roadAddr":"청라동 178-6","jibunAddr":"인천광역시 서해구 청라동 178-6","openHours":"상시","maleToilets":3,"femaleToilets":1,"disabled":false,"diaperTable":false,"emergencyBell":true,"cctv":false,"source":"public","category":"public"},{"id":"202135610000100837","name":"율도근린공원(족구장)","lat":37.507968,"lng":126.624894,"roadAddr":"인천광역시 서해구 북항로206번길 17, 율도공원(근린2호) 화장실 (원창동)","jibunAddr":"인천광역시 서해구 원창동 485-5 율도공원(근린2호) 화장실","openHours":"상시","maleToilets":2,"femaleToilets":2,"disabled":false,"diaperTable":false,"emergencyBell":true,"cctv":false,"source":"public","category":"public"},{"id":"202235610000100002","name":"청라블루노바홀","lat":37.524014,"lng":126.634183,"roadAddr":"인천광역시 서해구 청라대로 20, 청라블루노바홀 (청라동)","jibunAddr":"인천광역시 서해구 청라동 106-2 청라블루노바홀","openHours":"정시","maleToilets":2,"femaleToilets":1,"disabled":true,"diaperTable":false,"emergencyBell":false,"cctv":true,"source":"public","category":"public"},{"id":"202235610000100009","name":"원창119안전센터","lat":37.510529,"lng":126.644717,"roadAddr":"인천광역시 서해구 북항로32번길 47-5(원창동)","jibunAddr":"인천광역시 서해구 원창동 381-123","openHours":"정시","maleToilets":3,"femaleToilets":0,"disabled":true,"diaperTable":false,"emergencyBell":true,"cctv":false,"source":"public","category":"public"},{"id":"202235610000100014","name":"심곡천 공중화장실1","lat":37.520887,"lng":126.612495,"jibunAddr":"인천광역시 서해구 청라동 101-9","openHours":"상시","maleToilets":2,"femaleToilets":2,"disabled":true,"diaperTable":true,"emergencyBell":true,"cctv":false,"source":"public","category":"public"},{"id":"202235610000100015","name":"심곡천 공중화장실2","lat":37.524036,"lng":126.635414,"jibunAddr":"인천광역시 서해구 청라동 173-9","openHours":"상시","maleToilets":2,"femaleToilets":2,"disabled":true,"diaperTable":true,"emergencyBell":true,"cctv":false,"source":"public","category":"public"},{"id":"202335610000100002","name":"장애인생산품판매시설","lat":37.510069,"lng":126.644707,"roadAddr":"인천광역시 서해구 북항로32번길 37, 인천광역시 장애인생산품판매시설 (원창동)","jibunAddr":"인천광역시 서해구 원창동 381-124 인천광역시 장애인생산품판매시설","openHours":"정시","maleToilets":2,"femaleToilets":1,"disabled":true,"diaperTable":false,"emergencyBell":false,"cctv":true,"source":"public","category":"public"},{"id":"202335610000100025","name":"가좌하수처리장 사무실동","lat":37.498571,"lng":126.647474,"roadAddr":"인천광역시 서해구 중봉대로 211(가좌동)","jibunAddr":"인천광역시 서해구 가좌동 598","openHours":"정시","maleToilets":4,"femaleToilets":4,"disabled":true,"diaperTable":false,"emergencyBell":false,"cctv":false,"source":"public","category":"public"},{"id":"202335610000100026","name":"가좌CNG충전소","lat":37.492858,"lng":126.64713,"roadAddr":"인천광역시 서해구 중봉대로 155, 가좌CNG충전소 (가좌동)","jibunAddr":"인천광역시 서해구 가좌동 598-1 가좌CNG충전소","openHours":"정시","maleToilets":2,"femaleToilets":0,"disabled":false,"diaperTable":false,"emergencyBell":false,"cctv":false,"source":"public","category":"public"},{"id":"202335610000100028","name":"로봇RD센터","lat":37.520758,"lng":126.611408,"jibunAddr":"인천광역시 서해구 청라동  100-75","openHours":"정시","maleToilets":32,"femaleToilets":32,"disabled":true,"diaperTable":true,"emergencyBell":false,"cctv":false,"source":"public","category":"public"},{"id":"202335610000100029","name":"로봇타워","lat":37.519649,"lng":126.610901,"roadAddr":"인천광역시 서해구 로봇랜드로 155-11, 로봇랜드 로봇지원센터 (청라동)","jibunAddr":"인천광역시 서해구 청라동 100-80 로봇랜드 로봇지원센터","openHours":"정시","maleToilets":143,"femaleToilets":115,"disabled":true,"diaperTable":true,"emergencyBell":false,"cctv":false,"source":"public","category":"public"},{"id":"202135610000100561","name":"청라3동행정복지센터","lat":37.524643,"lng":126.629538,"roadAddr":"푸른로8번길 5, 청라3동행정복지센터 (청라동)","jibunAddr":"인천광역시 서해구 청라동 105번지 27호 청라3동행정복지센터","openHours":"정시","maleToilets":4,"femaleToilets":2,"disabled":false,"diaperTable":false,"emergencyBell":false,"cctv":false,"managerTel":"0325600840","source":"public","category":"public"},{"id":"202135610000100564","name":"청라복합문화센터","lat":37.524494,"lng":126.633953,"roadAddr":"인천광역시 서해구 청라대로 26, 청라복합문화센터 (청라동)","jibunAddr":"인천광역시 서해구 청라동 106-2 청라복합문화센터","openHours":"정시","maleToilets":9,"femaleToilets":8,"disabled":true,"diaperTable":true,"emergencyBell":true,"cctv":true,"source":"public","category":"public"}]