[{"id":"202437400000101470","name":"어번레비","lat":37.280672,"lng":127.06599,"roadAddr":"경기도 수원시 영통구 광교호수로 127(하동)","jibunAddr":"경기도 수원시 영통구 하동 1023공 (호수공원)","openHours":"상시","maleToilets":6,"femaleToilets":8,"disabled":true,"diaperTable":true,"emergencyBell":true,"cctv":false,"source":"public","category":"public"},{"id":"202437400000101366","name":"참새(황골공원)","lat":37.266435,"lng":127.078679,"roadAddr":"경기도 수원시 영통구 영통로 530(영통동)","jibunAddr":"경기도 수원시 영통구 영통동 948-2","openHours":"상시","maleToilets":4,"femaleToilets":2,"disabled":false,"diaperTable":false,"emergencyBell":true,"cctv":false,"source":"public","category":"public"},{"id":"202437400000101665","name":"롯데아울렛 광교점","lat":37.28667,"lng":127.055448,"roadAddr":"경기도 수원시 영통구 도청로 10(이의동)","jibunAddr":"경기도 수원시 영통구 이의동 1338","openHours":"정시","maleToilets":57,"femaleToilets":76,"disabled":true,"diaperTable":false,"emergencyBell":true,"cctv":false,"source":"public","category":"public"},{"id":"202437400000101745","name":"광교중앙2","lat":37.293899,"lng":127.060323,"jibunAddr":"경기도 수원시 영통구 이의동 1302(광교중앙공원)","openHours":"상시","maleToilets":2,"femaleToilets":1,"disabled":true,"diaperTable":false,"emergencyBell":false,"cctv":false,"source":"public","category":"public"},{"id":"202437400000101429","name":"원천호수","lat":37.280672,"lng":127.06599,"roadAddr":"경기도 수원시 영통구 광교호수로 127(하동)","jibunAddr":"경기도 수원시 영통구 하동 1024(광교호수공원)","openHours":"상시","maleToilets":6,"femaleToilets":7,"disabled":true,"diaperTable":true,"emergencyBell":false,"cctv":false,"source":"public","category":"public"},{"id":"202437400000101501","name":"수원컨벤션센터","lat":37.285829,"lng":127.059447,"roadAddr":"경기도 수원시 영통구 광교중앙로 140(하동)","jibunAddr":"경기도 수원시 영통구 하동 855-2","openHours":"정시","maleToilets":126,"femaleToilets":185,"disabled":true,"diaperTable":false,"emergencyBell":true,"cctv":false,"source":"public","category":"public"},{"id":"202437400000101625","name":"바른샘도서관 3층","lat":37.268855,"lng":127.052369,"roadAddr":"경기도 수원시 영통구 매봉로 10(매탄동)","jibunAddr":"경기도 수원시 영통구 매탄동 1213","openHours":"정시","maleToilets":8,"femaleToilets":3,"disabled":false,"diaperTable":false,"emergencyBell":true,"cctv":false,"source":"public","category":"public"},{"id":"202437400000101595","name":"법원주유소","lat":37.273693,"lng":127.049601,"roadAddr":"경기도 수원시 영통구 중부대로 309(원천동)","jibunAddr":"경기도 수원시 영통구 원천동 90-11","openHours":"정시","maleToilets":3,"femaleToilets":1,"disabled":false,"diaperTable":false,"emergencyBell":false,"cctv":false,"source":"public","category":"public"},{"id":"202437400000101524","name":"수원시연화장(승화원 우측)","lat":37.289915,"lng":127.084066,"roadAddr":"경기도 수원시 영통구 광교호수로 278, 수원시 연화장 (하동)","jibunAddr":"경기도 수원시 영통구 하동 20 수원시 연화장","openHours":"정시","maleToilets":7,"femaleToilets":3,"disabled":false,"diaperTable":false,"emergencyBell":true,"cctv":false,"source":"public","category":"public"},{"id":"202437400000101753","name":"광교박물관","lat":37.296349,"lng":127.051422,"roadAddr":"경기도 수원시 영통구 광교로 182, 수원광교박물관 (이의동)","jibunAddr":"경기도 수원시 영통구 이의동 403-2 수원광교박물관","openHours":"정시","maleToilets":7,"femaleToilets":7,"disabled":true,"diaperTable":false,"emergencyBell":false,"cctv":true,"source":"public","category":"public"},{"id":"202437400000101748","name":"광교종합사회복지관","lat":37.299345,"lng":127.046646,"roadAddr":"경기도 수원시 영통구 대학2로 41, 광교종합사회복지관 (이의동)","jibunAddr":"경기도 수원시 영통구 이의동 1259-4 광교종합사회복지관","openHours":"정시","maleToilets":27,"femaleToilets":27,"disabled":true,"diaperTable":false,"emergencyBell":false,"cctv":false,"source":"public","category":"public"},{"id":"202437400000101872","name":"아주정문약국","lat":37.276796,"lng":127.048294,"roadAddr":"경기도 수원시 영통구 월드컵로 151번길 12(원천동)","jibunAddr":"경기도 수원시 영통구 원천동 67-14","openHours":"상시","maleToilets":2,"femaleToilets":1,"disabled":false,"diaperTable":false,"emergencyBell":true,"cctv":false,"source":"public","category":"public"},{"id":"202437400000101650","name":"매탄2동행정복지센터","lat":37.270123,"lng":127.047432,"roadAddr":"경기도 수원시 영통구 매영로39번길 21(매탄동)","jibunAddr":"경기도 수원시 영통구 매탄2동 198-99","openHours":"정시","maleToilets":10,"femaleToilets":5,"disabled":true,"diaperTable":false,"emergencyBell":true,"cctv":false,"source":"public","category":"public"},{"id":"202437400000101482","name":"아브뉴프랑 광교점","lat":37.291568,"lng":127.050471,"roadAddr":"경기도 수원시 영통구 센트럴타운로 85(이의동)","jibunAddr":"경기도 수원시 영통구 이의동 1332","openHours":"정시","maleToilets":68,"femaleToilets":60,"disabled":true,"diaperTable":true,"emergencyBell":false,"cctv":false,"source":"public","category":"public"},{"id":"202437400000101897","name":"광교에일린의뜰단지내상가","lat":37.276611,"lng":127.060199,"roadAddr":"경기도 수원시 영통구 광교호수공원로 155(원천동)","jibunAddr":"경기도 수원시 영통구 원천동 590","openHours":"상시","maleToilets":4,"femaleToilets":3,"disabled":false,"diaperTable":false,"emergencyBell":true,"cctv":false,"source":"public","category":"public"},{"id":"202437400000101742","name":"광교홍재도서관","lat":37.302936,"lng":127.047443,"roadAddr":"경기도 수원시 영통구 대학로88(이의동)","jibunAddr":"경기도 수원시 영통구 이의동1209","openHours":"정시","maleToilets":15,"femaleToilets":20,"disabled":true,"diaperTable":false,"emergencyBell":true,"cctv":false,"source":"public","category":"public"},{"id":"202437400000101432","name":"원천2공원(우정)","lat":37.271563,"lng":127.053891,"roadAddr":"경기도 수원시 영통구 매봉로46번길 14(매탄2동)","jibunAddr":"경기도 수원시 영통구 매탄동 1201","openHours":"상시","maleToilets":2,"femaleToilets":1,"disabled":false,"diaperTable":false,"emergencyBell":true,"cctv":false,"source":"public","category":"public"},{"id":"202437400000101746","name":"광교중앙","lat":37.293899,"lng":127.060323,"jibunAddr":"경기도 수원시 영통구 이의동 1302","openHours":"정시","maleToilets":8,"femaleToilets":10,"disabled":true,"diaperTable":false,"emergencyBell":true,"cctv":true,"source":"public","category":"public"},{"id":"202437400000101392","name":"전망대","lat":37.280672,"lng":127.06599,"roadAddr":"경기도 수원시 영통구 광교호수로 127(하동)","jibunAddr":"경기도 수원시 영통구 하동 1024공 (호수공원)","openHours":"상시","maleToilets":3,"femaleToilets":2,"disabled":true,"diaperTable":true,"emergencyBell":true,"cctv":false,"source":"public","category":"public"},{"id":"202437400000101390","name":"정다운","lat":37.280672,"lng":127.06599,"roadAddr":"경기도 수원시 영통구 영통구 광교호수로 127(하동)","jibunAddr":"경기도 수원시 영통구 하동 999공 (호수공원)","openHours":"상시","maleToilets":4,"femaleToilets":4,"disabled":true,"diaperTable":true,"emergencyBell":true,"cctv":false,"source":"public","category":"public"},{"id":"202437400000101797","name":"갤러리아 광교","lat":37.285251,"lng":127.057455,"roadAddr":"경기도 수원시 영통구 광교중앙로 124(하동)","jibunAddr":"경기도 수원시 영통구 하동 871-1","openHours":"정시","maleToilets":111,"femaleToilets":172,"disabled":true,"diaperTable":true,"emergencyBell":true,"cctv":true,"source":"public","category":"public"},{"id":"202437400000101456","name":"영통1동행정복지센터","lat":37.266322,"lng":127.080557,"roadAddr":"경기도 수원시 영통구 봉영로1759번길 23(영통동)","jibunAddr":"경기도 수원시 영통구 영통동 947-6","openHours":"정시","maleToilets":5,"femaleToilets":5,"disabled":true,"diaperTable":false,"emergencyBell":false,"cctv":false,"source":"public","category":"public"},{"id":"202437400000101810","name":"(주)마봉 구도일주유소 광교신도시","lat":37.294755,"lng":127.087517,"roadAddr":"경기도 수원시 영통구 광교호수로 328-142(하동)","jibunAddr":"경기도 수원시 영통구 하동 2","openHours":"상시","maleToilets":3,"femaleToilets":2,"disabled":false,"diaperTable":false,"emergencyBell":false,"cctv":false,"source":"public","category":"public"},{"id":"202437400000101585","name":"산남지구대","lat":37.26872,"lng":127.053083,"roadAddr":"경기도 수원시 영통구 매영로 93-18(매탄동)","jibunAddr":"경기도 수원시 영통구 매탄동 1213-2","openHours":"상시","maleToilets":4,"femaleToilets":2,"disabled":true,"diaperTable":false,"emergencyBell":false,"cctv":false,"source":"public","category":"public"},{"id":"202437400000101626","name":"바른샘도서관 2층","lat":37.268855,"lng":127.052369,"roadAddr":"경기도 수원시 영통구 매봉로 10(매탄동)","jibunAddr":"경기도 수원시 영통구 매탄동 1213","openHours":"정시","maleToilets":8,"femaleToilets":3,"disabled":false,"diaperTable":false,"emergencyBell":true,"cctv":false,"source":"public","category":"public"},{"id":"202437400000101521","name":"수원시연화장(장례식장1층좌측)","lat":37.289915,"lng":127.084066,"roadAddr":"경기도 수원시 영통구 광교호수로 278, 수원시 연화장 (하동)","jibunAddr":"경기도 수원시 영통구 하동 20 수원시 연화장","openHours":"정시","maleToilets":8,"femaleToilets":4,"disabled":false,"diaperTable":false,"emergencyBell":true,"cctv":false,"source":"public","category":"public"},{"id":"202437400000101519","name":"수원시연화장(장례식장2층좌측)","lat":37.289915,"lng":127.084066,"roadAddr":"경기도 수원시 영통구 광교호수로 278, 수원시 연화장 (하동)","jibunAddr":"경기도 수원시 영통구 하동 20 수원시 연화장","openHours":"정시","maleToilets":8,"femaleToilets":4,"disabled":false,"diaperTable":false,"emergencyBell":true,"cctv":false,"source":"public","category":"public"},{"id":"202437400000101674","name":"동수원현대셀프주유소","lat":37.274295,"lng":127.046261,"roadAddr":"경기도 수원시 영통구 중부대로 277(원천동)","jibunAddr":"경기도 수원시 영통구 원천동 73-1","openHours":"상시","maleToilets":2,"femaleToilets":1,"disabled":false,"diaperTable":false,"emergencyBell":false,"cctv":false,"source":"public","category":"public"},{"id":"202437400000101559","name":"성죽","lat":37.309478,"lng":127.047502,"jibunAddr":"경기도 수원시 영통구 이의동 1213","openHours":"상시","maleToilets":2,"femaleToilets":2,"disabled":true,"diaperTable":false,"emergencyBell":false,"cctv":false,"source":"public","category":"public"},{"id":"202437400000101683","name":"동문A주유소","lat":37.294862,"lng":127.048072,"roadAddr":"경기도 수원시 영통구 창룡대로 370(이의동)","jibunAddr":"경기도 수원시 영통구 이의동 835","openHours":"상시","maleToilets":4,"femaleToilets":2,"disabled":false,"diaperTable":false,"emergencyBell":false,"cctv":false,"source":"public","category":"public"},{"id":"202437400000101702","name":"다산","lat":37.290381,"lng":127.054691,"jibunAddr":"경기도 수원시 영통구 이의동 1328","openHours":"정시","maleToilets":5,"femaleToilets":6,"disabled":true,"diaperTable":false,"emergencyBell":true,"cctv":false,"source":"public","category":"public"},{"id":"202437400000101682","name":"동문B주유소","lat":37.294801,"lng":127.049665,"roadAddr":"경기도 수원시 영통구 창룡대로 380(이의동)","jibunAddr":"경기도 수원시 영통구 이의동 422-10","openHours":"상시","maleToilets":4,"femaleToilets":2,"disabled":false,"diaperTable":false,"emergencyBell":true,"cctv":false,"source":"public","category":"public"},{"id":"202437400000101628","name":"바른샘도서관 1층","lat":37.268855,"lng":127.052369,"roadAddr":"경기도 수원시 영통구 매봉로 10(매탄동)","jibunAddr":"경기도 수원시 영통구 매탄동 1213","openHours":"정시","maleToilets":8,"femaleToilets":3,"disabled":false,"diaperTable":false,"emergencyBell":false,"cctv":false,"source":"public","category":"public"},{"id":"202437400000101522","name":"수원시연화장(장례식장1층우측)","lat":37.289915,"lng":127.084066,"roadAddr":"경기도 수원시 영통구 광교호수로 278, 수원시 연화장 (하동)","jibunAddr":"경기도 수원시 영통구 하동 20 수원시 연화장","openHours":"정시","maleToilets":8,"femaleToilets":4,"disabled":false,"diaperTable":false,"emergencyBell":true,"cctv":true,"source":"public","category":"public"},{"id":"202437400000101751","name":"광교역사","lat":37.29669,"lng":127.05196,"jibunAddr":"경기도 수원시 영통구 이의동 산13-77(광교역사공원)","openHours":"상시","maleToilets":2,"femaleToilets":1,"disabled":true,"diaperTable":false,"emergencyBell":false,"cctv":false,"source":"public","category":"public"},{"id":"202437400000101847","name":"월드스퀘어","lat":37.292619,"lng":127.048147,"roadAddr":"경기도 수원시 영통구 센트럴타운로 107(이의동)","jibunAddr":"경기도 수원시 영통구 이의동 1331","openHours":"상시","maleToilets":5,"femaleToilets":5,"disabled":true,"diaperTable":false,"emergencyBell":true,"cctv":false,"source":"public","category":"public"},{"id":"202437400000101764","name":"광교1동행정복지센터","lat":37.29018,"lng":127.0474,"roadAddr":"경기도 수원시 영통구 도청로89번길 20(이의동)","jibunAddr":"경기도 수원시 영통구 이의동 1350","openHours":"정시","maleToilets":11,"femaleToilets":12,"disabled":true,"diaperTable":false,"emergencyBell":false,"cctv":false,"source":"public","category":"public"},{"id":"202437400000101314","name":"행복한들","lat":37.280672,"lng":127.06599,"roadAddr":"경기도 수원시 영통구 광교호수로 127(하동)","jibunAddr":"경기도 수원시 영통구 하동 1026-1공 (호수공원)","openHours":"상시","maleToilets":6,"femaleToilets":8,"disabled":true,"diaperTable":true,"emergencyBell":false,"cctv":false,"source":"public","category":"public"},{"id":"202437400000101712","name":"나루터","lat":37.280672,"lng":127.06599,"roadAddr":"경기도 수원시 영통구 광교호수로 127(하동)","jibunAddr":"경기도 수원시 영통구 하동 1024(광교호수공원)","openHours":"상시","maleToilets":5,"femaleToilets":6,"disabled":true,"diaperTable":true,"emergencyBell":false,"cctv":false,"source":"public","category":"public"},{"id":"202437400000101523","name":"수원시연화장(승화원 좌측)","lat":37.289915,"lng":127.084066,"roadAddr":"경기도 수원시 영통구 광교호수로 278, 수원시 연화장 (하동)","jibunAddr":"경기도 수원시 영통구 하동 20 수원시 연화장","openHours":"정시","maleToilets":7,"femaleToilets":3,"disabled":false,"diaperTable":false,"emergencyBell":false,"cctv":false,"source":"public","category":"public"},{"id":"202437400000101755","name":"광교노인복지관 지하1층","lat":37.289679,"lng":127.056741,"roadAddr":"경기도 수원시 영통구 센트럴타운로 22(이의동)","jibunAddr":"경기도 수원시 영통구 이의동 1328-1","openHours":"정시","maleToilets":6,"femaleToilets":6,"disabled":true,"diaperTable":false,"emergencyBell":false,"cctv":false,"source":"public","category":"public"},{"id":"202437400000101822","name":"호반프라자","lat":37.273787,"lng":127.054581,"roadAddr":"경기도 수원시 영통구 월드컵로 87번길 7(원천동)","jibunAddr":"경기도 수원시 영통구 원천동 607-1","openHours":"상시","maleToilets":3,"femaleToilets":1,"disabled":false,"diaperTable":true,"emergencyBell":false,"cctv":false,"source":"public","category":"public"},{"id":"202437400000101421","name":"이마트 광교점","lat":37.29635,"lng":127.046954,"roadAddr":"경기도 수원시 영통구 광교로 191(이의동)","jibunAddr":"경기도 수원시 영통구 이의동 1240","openHours":"정시","maleToilets":23,"femaleToilets":20,"disabled":true,"diaperTable":true,"emergencyBell":false,"cctv":false,"source":"public","category":"public"},{"id":"202437400000101763","name":"광교2동행정복지센터","lat":37.292244,"lng":127.070081,"roadAddr":"경기도 수원시 영통구 법조로149번길 155(하동)","jibunAddr":"경기도 수원시 영통구 하동 976","openHours":"정시","maleToilets":12,"femaleToilets":8,"disabled":true,"diaperTable":false,"emergencyBell":true,"cctv":false,"source":"public","category":"public"},{"id":"202437400000101517","name":"수원시연화장(추모의 집지하층)","lat":37.289915,"lng":127.084066,"roadAddr":"경기도 수원시 영통구 광교호수로 278, 수원시 연화장 (하동)","jibunAddr":"경기도 수원시 영통구 하동 20 수원시 연화장","openHours":"정시","maleToilets":5,"femaleToilets":2,"disabled":false,"diaperTable":false,"emergencyBell":false,"cctv":false,"source":"public","category":"public"},{"id":"202437400000101846","name":"월드종합카","lat":37.265715,"lng":127.060172,"roadAddr":"경기도 수원시 영통구 매영로 161(원천동)","jibunAddr":"경기도 수원시 영통구 원천동 494","openHours":"상시","maleToilets":3,"femaleToilets":1,"disabled":false,"diaperTable":false,"emergencyBell":true,"cctv":false,"source":"public","category":"public"},{"id":"202437400000101898","name":"광교서희스타힐스","lat":37.292544,"lng":127.049135,"roadAddr":"경기도 수원시 영통구 센트럴타운로 111(이의동)","jibunAddr":"경기도 수원시 영통구 이의동 1330","openHours":"상시","maleToilets":5,"femaleToilets":3,"disabled":true,"diaperTable":true,"emergencyBell":false,"cctv":false,"source":"public","category":"public"},{"id":"202437400000101479","name":"앨리웨이광교","lat":37.273727,"lng":127.060945,"roadAddr":"경기도 수원시 영통구 광교호수로 80(원천동)","jibunAddr":"경기도 수원시 영통구 원천동 593","openHours":"정시","maleToilets":58,"femaleToilets":54,"disabled":true,"diaperTable":true,"emergencyBell":false,"cctv":false,"source":"public","category":"public"},{"id":"202437400000101813","name":"HD현대오일뱅크 직영 호수공원셀프주유소","lat":37.279242,"lng":127.068248,"roadAddr":"경기도 수원시 영통구 광교호수로 124(하동)","jibunAddr":"경기도 수원시 영통구 하동 1030","openHours":"상시","maleToilets":3,"femaleToilets":2,"disabled":false,"diaperTable":false,"emergencyBell":true,"cctv":false,"source":"public","category":"public"},{"id":"202437400000101901","name":"W타워","lat":37.292156,"lng":127.049624,"roadAddr":"경기도 영통구 센트럴타운로 103(이의동)","jibunAddr":"경기도 수원시 영통구 이의동 1330-1","openHours":"정시","maleToilets":7,"femaleToilets":4,"disabled":true,"diaperTable":false,"emergencyBell":false,"cctv":false,"source":"public","category":"public"},{"id":"202437400000101735","name":"국토지리정보원 지도박물관","lat":37.275771,"lng":127.054963,"roadAddr":"경기도 수원시 영통구 월드컵로 92 (원천동, 국토지리정보원)","jibunAddr":"경기도 수원시 영통구 원천동 111","openHours":"정시","maleToilets":5,"femaleToilets":2,"disabled":true,"diaperTable":false,"emergencyBell":false,"cctv":false,"source":"public","category":"public"},{"id":"202437400000101431","name":"원천4공원(매미)","lat":37.2665,"lng":127.051675,"jibunAddr":"경기도 수원시 영통구 매탄동 1217-6","openHours":"상시","maleToilets":2,"femaleToilets":1,"disabled":false,"diaperTable":false,"emergencyBell":true,"cctv":false,"source":"public","category":"public"},{"id":"202437400000101817","name":"센트럴프라자","lat":37.292738,"lng":127.050157,"roadAddr":"경기도 수원시 영통구 센트럴타운로 106","jibunAddr":"경기도 수원시 영통구 이의동 1322-5","openHours":"상시","maleToilets":5,"femaleToilets":5,"disabled":true,"diaperTable":false,"emergencyBell":false,"cctv":false,"source":"public","category":"public"},{"id":"202437400000101403","name":"자작나무쉼터","lat":37.280672,"lng":127.06599,"roadAddr":"경기도 수원시 영통구 영통구 광교호수로 127(하동)","jibunAddr":"경기도 수원시 영통구 하동 998공 (호수공원)","openHours":"상시","maleToilets":4,"femaleToilets":8,"disabled":true,"diaperTable":false,"emergencyBell":true,"cctv":false,"source":"public","category":"public"},{"id":"202437400000101761","name":"광교노인복지관 2층","lat":37.289679,"lng":127.056741,"roadAddr":"경기도 수원시 영통구 센트럴타운로 22(이의동)","jibunAddr":"경기도 수원시 영통구 이의동 1328-1","openHours":"정시","maleToilets":5,"femaleToilets":6,"disabled":false,"diaperTable":false,"emergencyBell":true,"cctv":false,"source":"public","category":"public"},{"id":"202437400000101814","name":"경현빌딩","lat":37.292157,"lng":127.050653,"roadAddr":"경기도 수원시 영통구 센트럴타운로 98","jibunAddr":"경기도 수원시 영통구 이의동 1325-4","openHours":"정시","maleToilets":3,"femaleToilets":2,"disabled":false,"diaperTable":false,"emergencyBell":false,"cctv":false,"source":"public","category":"public"},{"id":"202437400000101743","name":"광교푸른숲도서관","lat":37.280956,"lng":127.066818,"roadAddr":"경기도 수원시 영통구 광교호수로 131(하동)","jibunAddr":"경기도 수원시 영통구 하동 1024","openHours":"정시","maleToilets":22,"femaleToilets":13,"disabled":true,"diaperTable":false,"emergencyBell":true,"cctv":false,"source":"public","category":"public"},{"id":"202437400000101430","name":"원천동행정복지센터","lat":37.273494,"lng":127.053264,"roadAddr":"경기도 수원시 영통구 중부대로 339(원천동)","jibunAddr":"경기도 수원시 영통구 원천동 610","openHours":"정시","maleToilets":12,"femaleToilets":12,"disabled":true,"diaperTable":false,"emergencyBell":false,"cctv":false,"source":"public","category":"public"},{"id":"202437400000101641","name":"먼내(매봉공원)","lat":37.268166,"lng":127.054539,"roadAddr":"경기도 수원시 영통구 동탄원천로1109번길 61(매탄동)","jibunAddr":"경기도 수원시 영통구 매탄동 1210","openHours":"상시","maleToilets":6,"femaleToilets":8,"disabled":false,"diaperTable":true,"emergencyBell":false,"cctv":false,"source":"public","category":"public"},{"id":"202437400000101750","name":"광교역사2","lat":37.29669,"lng":127.05196,"jibunAddr":"경기도 수원시 영통구 이의동 산13-77(광교역사공원)","openHours":"상시","maleToilets":2,"femaleToilets":3,"disabled":false,"diaperTable":false,"emergencyBell":true,"cctv":false,"source":"public","category":"public"},{"id":"202437400000101518","name":"수원시연화장(추모의 집1층)","lat":37.289915,"lng":127.084066,"roadAddr":"경기도 수원시 영통구 광교호수로 278, 수원시 연화장 (하동)","jibunAddr":"경기도 수원시 영통구 하동 20 수원시 연화장","openHours":"정시","maleToilets":5,"femaleToilets":2,"disabled":false,"diaperTable":false,"emergencyBell":false,"cctv":false,"source":"public","category":"public"},{"id":"202437400000101691","name":"대호주유소","lat":37.296467,"lng":127.056552,"roadAddr":"경기도수원시 영통구 창룡대로 442(이의동)","jibunAddr":"경기도 수원시 영통구 이의동 27-1","openHours":"상시","maleToilets":4,"femaleToilets":2,"disabled":false,"diaperTable":false,"emergencyBell":false,"cctv":false,"source":"public","category":"public"},{"id":"202437400000101744","name":"광교지구대","lat":37.288646,"lng":127.047696,"roadAddr":"경기도 수원시 영통구 에듀타운로 82(이의동)","jibunAddr":"경기도 수원시 영통구 이의동 1347-6","openHours":"상시","maleToilets":6,"femaleToilets":2,"disabled":true,"diaperTable":false,"emergencyBell":false,"cctv":false,"source":"public","category":"public"},{"id":"202437400000101277","name":"차세대융합기술연구원","lat":37.294339,"lng":127.046116,"roadAddr":"경기도 수원시 영통구 광교로145","jibunAddr":"경기도 수원시 영통구 이의동 864-1","openHours":"상시","maleToilets":235,"femaleToilets":165,"disabled":true,"diaperTable":false,"emergencyBell":false,"cctv":false,"source":"public","category":"public"},{"id":"202437400000101320","name":"한미석유 동수원톨게이트","lat":37.295805,"lng":127.04806,"roadAddr":"경기도 수원시 영통구 창룡대로 363(이의동)","jibunAddr":"경기도 수원시 영통구 이의동 832-4","openHours":"상시","maleToilets":4,"femaleToilets":2,"disabled":false,"diaperTable":false,"emergencyBell":false,"cctv":false,"source":"public","category":"public"},{"id":"202437400000101544","name":"수원영통경찰서","lat":37.272064,"lng":127.054513,"roadAddr":"경기도 수원시 영통구 매봉로 52(매탄동)","jibunAddr":"경기도 수원시 영통구 매탄동 1196","openHours":"상시","maleToilets":41,"femaleToilets":17,"disabled":true,"diaperTable":false,"emergencyBell":false,"cctv":false,"source":"public","category":"public"},{"id":"202437400000101520","name":"수원시연화장(장례식장2층우측)","lat":37.289915,"lng":127.084066,"roadAddr":"경기도 수원시 영통구 광교호수로 278, 수원시 연화장 (하동)","jibunAddr":"경기도 수원시 영통구 하동 20 수원시 연화장","openHours":"정시","maleToilets":8,"femaleToilets":4,"disabled":false,"diaperTable":false,"emergencyBell":true,"cctv":false,"source":"public","category":"public"},{"id":"202437400000101488","name":"신대호수","lat":37.280672,"lng":127.06599,"roadAddr":"경기도 수원시 영통구 영통구 광교호수로 127(하동)","jibunAddr":"경기도 수원시 영통구 하동 1008(광교호수공원)","openHours":"상시","maleToilets":4,"femaleToilets":4,"disabled":true,"diaperTable":true,"emergencyBell":false,"cctv":false,"source":"public","category":"public"},{"id":"202437400000101765","name":"관리사무소","lat":37.275103,"lng":127.063921,"roadAddr":"경기도 수원시 영통구 광교호수공원로 102 (하동)","jibunAddr":"경기도 수원시 영통구 하동 1023공 (호수공원관리사무소)","openHours":"상시","maleToilets":6,"femaleToilets":8,"disabled":true,"diaperTable":true,"emergencyBell":false,"cctv":false,"source":"public","category":"public"},{"id":"202437400000101759","name":"광교노인복지관 3층","lat":37.289679,"lng":127.056741,"roadAddr":"경기도 수원시 영통구 센트럴타운로 22(이의동)","jibunAddr":"경기도 수원시 영통구 이의동 1328-1","openHours":"정시","maleToilets":5,"femaleToilets":6,"disabled":true,"diaperTable":false,"emergencyBell":true,"cctv":false,"source":"public","category":"public"},{"id":"202437400000101670","name":"롯데마트 광교점","lat":37.291568,"lng":127.050471,"roadAddr":"경기도 수원시 영통구 센트럴타운로 85 (이의동, 광교C1 호반베르디움, Summit Place광교)","jibunAddr":"경기도 수원시 영통구 이의동 1332 광교C1 호반베르디움, Summit Place광교","openHours":"정시","maleToilets":5,"femaleToilets":4,"disabled":true,"diaperTable":false,"emergencyBell":false,"cctv":true,"source":"public","category":"public"},{"id":"202437400000101868","name":"삼성테크노파크","lat":37.266505,"lng":127.059429,"roadAddr":"경기도 수원시 영통구 중부대로 448번길 97(원천동)","jibunAddr":"경기도 수원시 영통구 원천동 471","openHours":"상시","maleToilets":6,"femaleToilets":2,"disabled":false,"diaperTable":false,"emergencyBell":true,"cctv":false,"source":"public","category":"public"},{"id":"202437400000101466","name":"엘포트몰","lat":37.287088,"lng":127.057781,"roadAddr":"경기도 수원시 영통구 광교중앙로 145(이의동)","jibunAddr":"경기도 수원시 영통구 이의동 1336-1","openHours":"정시","maleToilets":38,"femaleToilets":37,"disabled":true,"diaperTable":true,"emergencyBell":true,"cctv":true,"source":"public","category":"public"},{"id":"202437400000101756","name":"광교노인복지관 4층","lat":37.289679,"lng":127.056741,"roadAddr":"경기도 수원시 영통구 센트럴타운로 22(이의동)","jibunAddr":"경기도 수원시 영통구 이의동 1328-1","openHours":"정시","maleToilets":5,"femaleToilets":6,"disabled":false,"diaperTable":false,"emergencyBell":true,"cctv":false,"source":"public","category":"public"},{"id":"202437400000101393","name":"재미난밭","lat":37.280672,"lng":127.06599,"roadAddr":"경기도 수원시 영통구 광교호수로 127(하동)","jibunAddr":"경기도 수원시 영통구 하동 1024공 (호수공원)","openHours":"상시","maleToilets":5,"femaleToilets":8,"disabled":true,"diaperTable":true,"emergencyBell":false,"cctv":false,"source":"public","category":"public"},{"id":"202437400000101586","name":"사색","lat":37.283231,"lng":127.054883,"roadAddr":"경기도 수원시 영통구 광교중앙로 96 (원천동)","jibunAddr":"경기도 수원시 영통구 원천동 588","openHours":"정시","maleToilets":5,"femaleToilets":6,"disabled":true,"diaperTable":false,"emergencyBell":true,"cctv":false,"source":"public","category":"public"},{"id":"202437400000101736","name":"국토지리정보원 본관","lat":37.275771,"lng":127.054963,"roadAddr":"경기도 수원시 영통구 월드컵로 92 (원천동, 국토지리정보원)","jibunAddr":"경기도 수원시 영통구 원천동 111","openHours":"정시","maleToilets":8,"femaleToilets":2,"disabled":true,"diaperTable":false,"emergencyBell":false,"cctv":false,"source":"public","category":"public"},{"id":"202540500000102110","name":"서봉숲속근린공원①(작은도서관) 공중화장실","lat":37.298509,"lng":127.080843,"roadAddr":"경기도 용인시 수지구 광교호수로386번길 6 (상현동)","jibunAddr":"경기도 용인시 수지구 상현동 1156","openHours":"상시","maleToilets":3,"femaleToilets":2,"disabled":false,"diaperTable":false,"emergencyBell":true,"cctv":true,"managerTel":"03161939081","source":"public","category":"public"},{"id":"202540500000101905","name":"용인동부경찰서 흥덕파출소 개방화장실","lat":37.278398,"lng":127.07438,"roadAddr":"경기도 용인시 기흥구 흥덕2로118번길 1, 흥덕파출소 (영덕동)","jibunAddr":"경기도 용인시 기흥구 영덕동 967 흥덕파출소","openHours":"상시","maleToilets":0,"femaleToilets":0,"disabled":true,"diaperTable":false,"emergencyBell":false,"cctv":false,"managerTel":"0312600485","source":"public","category":"public"},{"id":"202640500000100001","name":"소공인 및 스타트업 허브 개방화장실","lat":37.269346,"lng":127.073123,"roadAddr":"경기도 용인시 기흥구 흥덕2로 15 (영덕동)","jibunAddr":"경기도 용인시 기흥구 영덕동 1334","openHours":"정시","maleToilets":12,"femaleToilets":14,"disabled":true,"diaperTable":false,"emergencyBell":true,"cctv":true,"source":"public","category":"public"},{"id":"202540500000101972","name":"광교푸르지오시티2단지 개방화장실","lat":37.297679,"lng":127.070329,"roadAddr":"경기도 용인시 수지구 광교중앙로296번길 22","jibunAddr":"경기도 용인시 수지구 상현동 1132-1","openHours":"상시","maleToilets":6,"femaleToilets":3,"disabled":true,"diaperTable":false,"emergencyBell":false,"cctv":true,"managerTel":"0312136077","source":"public","category":"public"},{"id":"202540500000101971","name":"광교푸르지오시티3단지 개방화장실","lat":37.297136,"lng":127.070172,"roadAddr":"경기도 용인시 수지구 광교중앙로296번길 14","jibunAddr":"경기도 용인시 수지구 상현동 1132-3","openHours":"상시","maleToilets":6,"femaleToilets":3,"disabled":true,"diaperTable":true,"emergencyBell":false,"cctv":true,"managerTel":"0312136077","source":"public","category":"public"},{"id":"202540500000102161","name":"흥덕도서관 개방화장실","lat":37.274943,"lng":127.083947,"roadAddr":"경기도 용인시 기흥구 흥덕중앙로 153","jibunAddr":"경기도 용인시 기흥구 영덕동 1235","openHours":"정시","maleToilets":15,"femaleToilets":15,"disabled":false,"diaperTable":false,"emergencyBell":false,"cctv":true,"managerTel":"03161931518","source":"public","category":"public"},{"id":"202540500000102198","name":"상현역 개방화장실","lat":37.297724,"lng":127.069329,"roadAddr":"경기도 용인시 수지구 광교중앙로 지하312, 상현역 (상현동)","jibunAddr":"경기도 용인시 수지구 상현동 502-10 상현역","openHours":"정시","maleToilets":6,"femaleToilets":6,"disabled":true,"diaperTable":true,"emergencyBell":true,"cctv":true,"managerTel":"03180187810","source":"public","category":"public"},{"id":"202540500000101984","name":"상현종합상가 개방화장실","lat":37.308904,"lng":127.085311,"roadAddr":"경기도 용인시 수지구 만현로 88","jibunAddr":"경기도 용인시 수지구 상현동 66-9","openHours":"상시","maleToilets":6,"femaleToilets":3,"disabled":false,"diaperTable":false,"emergencyBell":true,"cctv":true,"managerTel":"0318968688","source":"public","category":"public"},{"id":"202540500000101898","name":"용인서부경찰서 상현지구대 개방화장실","lat":37.306232,"lng":127.075473,"roadAddr":"경기도 용인시 수지구 심곡로 7, 상현지구대 (상현동)","jibunAddr":"경기도 용인시 수지구 상현동 197-3 상현지구대","openHours":"상시","maleToilets":2,"femaleToilets":1,"disabled":true,"diaperTable":false,"emergencyBell":false,"cctv":true,"managerTel":"03180218030","source":"public","category":"public"},{"id":"202540500000102121","name":"광교역사공원 공중화장실","lat":37.299574,"lng":127.064829,"roadAddr":"경기도 용인시 수지구 포은대로 37, 독바위전수관 (상현동)","jibunAddr":"경기도 용인시 수지구 상현동 1185 독바위전수관","openHours":"상시","maleToilets":5,"femaleToilets":6,"disabled":true,"diaperTable":true,"emergencyBell":true,"cctv":true,"managerTel":"03161939081","source":"public","category":"public"},{"id":"202540500000102102","name":"심곡어린이공원 공중화장실","lat":37.304793,"lng":127.072793,"roadAddr":"경기도 용인시 수지구 수지로 5-19 (상현동)","jibunAddr":"경기도 용인시 수지구 상현동 1212","openHours":"상시","maleToilets":2,"femaleToilets":2,"disabled":true,"diaperTable":false,"emergencyBell":true,"cctv":true,"managerTel":"03161939081","source":"public","category":"public"},{"id":"202540500000102036","name":"영덕레스피아 공중화장실","lat":37.272185,"lng":127.066947,"roadAddr":"경기도 용인시 기흥구 흥덕1로 43 (영덕동)","jibunAddr":"경기도 용인시 기흥구 영덕동 1003","openHours":"상시","maleToilets":5,"femaleToilets":8,"disabled":true,"diaperTable":false,"emergencyBell":true,"cctv":true,"managerTel":"0312110877","source":"public","category":"public"},{"id":"202540500000101953","name":"영덕1동 행정복지센터 개방화장실","lat":37.277821,"lng":127.074533,"roadAddr":"경기도 용인시 기흥구 흥덕2로118번길 2","jibunAddr":"경기도 용인시 기흥구 영덕동 1208","openHours":"정시","maleToilets":12,"femaleToilets":12,"disabled":true,"diaperTable":true,"emergencyBell":true,"cctv":false,"managerTel":"03161936802","source":"public","category":"public"},{"id":"202540500000102100","name":"자은근린공원 공중화장실","lat":37.27449,"lng":127.08459,"roadAddr":"경기도 용인시 기흥구 흥덕중앙로 161 (영덕동)","jibunAddr":"경기도 용인시 기흥구 영덕동 1236","openHours":"상시","maleToilets":8,"femaleToilets":8,"disabled":true,"diaperTable":true,"emergencyBell":true,"cctv":true,"managerTel":"03161939081","source":"public","category":"public"},{"id":"202540500000101938","name":"상현1동 행정복지센터 개방화장실","lat":37.304627,"lng":127.081147,"roadAddr":"경기도 용인시 수지구 상현로 71","jibunAddr":"경기도 용인시 수지구 상현동 839","openHours":"정시","maleToilets":9,"femaleToilets":4,"disabled":true,"diaperTable":false,"emergencyBell":false,"cctv":true,"managerTel":"03161938722","source":"public","category":"public"},{"id":"202540500000101981","name":"광교푸르지오시티1단지 개방화장실","lat":37.298003,"lng":127.068391,"roadAddr":"경기도 용인시 수지구 광교중앙로295번길 21 (상현동)","jibunAddr":"경기도 용인시 수지구 상현동 1116-1","openHours":"상시","maleToilets":6,"femaleToilets":3,"disabled":true,"diaperTable":true,"emergencyBell":true,"cctv":true,"managerTel":"0312718600","source":"public","category":"public"},{"id":"202540500000102315","name":"한국도로교통공단 경기도지부 개방화장실","lat":37.27238,"lng":127.081456,"roadAddr":"경기도 용인시 기흥구 흥덕3로 41, 도로교통공단경기도지부 (영덕동)","jibunAddr":"경기도 용인시 기흥구 영덕동 1035 도로교통공단경기도지부","openHours":"정시","maleToilets":22,"femaleToilets":18,"disabled":false,"diaperTable":false,"emergencyBell":false,"cctv":false,"managerTel":"03180061116","source":"public","category":"public"},{"id":"202540500000101989","name":"거묵프라자 개방화장실","lat":37.307809,"lng":127.084502,"roadAddr":"경기도 용인시 수지구 만현로 100","jibunAddr":"경기도 용인시 수지구 상현동 257-22","openHours":"상시","maleToilets":5,"femaleToilets":3,"disabled":false,"diaperTable":false,"emergencyBell":false,"cctv":true,"source":"public","category":"public"},{"id":"202540500000102166","name":"상현도서관 개방화장실","lat":37.29996,"lng":127.074289,"roadAddr":"경기도 용인시 수지구 법조로 232, 상현도서관 (상현동)","jibunAddr":"경기도 용인시 수지구 상현동 1129-2 상현도서관","openHours":"정시","maleToilets":25,"femaleToilets":25,"disabled":true,"diaperTable":true,"emergencyBell":true,"cctv":true,"managerTel":"03161931673","source":"public","category":"public"},{"id":"202540500000102111","name":"서봉숲속근린공원②(다목적구장) 공중화장실","lat":37.300155,"lng":127.082984,"roadAddr":"경기도 용인시 수지구 광교호수로418번길 11-1 (상현동)","jibunAddr":"경기도 용인시 수지구 상현동 1151","openHours":"상시","maleToilets":3,"femaleToilets":2,"disabled":true,"diaperTable":true,"emergencyBell":true,"cctv":true,"managerTel":"0313244477","source":"public","category":"public"},{"id":"202640500000100014","name":"흥덕청소년문화의집, 기흥국민체육센터 개방화장실","lat":37.277374,"lng":127.074652,"roadAddr":"경기도 용인시 기흥구 흥덕2로 110 (영덕동)","jibunAddr":"경기도 용인시 기흥구 영덕동 1209","openHours":"정시","maleToilets":19,"femaleToilets":15,"disabled":true,"diaperTable":false,"emergencyBell":true,"cctv":true,"managerTel":"0313289756","source":"public","category":"public"},{"id":"202540500000102119","name":"덕골근린공원 공중화장실","lat":37.278935,"lng":127.075261,"roadAddr":"경기도 용인시 기흥구 흥덕2로 124 (영덕동)","jibunAddr":"경기도 용인시 기흥구 영덕동 1215","openHours":"상시","maleToilets":5,"femaleToilets":4,"disabled":true,"diaperTable":false,"emergencyBell":true,"cctv":true,"managerTel":"03161939081","source":"public","category":"public"},{"id":"202540500000102434","name":"신명프라자 개방화장실","lat":37.297669,"lng":127.069745,"roadAddr":"경기도 용인시 수지구 광교중앙로 310","jibunAddr":"경기도 용인시 수지구 상현동 1131-3","openHours":"상시","maleToilets":3,"femaleToilets":2,"disabled":true,"diaperTable":true,"emergencyBell":false,"cctv":true,"source":"public","category":"public"},{"id":"202540500000101990","name":"성진빌딩 개방화장실","lat":37.309358,"lng":127.07653,"roadAddr":"경기도 용인시 수지구 수지로 74","jibunAddr":"경기도 용인시 수지구 상현동 107-4","openHours":"상시","maleToilets":4,"femaleToilets":2,"disabled":false,"diaperTable":false,"emergencyBell":false,"cctv":true,"source":"public","category":"public"},{"id":"202540500000101976","name":"원희캐슬프라자 개방화장실","lat":37.306692,"lng":127.084861,"roadAddr":"경기도 용인시 수지구 만현로 110 (상현동, 원희캐슬프라자)","jibunAddr":"경기도 용인시 수지구 상현동 254-14","openHours":"상시","maleToilets":4,"femaleToilets":3,"disabled":true,"diaperTable":false,"emergencyBell":false,"cctv":true,"managerTel":"0312616991","source":"public","category":"public"},{"id":"202540500000101975","name":"헤르메스상가 개방화장실","lat":37.30942,"lng":127.08594,"roadAddr":"경기도 용인시 수지구 만현로 82-4, 헤르메스상가 (상현동)","jibunAddr":"경기도 용인시 수지구 상현동 66-2 헤르메스상가","openHours":"정시","maleToilets":5,"femaleToilets":3,"disabled":false,"diaperTable":false,"emergencyBell":true,"cctv":true,"source":"public","category":"public"},{"id":"202540500000101993","name":"상현레스피아 공중화장실","lat":37.295836,"lng":127.075991,"roadAddr":"경기도 용인시 수지구 광교마을로 114 (상현동)","jibunAddr":"경기도 용인시 수지구 상현동 609","openHours":"상시","maleToilets":4,"femaleToilets":3,"disabled":false,"diaperTable":true,"emergencyBell":false,"cctv":false,"managerTel":"03161938051","source":"public","category":"public"}]