[{"id":"202238300000102108","name":"관양2동노외","lat":37.39891,"lng":126.975096,"roadAddr":"동안구 흥안대로507번길 23(주은혜교회 뒤)","jibunAddr":"동안구 관양동 1497","openHours":"00:00~00:00","maleToilets":1,"femaleToilets":1,"disabled":true,"diaperTable":false,"emergencyBell":false,"cctv":true,"managerTel":"0313895326","source":"public","category":"public"},{"id":"202438300000100006","name":"관양시장 공중화장실","lat":37.405225,"lng":126.95931,"roadAddr":"경기도 안양시 동안구 관평로336번길 31 (관양동)","jibunAddr":"경기도 안양시 동안구 관양동 1407-8","openHours":"정시","maleToilets":6,"femaleToilets":4,"disabled":true,"diaperTable":true,"emergencyBell":true,"cctv":true,"managerTel":"03180452563","source":"public","category":"public"},{"id":"202238300000101923","name":"신한데뷰오피스텔 개방화장실","lat":37.400244,"lng":126.978058,"roadAddr":"경기도 안양시 동안구 안양판교로 20(관양동)","openHours":"00:00~24:00","maleToilets":6,"femaleToilets":3,"disabled":true,"diaperTable":false,"emergencyBell":false,"cctv":false,"managerTel":"0314256675","source":"public","category":"public"},{"id":"202238300000101876","name":"불성사 개방화장실","lat":37.432464,"lng":126.960172,"roadAddr":"경기도 안양시 동안구 예술공원로 496","jibunAddr":"경기도 안양시 동안구 비산동 46-9","openHours":"00:00~24:00","maleToilets":6,"femaleToilets":3,"disabled":false,"diaperTable":false,"emergencyBell":false,"cctv":false,"managerTel":"0314443268","source":"public","category":"public"},{"id":"202238300000101768","name":"인덕원동 복지회관","lat":37.399602,"lng":126.975155,"roadAddr":"경기도 안양시 동안구 인덕원로24번길 60 (관양동, 관양2동복지회관)","openHours":"정시","maleToilets":12,"femaleToilets":6,"disabled":false,"diaperTable":false,"emergencyBell":false,"cctv":false,"managerTel":"03180454105","source":"public","category":"public"},{"id":"202238300000102014","name":"인덕원역(4호선) 공중화장실","lat":37.401508,"lng":126.976689,"roadAddr":"경기도 안양시 동안구 흥안대로 529 지하","openHours":"00:00~00:00","maleToilets":8,"femaleToilets":8,"disabled":true,"diaperTable":true,"emergencyBell":true,"cctv":true,"managerTel":"0314227788","source":"public","category":"public"},{"id":"202238300000101769","name":"인덕원동행정복지센터공중화장실","lat":37.40228,"lng":126.970997,"roadAddr":"경기도 안양시 동안구 관양로 215","openHours":"정시","maleToilets":8,"femaleToilets":2,"disabled":true,"diaperTable":false,"emergencyBell":false,"cctv":false,"managerTel":"03180454660","source":"public","category":"public"},{"id":"202238300000101810","name":"덕진빌딩 개방화장실","lat":37.402295,"lng":126.975792,"roadAddr":"경기도 안양시 동안구 관악대로 486(관양동)","openHours":"00:00~24:00","maleToilets":4,"femaleToilets":2,"disabled":false,"diaperTable":false,"emergencyBell":false,"cctv":true,"source":"public","category":"public"},{"id":"202238300000101756","name":"간촌약수터 화장실","lat":37.417345,"lng":126.963956,"jibunAddr":"경기도 안양시 동안구 관양동 1776","openHours":"상시","maleToilets":3,"femaleToilets":2,"disabled":false,"diaperTable":false,"emergencyBell":false,"cctv":false,"managerTel":"03180454512","source":"public","category":"public"},{"id":"202238300000101818","name":"동안타워 개방화장실","lat":37.397729,"lng":126.962904,"roadAddr":"경기도 안양시 동안구 부림로 164(관양동)","openHours":"00:00~24:00","maleToilets":2,"femaleToilets":2,"disabled":false,"diaperTable":false,"emergencyBell":false,"cctv":true,"managerTel":"0314213321","source":"public","category":"public"},{"id":"202238300000102105","name":"관양1동노외","lat":37.406433,"lng":126.961089,"roadAddr":"동안구 관평로358번길 30","jibunAddr":"동안구 관양동 1407-12","openHours":"00:00~00:00","maleToilets":2,"femaleToilets":3,"disabled":true,"diaperTable":false,"emergencyBell":true,"cctv":true,"managerTel":"0313895326","source":"public","category":"public"},{"id":"202238300000101770","name":"관양도서관 화장실","lat":37.410986,"lng":126.968102,"roadAddr":"경기도 안양시 동안구 동편로 124 (관양동, 관양도서관)","openHours":"09:00~18:00","maleToilets":17,"femaleToilets":16,"disabled":true,"diaperTable":false,"emergencyBell":false,"cctv":false,"managerTel":"03180456331","source":"public","category":"public"},{"id":"202238300000102111","name":"평촌스마트스퀘어지하","lat":37.398718,"lng":126.964391,"roadAddr":"동안구 부림로170번길 20(스마트스퀘어체육공원 내)","jibunAddr":"동안구 관양동 1741","openHours":"상시","maleToilets":4,"femaleToilets":5,"disabled":true,"diaperTable":true,"emergencyBell":true,"cctv":true,"managerTel":"0313895326","source":"public","category":"public"},{"id":"202438300000100024","name":"간촌유아숲체험 어린이화장실","lat":37.417345,"lng":126.963956,"jibunAddr":"경기도 안양시 동안구 관양동 1776","openHours":"정시","maleToilets":0,"femaleToilets":0,"disabled":false,"diaperTable":false,"emergencyBell":false,"cctv":false,"managerTel":"03180455018","source":"public","category":"public"},{"id":"202238300000102046","name":"평촌경영고 앞 공중화장실","lat":37.401536,"lng":126.960347,"roadAddr":"경기도 안양시 동안구 학의로 191","jibunAddr":"경기도 안양시 동안구 관양동 1609","openHours":"상시","maleToilets":3,"femaleToilets":2,"disabled":false,"diaperTable":false,"emergencyBell":true,"cctv":true,"managerTel":"03180452187","source":"public","category":"public"},{"id":"202238300000101872","name":"부림동 행정복지센터 화장실","lat":37.398736,"lng":126.959465,"roadAddr":"경기도 안양시 동안구 달안로 154","openHours":"정시","maleToilets":6,"femaleToilets":4,"disabled":false,"diaperTable":false,"emergencyBell":false,"cctv":false,"managerTel":"03180454670","source":"public","category":"public"},{"id":"202238300000101762","name":"공작어린이공원 공중화장실","lat":37.400371,"lng":126.958412,"jibunAddr":"경기도 안양시 동안구 관양동 1587-1","openHours":"00:00~24:00","maleToilets":3,"femaleToilets":2,"disabled":true,"diaperTable":false,"emergencyBell":true,"cctv":false,"managerTel":"03180455021","source":"public","category":"public"},{"id":"202238300000102106","name":"동편마을지하","lat":37.408239,"lng":126.972742,"roadAddr":"동안구 관양동 1709 동편마을 단지 내","jibunAddr":"동안구 관양동 1709 동편마을 단지 내","openHours":"00:00~00:00","maleToilets":1,"femaleToilets":2,"disabled":true,"diaperTable":false,"emergencyBell":false,"cctv":true,"managerTel":"0313895326","source":"public","category":"public"},{"id":"202238300000102077","name":"해오름공원 공중화장실","lat":37.410468,"lng":126.970274,"roadAddr":"경기도 안양시 동안구 동편로13번길 57","jibunAddr":"경기도 안양시 동안구 관양동 1668","openHours":"00:00~24:00","maleToilets":8,"femaleToilets":8,"disabled":true,"diaperTable":false,"emergencyBell":true,"cctv":true,"managerTel":"03180455015","source":"public","category":"public"},{"id":"202238300000101772","name":"관양시장문화센터 개방화장실","lat":37.405225,"lng":126.95931,"roadAddr":"경기도 안양시 동안구 관평로336번길 31(관양동)","openHours":"07:00~20:00","maleToilets":6,"femaleToilets":4,"disabled":false,"diaperTable":true,"emergencyBell":false,"cctv":true,"managerTel":"0313865577","source":"public","category":"public"},{"id":"202338300000100002","name":"진한빌딩(2층) 개방화장실","lat":37.399898,"lng":126.975216,"roadAddr":"경기도 안양시 동안구 인덕원로24번길 56, 2층 (관양동)","jibunAddr":"경기도 안양시 동안구 관양동 1496","openHours":"24시간","maleToilets":3,"femaleToilets":1,"disabled":false,"diaperTable":false,"emergencyBell":false,"cctv":false,"source":"public","category":"public"},{"id":"202238300000101822","name":"동편공원 공중화장실","lat":37.409958,"lng":126.974346,"jibunAddr":"경기도 안양시 동안구 관양동 1660","openHours":"00:00~24:00","maleToilets":4,"femaleToilets":2,"disabled":true,"diaperTable":false,"emergencyBell":false,"cctv":false,"managerTel":"03180455015","source":"public","category":"public"},{"id":"202238300000101874","name":"부안어린이공원 공중화장실","lat":37.3984,"lng":126.96005,"jibunAddr":"경기도 안양시 동안구 관양동 1588-4","openHours":"00:00~24:00","maleToilets":4,"femaleToilets":2,"disabled":true,"diaperTable":true,"emergencyBell":true,"cctv":false,"managerTel":"03180455021","source":"public","category":"public"},{"id":"202238300000101767","name":"관양동 행정복지센터 공중화장실","lat":37.406151,"lng":126.961464,"roadAddr":"경기도 안양시 동안구 관평로 358번길 46","jibunAddr":"경기도 안양시 동안구 관양동 1407-1","openHours":"정시","maleToilets":6,"femaleToilets":10,"disabled":true,"diaperTable":false,"emergencyBell":true,"cctv":true,"managerTel":"03180454650","source":"public","category":"public"},{"id":"202238300000102107","name":"인덕원환승","lat":37.400692,"lng":126.978498,"roadAddr":"동안구 안양판교로 23(인덕원역 인근)","jibunAddr":"동안구 관양동 157","openHours":"00:00~00:00","maleToilets":5,"femaleToilets":3,"disabled":false,"diaperTable":false,"emergencyBell":false,"cctv":false,"managerTel":"0313895326","source":"public","category":"public"},{"id":"202439700000100113","name":"과천소방서","lat":37.428564,"lng":126.990524,"roadAddr":"경기도 과천시 통영로 12","jibunAddr":"경기도 과천시 중앙동 40","openHours":"정시","maleToilets":20,"femaleToilets":5,"disabled":true,"diaperTable":false,"emergencyBell":false,"cctv":false,"managerTel":"023314221","source":"public","category":"public"},{"id":"202439700000100028","name":"현대빌딩","lat":37.428343,"lng":126.991341,"roadAddr":"경기도 과천시 중앙로 131","jibunAddr":"경기도 과천시 중앙동 40-11번지","openHours":"정시","maleToilets":7,"femaleToilets":3,"disabled":true,"diaperTable":false,"emergencyBell":true,"cctv":true,"managerTel":"025040083","source":"public","category":"public"},{"id":"202439700000100059","name":"5단지 연합상가","lat":37.429876,"lng":126.995255,"roadAddr":"경기도 과천시 별양로 111","jibunAddr":"경기도 과천시 별양동 6번지 주공아파트","openHours":"정시","maleToilets":4,"femaleToilets":1,"disabled":false,"diaperTable":false,"emergencyBell":false,"cctv":false,"managerTel":"025020067","source":"public","category":"public"},{"id":"202439700000100050","name":"과천대성주유소","lat":37.428829,"lng":126.993043,"roadAddr":"경기도 과천시 중앙로 144","jibunAddr":"경기도 과천시 별양동 1-2번지","openHours":"정시","maleToilets":2,"femaleToilets":1,"disabled":false,"diaperTable":false,"emergencyBell":true,"cctv":false,"managerTel":"025031941","source":"public","category":"public"},{"id":"202439700000100086","name":"과천시보건소","lat":37.430222,"lng":126.986798,"roadAddr":"경기도 과천시 관문로 69","jibunAddr":"경기도 과천시 중앙동 1-3","openHours":"정시","maleToilets":14,"femaleToilets":11,"disabled":true,"diaperTable":false,"emergencyBell":true,"cctv":true,"managerTel":"0221503813","source":"public","category":"public"},{"id":"202439700000100101","name":"경기과천교육도서관","lat":37.432332,"lng":126.996629,"roadAddr":"경기도 과천시 도서관길 36","jibunAddr":"경기도 과천시 별양동 2번지","openHours":"정시","maleToilets":6,"femaleToilets":5,"disabled":true,"diaperTable":false,"emergencyBell":false,"cctv":false,"managerTel":"0236770371","source":"public","category":"public"},{"id":"202439700000100056","name":"8단지 예지유치원상가","lat":37.434354,"lng":126.998014,"roadAddr":"경기도 과천시 별양로 184-1","jibunAddr":"경기도 과천시 부림동 42번지","openHours":"정시","maleToilets":4,"femaleToilets":2,"disabled":false,"diaperTable":false,"emergencyBell":true,"cctv":false,"managerTel":"025027771","source":"public","category":"public"},{"id":"202439700000100037","name":"상아빌딩","lat":37.428545,"lng":126.993565,"roadAddr":"경기도 과천시 별양상가 1로 35","jibunAddr":"경기도 과천시 별양동 1-4번지","openHours":"정시","maleToilets":8,"femaleToilets":4,"disabled":false,"diaperTable":false,"emergencyBell":true,"cctv":true,"managerTel":"025023755","source":"public","category":"public"},{"id":"202439700000100067","name":"중앙공원","lat":37.432332,"lng":126.996629,"roadAddr":"경기도 과천시 도서관길 36","jibunAddr":"경기도?과천시?별양동 2?","openHours":"정시","maleToilets":7,"femaleToilets":7,"disabled":true,"diaperTable":true,"emergencyBell":true,"cctv":false,"managerTel":"0236772362","source":"public","category":"public"},{"id":"202439700000100074","name":"정보과학도서관","lat":37.418744,"lng":126.989717,"roadAddr":"경기도 과천시 중앙로 24","jibunAddr":"경기도 과천시 갈현동 677?","openHours":"정시","maleToilets":29,"femaleToilets":17,"disabled":false,"diaperTable":false,"emergencyBell":true,"cctv":true,"managerTel":"0221503005","source":"public","category":"public"},{"id":"202439700000100044","name":"동성빌딩","lat":37.429119,"lng":126.991232,"roadAddr":"경기도 과천시 새술막길 36","jibunAddr":"경기도 과천시 중앙동 40-4번지","openHours":"정시","maleToilets":2,"femaleToilets":3,"disabled":true,"diaperTable":false,"emergencyBell":true,"cctv":true,"managerTel":"025028608","source":"public","category":"public"},{"id":"202439700000100088","name":"원문동문화교육센터","lat":37.419256,"lng":126.989304,"roadAddr":"경기도 과천시 중앙로 28-1","jibunAddr":"경기도?과천시?갈현동 678?","openHours":"정시","maleToilets":10,"femaleToilets":5,"disabled":true,"diaperTable":false,"emergencyBell":true,"cctv":false,"managerTel":"0221503204","source":"public","category":"public"},{"id":"202439700000100047","name":"과천위버필드상가(1동2동3동)","lat":37.422801,"lng":126.991954,"roadAddr":"경기도 과천시 별양로 39","jibunAddr":"경기도 과천시 원문동 10","openHours":"정시","maleToilets":4,"femaleToilets":4,"disabled":true,"diaperTable":false,"emergencyBell":true,"cctv":false,"managerTel":"0215667055","source":"public","category":"public"},{"id":"202439700000100041","name":"렉스타운","lat":37.428281,"lng":126.992531,"roadAddr":"경기도 과쳔시 별양상가1로 25","jibunAddr":"경기도 과천시 별양동 1-10번지","openHours":"정시","maleToilets":12,"femaleToilets":6,"disabled":true,"diaperTable":false,"emergencyBell":true,"cctv":false,"managerTel":"025022244","source":"public","category":"public"},{"id":"202439700000100053","name":"가보자빌딩","lat":37.428805,"lng":126.991739,"roadAddr":"경기도 과천시 중앙로 137","jibunAddr":"경기도 과천시 중앙동 40-13번지","openHours":"정시","maleToilets":14,"femaleToilets":7,"disabled":true,"diaperTable":false,"emergencyBell":true,"cctv":true,"managerTel":"025024962","source":"public","category":"public"},{"id":"202439700000100081","name":"중앙동주민센터","lat":37.433192,"lng":126.993408,"roadAddr":"경기도 과천시 중앙동 관문로 136","jibunAddr":"경기도?과천시?중앙동 68","openHours":"정시","maleToilets":6,"femaleToilets":7,"disabled":true,"diaperTable":false,"emergencyBell":true,"cctv":false,"managerTel":"0221503105","source":"public","category":"public"},{"id":"202439700000100031","name":"제일상가","lat":37.428701,"lng":126.993192,"roadAddr":"경기도 과천시 별양상가1로 31","jibunAddr":"경기도 과천시 별양동 1-3번지","openHours":"정시","maleToilets":22,"femaleToilets":11,"disabled":true,"diaperTable":false,"emergencyBell":true,"cctv":false,"managerTel":"025034536","source":"public","category":"public"},{"id":"202439700000100045","name":"과천타워","lat":37.426958,"lng":126.991995,"roadAddr":"경기도 과천시 별양상가1로 10","jibunAddr":"경기도 과천시 별양동 1-17번지","openHours":"정시","maleToilets":9,"femaleToilets":4,"disabled":false,"diaperTable":false,"emergencyBell":true,"cctv":false,"managerTel":"025021100","source":"public","category":"public"},{"id":"202439700000100029","name":"중앙빌딩","lat":37.428991,"lng":126.991457,"roadAddr":"경기도 과천시 새술막길 38","jibunAddr":"경기도 과천시 중앙동 40-5번지","openHours":"정시","maleToilets":6,"femaleToilets":4,"disabled":true,"diaperTable":false,"emergencyBell":true,"cctv":false,"managerTel":"025031836","source":"public","category":"public"},{"id":"202439700000100112","name":"수자원공사수도권통합운영센터","lat":37.422968,"lng":126.988186,"roadAddr":"경기도 과천시 교육원로 11","jibunAddr":"경기도 과천시 갈현동 649-1","openHours":"정시","maleToilets":77,"femaleToilets":31,"disabled":true,"diaperTable":true,"emergencyBell":true,"cctv":true,"managerTel":"0221500150","source":"public","category":"public"},{"id":"202439700000100027","name":"8단지 남서울상가","lat":37.437555,"lng":126.997979,"roadAddr":"경기도 과천시 부림로 16","jibunAddr":"경기도 과천시 부림동 41번지","openHours":"정시","maleToilets":8,"femaleToilets":4,"disabled":false,"diaperTable":false,"emergencyBell":false,"cctv":false,"managerTel":"025025246","source":"public","category":"public"},{"id":"202439700000100060","name":"3단지 병원상가","lat":37.424475,"lng":126.993979,"roadAddr":"경기도 과천시 별양로 64","jibunAddr":"경기도 과천시 별양동 13번지","openHours":"정시","maleToilets":8,"femaleToilets":4,"disabled":false,"diaperTable":false,"emergencyBell":true,"cctv":false,"managerTel":"025022097","source":"public","category":"public"},{"id":"202439700000100115","name":"국사편찬위원회","lat":37.42467,"lng":126.979741,"roadAddr":"경기도 과천시 교육원로 86","jibunAddr":"경기도 과천시 중앙동 2-6","openHours":"정시","maleToilets":42,"femaleToilets":24,"disabled":true,"diaperTable":false,"emergencyBell":false,"cctv":false,"managerTel":"025008228","source":"public","category":"public"},{"id":"202439700000100036","name":"새서울프라자","lat":37.426827,"lng":126.992556,"roadAddr":"경기도 과천시 별양상가2로 20","jibunAddr":"경기도 과천시 별양동 1-18번지","openHours":"정시","maleToilets":16,"femaleToilets":9,"disabled":true,"diaperTable":false,"emergencyBell":true,"cctv":false,"managerTel":"0236791401","source":"public","category":"public"},{"id":"202439700000100102","name":"중앙선거관리위원회","lat":37.425489,"lng":126.979623,"roadAddr":"경기도 과천시 홍촌말로 44","jibunAddr":"경기도 과천시 중앙동 2-3번지","openHours":"정시","maleToilets":4,"femaleToilets":4,"disabled":true,"diaperTable":false,"emergencyBell":true,"cctv":false,"managerTel":"0232940971","source":"public","category":"public"},{"id":"202439700000100048","name":"과천오피스텔","lat":37.427525,"lng":126.992515,"roadAddr":"경기도 과천시 별양상가1로 18","jibunAddr":"경기도 과천시 별양동 1-14번지","openHours":"정시","maleToilets":8,"femaleToilets":4,"disabled":false,"diaperTable":false,"emergencyBell":true,"cctv":true,"managerTel":"025033134","source":"public","category":"public"},{"id":"202439700000100110","name":"정부과천종합청사 고객안내센터","lat":37.4278,"lng":126.984816,"roadAddr":"경기도 과천시 관문로 47","jibunAddr":"경기도 과천시 중앙동 1번지","openHours":"정시","maleToilets":10,"femaleToilets":4,"disabled":true,"diaperTable":true,"emergencyBell":false,"cctv":false,"managerTel":"0221105788","source":"public","category":"public"},{"id":"202439700000100054","name":"KT과천스마트타워","lat":37.429441,"lng":126.991735,"roadAddr":"경기도 과천시 새술막길 39","jibunAddr":"경기도 과천시 중앙동 41-1번지","openHours":"정시","maleToilets":5,"femaleToilets":5,"disabled":true,"diaperTable":false,"emergencyBell":true,"cctv":true,"managerTel":"025030044","source":"public","category":"public"},{"id":"202439700000100073","name":"과천시의회","lat":37.430222,"lng":126.986798,"roadAddr":"경기도 과천시 관문로 69","jibunAddr":"경기도 과천시 중앙동 1-3?","openHours":"정시","maleToilets":21,"femaleToilets":7,"disabled":false,"diaperTable":false,"emergencyBell":true,"cctv":false,"managerTel":"0236772523","source":"public","category":"public"},{"id":"202439700000100032","name":"유니온빌딩","lat":37.426654,"lng":126.991146,"roadAddr":"경기도 과천시 별양상가3로 5(별양동)","jibunAddr":"경기도 과천시 별양동 1-20번지","openHours":"정시","maleToilets":15,"femaleToilets":8,"disabled":true,"diaperTable":false,"emergencyBell":true,"cctv":false,"managerTel":"025073970","source":"public","category":"public"},{"id":"202439700000100106","name":"과천역","lat":37.433453,"lng":126.997457,"roadAddr":"경기도 과천시 별양로 177","jibunAddr":"경기도 과천시 별양동 2번지","openHours":"정시","maleToilets":8,"femaleToilets":4,"disabled":true,"diaperTable":true,"emergencyBell":true,"cctv":true,"managerTel":"025047789","source":"public","category":"public"},{"id":"202439700000100085","name":"부림동회관","lat":37.43346,"lng":126.998542,"roadAddr":"경기도 과천시 별양로 174","jibunAddr":"경기도 과천시 부림동 47","openHours":"정시","maleToilets":17,"femaleToilets":9,"disabled":true,"diaperTable":false,"emergencyBell":true,"cctv":false,"managerTel":"0221503410","source":"public","category":"public"},{"id":"202439700000100033","name":"신라상가","lat":37.42842,"lng":126.993787,"roadAddr":"경기도 과천시 별양상가1로 37","jibunAddr":"경기도 과천시 별양동 1-5번지","openHours":"정시","maleToilets":5,"femaleToilets":3,"disabled":false,"diaperTable":false,"emergencyBell":true,"cctv":false,"managerTel":"025031188","source":"public","category":"public"},{"id":"202439700000100080","name":"중앙동회관","lat":37.430738,"lng":126.987744,"roadAddr":"경기도 과천시 향교말길 39","jibunAddr":"경기도 과천시 중앙동 7-9","openHours":"정시","maleToilets":1,"femaleToilets":2,"disabled":true,"diaperTable":false,"emergencyBell":true,"cctv":false,"managerTel":"0221503105","source":"public","category":"public"},{"id":"202439700000100063","name":"가족여성플라자","lat":37.434019,"lng":126.997895,"roadAddr":"경기도 과천시 별양로 182","jibunAddr":"경기도 과천시 부림동 44","openHours":"정시","maleToilets":2,"femaleToilets":4,"disabled":true,"diaperTable":true,"emergencyBell":true,"cctv":true,"managerTel":"0269252526","source":"public","category":"public"},{"id":"202439700000100061","name":"1단지 종합상가","lat":37.433006,"lng":126.993039,"roadAddr":"경기도 과천시 관문로 130","jibunAddr":"경기도 과천시 중앙동 36","openHours":"상시","maleToilets":8,"femaleToilets":4,"disabled":false,"diaperTable":false,"emergencyBell":true,"cctv":false,"managerTel":"025025548","source":"public","category":"public"},{"id":"202439700000100051","name":"골든타워","lat":37.428281,"lng":126.993324,"roadAddr":"경기도 과천시 별양상가1로 30","jibunAddr":"경기도 과천시 별양동 1-8번지","openHours":"정시","maleToilets":10,"femaleToilets":4,"disabled":true,"diaperTable":false,"emergencyBell":true,"cctv":true,"managerTel":"025040973","source":"public","category":"public"},{"id":"202439700000100040","name":"명문빌딩","lat":37.428875,"lng":126.99088,"roadAddr":"경기도 과천시 새술막길 10-15","jibunAddr":"경기도 과천시 중앙동 40-8번지","openHours":"정시","maleToilets":3,"femaleToilets":1,"disabled":false,"diaperTable":false,"emergencyBell":true,"cctv":false,"managerTel":"025043301","source":"public","category":"public"},{"id":"202439700000100046","name":"과천중앙빌딩","lat":37.428599,"lng":126.991526,"roadAddr":"경기도 과천시 중앙로 135","jibunAddr":"경기도 과천시 중앙동 40-12번지","openHours":"정시","maleToilets":28,"femaleToilets":14,"disabled":false,"diaperTable":false,"emergencyBell":true,"cctv":true,"managerTel":"025035082","source":"public","category":"public"},{"id":"202439700000100042","name":"래미안슈르(CD)","lat":37.423046,"lng":126.993522,"roadAddr":"경기도 과천시 별양로 12","jibunAddr":"경기도 과천시 원문동 4번지 래미안슈르","openHours":"정시","maleToilets":28,"femaleToilets":14,"disabled":true,"diaperTable":false,"emergencyBell":true,"cctv":false,"managerTel":"0236789390","source":"public","category":"public"},{"id":"202439700000100072","name":"찬우물광장","lat":37.417573,"lng":126.98614,"roadAddr":"경기도 과천시 갈현동 8-55","jibunAddr":"경기도 과천시 갈현동 8-55","openHours":"정시","maleToilets":2,"femaleToilets":2,"disabled":false,"diaperTable":true,"emergencyBell":true,"cctv":false,"managerTel":"0236772362","source":"public","category":"public"},{"id":"202439700000100090","name":"공중화장실(원문동 앞)","lat":37.419279,"lng":126.988847,"roadAddr":"경기도 과천시 갈현동 680","jibunAddr":"경기도 과천시 갈현동 680","openHours":"정시","maleToilets":2,"femaleToilets":1,"disabled":false,"diaperTable":false,"emergencyBell":true,"cctv":false,"managerTel":"0221503204","source":"public","category":"public"},{"id":"202439700000100087","name":"과천시청","lat":37.430222,"lng":126.986798,"roadAddr":"경기도 과천시 관문로 69","jibunAddr":"경기도 과천시 중앙동 1-3","openHours":"정시","maleToilets":58,"femaleToilets":31,"disabled":true,"diaperTable":false,"emergencyBell":true,"cctv":false,"managerTel":"0236772727","source":"public","category":"public"},{"id":"202439700000100039","name":"백두상가","lat":37.428158,"lng":126.99356,"roadAddr":"경기도 과천시 별양상가1로38","jibunAddr":"경기도 과천시 별양동 1-7번지","openHours":"정시","maleToilets":13,"femaleToilets":5,"disabled":true,"diaperTable":false,"emergencyBell":true,"cctv":false,"managerTel":"025027475","source":"public","category":"public"},{"id":"202439700000100062","name":"10단지 종합상가","lat":37.43488,"lng":126.996356,"roadAddr":"경기도 과천시 관문로 166(중앙동)","jibunAddr":"경기도 과천시 중앙동 67번지 주공아파트","openHours":"정시","maleToilets":7,"femaleToilets":4,"disabled":false,"diaperTable":false,"emergencyBell":true,"cctv":false,"managerTel":"025048989","source":"public","category":"public"},{"id":"202439700000100084","name":"별양동주민센터","lat":37.42417,"lng":126.993719,"roadAddr":"경기도 과천시 별양로 60","jibunAddr":"경기도?과천시?별양동 12?","openHours":"정시","maleToilets":4,"femaleToilets":2,"disabled":true,"diaperTable":true,"emergencyBell":true,"cctv":false,"managerTel":"0221503310","source":"public","category":"public"},{"id":"202439700000100093","name":"청소년수련관","lat":37.426442,"lng":127.00091,"roadAddr":"경기도 과천시 참마을로 9","jibunAddr":"경기도 과천시 문원동 199","openHours":"정시","maleToilets":28,"femaleToilets":24,"disabled":true,"diaperTable":false,"emergencyBell":true,"cctv":false,"managerTel":"0221503921","source":"public","category":"public"},{"id":"202439700000100038","name":"벽산상가","lat":37.428008,"lng":126.992955,"roadAddr":"경기도 과천시 별양상가로 7","jibunAddr":"경기도 과천시 별양동 1-11번지","openHours":"정시","maleToilets":38,"femaleToilets":23,"disabled":true,"diaperTable":false,"emergencyBell":true,"cctv":true,"managerTel":"025030272","source":"public","category":"public"},{"id":"202439700000100082","name":"문원동주민센터","lat":37.426403,"lng":127.001899,"roadAddr":"경기도 과천시 아랫배랭이로 35","jibunAddr":"경기도 과천시 문원동 187-1","openHours":"정시","maleToilets":9,"femaleToilets":10,"disabled":true,"diaperTable":false,"emergencyBell":true,"cctv":false,"managerTel":"0221503607","source":"public","category":"public"},{"id":"202439700000100057","name":"6단지 자이상가(2동3동)","lat":37.430304,"lng":126.998953,"roadAddr":"경기도 과천시 별양로 142","jibunAddr":"경기도 과천시 별양동 52","openHours":"정시","maleToilets":8,"femaleToilets":6,"disabled":true,"diaperTable":true,"emergencyBell":true,"cctv":false,"managerTel":"0269527662","source":"public","category":"public"},{"id":"202439700000100089","name":"원문동행정복지센터","lat":37.419389,"lng":126.989131,"roadAddr":"경기도 과천시 중앙로 28","jibunAddr":"경기도?과천시?갈현동 679","openHours":"정시","maleToilets":6,"femaleToilets":2,"disabled":true,"diaperTable":true,"emergencyBell":true,"cctv":false,"managerTel":"0221503204","source":"public","category":"public"},{"id":"202439700000100034","name":"시대빌딩","lat":37.434098,"lng":126.99815,"roadAddr":"경기도 과천시 별양로 182-2","jibunAddr":"경기도 과천시 부림동 46번지","openHours":"정시","maleToilets":5,"femaleToilets":4,"disabled":false,"diaperTable":false,"emergencyBell":true,"cctv":false,"managerTel":"025043521","source":"public","category":"public"},{"id":"202439700000100030","name":"제일쇼핑","lat":37.427328,"lng":126.992998,"roadAddr":"경기도 과천시 별양상가2로 14","jibunAddr":"경기도 과천시 별양동 1-13번지","openHours":"정시","maleToilets":35,"femaleToilets":15,"disabled":false,"diaperTable":false,"emergencyBell":true,"cctv":false,"managerTel":"025035101","source":"public","category":"public"},{"id":"202439700000100107","name":"정부과천청사역","lat":37.425997,"lng":126.990186,"roadAddr":"경기도 과천시 중앙로 100","jibunAddr":"경기도 과천시 별양동 1번지","openHours":"정시","maleToilets":8,"femaleToilets":4,"disabled":true,"diaperTable":false,"emergencyBell":true,"cctv":true,"managerTel":"025027067","source":"public","category":"public"},{"id":"202439700000100065","name":"야생화단지","lat":37.421437,"lng":126.971064,"roadAddr":"경기도 과천시 밤나무길 100","jibunAddr":"경기도 과천시 갈현동 산 103-1","openHours":"정시","maleToilets":1,"femaleToilets":2,"disabled":true,"diaperTable":false,"emergencyBell":true,"cctv":false,"managerTel":"0236772341","source":"public","category":"public"},{"id":"202439700000100055","name":"KC에너지","lat":37.404366,"lng":126.97909,"roadAddr":"경기도 과천시 과천대로 20","jibunAddr":"경기도 과천시 갈현동 302-1","openHours":"상시","maleToilets":4,"femaleToilets":1,"disabled":false,"diaperTable":false,"emergencyBell":true,"cctv":false,"managerTel":"025074022","source":"public","category":"public"},{"id":"202439700000100068","name":"관악산입구","lat":37.433694,"lng":126.988706,"roadAddr":"경기도 과천시 관악산길 160","jibunAddr":"경기도 과천시 중앙동 42","openHours":"정시","maleToilets":5,"femaleToilets":3,"disabled":true,"diaperTable":false,"emergencyBell":true,"cctv":true,"managerTel":"0236772341","source":"public","category":"public"},{"id":"202439700000100058","name":"5단지 종합상가","lat":37.429876,"lng":126.995255,"roadAddr":"경기도 과천시 별양로 111","jibunAddr":"경기도 과천시 별양동 6번지 주공아파트","openHours":"정시","maleToilets":6,"femaleToilets":4,"disabled":false,"diaperTable":false,"emergencyBell":true,"cctv":false,"managerTel":"025023882","source":"public","category":"public"},{"id":"202439700000100097","name":"과천시민회관","lat":37.428193,"lng":126.989152,"roadAddr":"경기도 과천시 통영로 5","jibunAddr":"경기도 과천시 중앙로 6-2","openHours":"정시","maleToilets":129,"femaleToilets":70,"disabled":true,"diaperTable":false,"emergencyBell":false,"cctv":false,"managerTel":"025001161","source":"public","category":"public"},{"id":"202439700000100114","name":"과천우체국","lat":37.423818,"lng":126.993546,"roadAddr":"경기도 과천시 별양로 54","jibunAddr":"경기도 과천시 별양동 10번지","openHours":"정시","maleToilets":3,"femaleToilets":2,"disabled":true,"diaperTable":true,"emergencyBell":true,"cctv":false,"managerTel":"025032005","source":"public","category":"public"},{"id":"202439700000100098","name":"과천경찰서","lat":37.429358,"lng":126.989987,"roadAddr":"경기도 과천시 통영로 20","jibunAddr":"경기도 과천시 중앙동 39","openHours":"정시","maleToilets":5,"femaleToilets":1,"disabled":true,"diaperTable":false,"emergencyBell":true,"cctv":false,"managerTel":"0221494232","source":"public","category":"public"},{"id":"202439700000100043","name":"래미안슈르(AB)","lat":37.423046,"lng":126.993522,"roadAddr":"경기도 과천시 별양로 12","jibunAddr":"경기도 과천시 원문동 4번지 래미안슈르","openHours":"정시","maleToilets":57,"femaleToilets":30,"disabled":false,"diaperTable":false,"emergencyBell":true,"cctv":false,"managerTel":"0236789390","source":"public","category":"public"},{"id":"202439700000100064","name":"과천시가족센터","lat":37.436361,"lng":126.992439,"roadAddr":"경기도 과천시 관악산길 58","jibunAddr":"경기도 과천시 관문동 107-5","openHours":"정시","maleToilets":4,"femaleToilets":2,"disabled":true,"diaperTable":false,"emergencyBell":true,"cctv":false,"managerTel":"025030070","source":"public","category":"public"},{"id":"202540300000100048","name":"산빛 근린공원","lat":37.399165,"lng":126.988019,"roadAddr":"경기도 의왕시 포일세거리로 44 (포일동)","jibunAddr":"경기도 의왕시 포일동 654번지","openHours":"상시","maleToilets":4,"femaleToilets":5,"disabled":true,"diaperTable":true,"emergencyBell":true,"cctv":false,"managerTel":"0313452863","source":"public","category":"public"},{"id":"202540300000100035","name":"두터비공원","lat":37.405389,"lng":126.986778,"roadAddr":"경기도 의왕시 포일세거리로 115","openHours":"상시","maleToilets":2,"femaleToilets":1,"disabled":false,"diaperTable":false,"emergencyBell":true,"cctv":false,"managerTel":"0313452863","source":"public","category":"public"}]