[{"id":"202537800000100188","name":"미래어린이공원","lat":37.371049,"lng":127.136006,"roadAddr":"경기도 성남시 분당구 서현2동 309","openHours":"상시","maleToilets":4,"femaleToilets":2,"disabled":true,"diaperTable":false,"emergencyBell":true,"cctv":false,"managerTel":"0317298092","source":"public","category":"public"},{"id":"202537800000100500","name":"율동공원(조형물광장)","lat":37.383356,"lng":127.150005,"roadAddr":"경기도 성남시 분당구 문정로 145 (율동)","openHours":"상시","maleToilets":9,"femaleToilets":5,"disabled":true,"diaperTable":false,"emergencyBell":true,"cctv":false,"managerTel":"0317294275","source":"public","category":"public"},{"id":"202537800000100623","name":"남경석유㈜분당스타self주유소","lat":37.383388,"lng":127.137962,"roadAddr":"경기도 성남시 분당구 분당구 새마을로 65 (서현동)","openHours":"06시-24시","maleToilets":3,"femaleToilets":2,"disabled":false,"diaperTable":false,"emergencyBell":false,"cctv":false,"managerTel":"0317048738","source":"public","category":"public"},{"id":"202537800000100191","name":"양영어린이공원","lat":37.373409,"lng":127.139342,"roadAddr":"경기도 성남시 분당구 서현2동 317-1","openHours":"상시","maleToilets":4,"femaleToilets":2,"disabled":true,"diaperTable":false,"emergencyBell":true,"cctv":false,"managerTel":"0317298092","source":"public","category":"public"},{"id":"202537800000100340","name":"분당서현청소년수련관","lat":37.372171,"lng":127.139877,"roadAddr":"경기도 성남시 분당구 불정로 386번길 38 (서현동)","openHours":"06시~22시","maleToilets":6,"femaleToilets":4,"disabled":true,"diaperTable":false,"emergencyBell":true,"cctv":false,"managerTel":"0317293195","source":"public","category":"public"},{"id":"202537800000100499","name":"율동공원(대형주차장)","lat":37.373452,"lng":127.148002,"roadAddr":"경기도 성남시 분당구 서현로 459 (분당동)","openHours":"상시","maleToilets":14,"femaleToilets":10,"disabled":true,"diaperTable":false,"emergencyBell":true,"cctv":false,"managerTel":"0317294275","source":"public","category":"public"},{"id":"202537800000100513","name":"태현공원(두앙노빌리티 앞)","lat":37.369456,"lng":127.143679,"roadAddr":"경기도 성남시 분당구 분당동 88번지","openHours":"상시","maleToilets":4,"femaleToilets":2,"disabled":true,"diaperTable":false,"emergencyBell":true,"cctv":false,"managerTel":"0317294275","source":"public","category":"public"},{"id":"202537800000100327","name":"분당도서관(책테마파크도서관)","lat":37.383356,"lng":127.150005,"roadAddr":"경기도 성남시 분당구 문정로 145 율동공원 내","openHours":"상시","maleToilets":0,"femaleToilets":0,"disabled":false,"diaperTable":false,"emergencyBell":true,"cctv":false,"managerTel":"0317293195","source":"public","category":"public"},{"id":"202537800000100504","name":"율동공원(석교 옆)","lat":37.37409,"lng":127.149104,"roadAddr":"경기도 성남시 분당구 분당동 29","openHours":"상시","maleToilets":6,"femaleToilets":6,"disabled":true,"diaperTable":false,"emergencyBell":true,"cctv":false,"managerTel":"0317294275","source":"public","category":"public"},{"id":"202537800000100194","name":"안말어린이공원","lat":37.372665,"lng":127.143089,"roadAddr":"경기도 성남시 분당구 분당동 194-3","openHours":"상시","maleToilets":4,"femaleToilets":2,"disabled":true,"diaperTable":false,"emergencyBell":true,"cctv":false,"managerTel":"0317298092","source":"public","category":"public"},{"id":"202537800000100083","name":"범한프라자","lat":37.371629,"lng":127.139444,"roadAddr":"경기도 성남시 분당구 불정로 376번길37(서현동)","openHours":"상시","maleToilets":4,"femaleToilets":2,"disabled":false,"diaperTable":false,"emergencyBell":true,"cctv":false,"managerTel":"0317293195","source":"public","category":"public"},{"id":"202537800000100445","name":"서현2동행정복지센터","lat":37.376053,"lng":127.134604,"roadAddr":"경기도 성남시 분당구 돌마로476번길 17 (서현동)","openHours":"09시~18시","maleToilets":2,"femaleToilets":1,"disabled":true,"diaperTable":false,"emergencyBell":true,"cctv":false,"managerTel":"0317293195","source":"public","category":"public"},{"id":"202537800000100117","name":"현대오일뱅크㈜서현셀프주유소","lat":37.36967,"lng":127.147721,"roadAddr":"경기도 성남시 분당구 서현로 488 (분당동)","openHours":"상시","maleToilets":2,"femaleToilets":1,"disabled":false,"diaperTable":false,"emergencyBell":true,"cctv":false,"managerTel":"0317293195","source":"public","category":"public"},{"id":"202537800000100565","name":"수원지방법원 분당등기소","lat":37.374066,"lng":127.138701,"roadAddr":"경기도 성남시 분당구 불정로406번길 21, 분당등기소 (서현동)","openHours":"09시~18시","maleToilets":4,"femaleToilets":2,"disabled":true,"diaperTable":false,"emergencyBell":false,"cctv":true,"managerTel":"0317293194","source":"public","category":"public"},{"id":"202537800000100505","name":"율동공원(피크닉장)","lat":37.373529,"lng":127.154052,"roadAddr":"경기도 성남시 분당구 분당동 22","openHours":"상시","maleToilets":5,"femaleToilets":3,"disabled":true,"diaperTable":false,"emergencyBell":true,"cctv":false,"managerTel":"0317294275","source":"public","category":"public"},{"id":"202537800000100437","name":"분당동행정복지센터","lat":37.370302,"lng":127.143333,"roadAddr":"경기도 성남시 분당구 장안로 37 (분당동)","openHours":"09시~18시","maleToilets":2,"femaleToilets":2,"disabled":true,"diaperTable":true,"emergencyBell":true,"cctv":false,"managerTel":"0317293195","source":"public","category":"public"},{"id":"202537800000100190","name":"수련어린이공원","lat":37.372458,"lng":127.140594,"roadAddr":"경기도 성남시 분당구 서현2동 314-1","openHours":"상시","maleToilets":4,"femaleToilets":2,"disabled":true,"diaperTable":false,"emergencyBell":true,"cctv":false,"managerTel":"0317298092","source":"public","category":"public"},{"id":"202537800000100501","name":"율동공원(착한매점)","lat":37.375602,"lng":127.147282,"roadAddr":"경기도 성남시 분당구 분당동 32-4","openHours":"상시","maleToilets":4,"femaleToilets":3,"disabled":true,"diaperTable":false,"emergencyBell":true,"cctv":false,"managerTel":"0317294275","source":"public","category":"public"},{"id":"202537800000100498","name":"율동공원(관리사무소)","lat":37.383356,"lng":127.150005,"roadAddr":"경기도 성남시 분당구 문정로 145 (율동)","openHours":"상시","maleToilets":6,"femaleToilets":4,"disabled":true,"diaperTable":false,"emergencyBell":true,"cctv":false,"managerTel":"0317294275","source":"public","category":"public"},{"id":"202537800000100592","name":"미래그린시장","lat":37.373414,"lng":127.138035,"roadAddr":"경기도 성남시 분당구 불정로386번길 10 (서현동)","openHours":"상시","maleToilets":6,"femaleToilets":3,"disabled":false,"diaperTable":false,"emergencyBell":false,"cctv":true,"managerTel":"0317048151","source":"public","category":"public"},{"id":"202537800000100593","name":"미래타운제2종합시장","lat":37.372255,"lng":127.138871,"roadAddr":"경기도 성남시 분당구 불정로376번길 31 (서현동)","openHours":"08시-23시","maleToilets":32,"femaleToilets":28,"disabled":true,"diaperTable":false,"emergencyBell":false,"cctv":false,"managerTel":"0317048151","source":"public","category":"public"},{"id":"202537800000100502","name":"율동공원(배드민턴장)","lat":37.376459,"lng":127.148191,"roadAddr":"경기도 성남시 분당구 율동 431","openHours":"상시","maleToilets":8,"femaleToilets":6,"disabled":true,"diaperTable":false,"emergencyBell":true,"cctv":false,"managerTel":"0317294275","source":"public","category":"public"},{"id":"202537800000100503","name":"율동공원(만남매점)","lat":37.381438,"lng":127.150859,"roadAddr":"경기도 성남시 분당구 율동 318","openHours":"상시","maleToilets":4,"femaleToilets":3,"disabled":true,"diaperTable":false,"emergencyBell":true,"cctv":false,"managerTel":"0317294275","source":"public","category":"public"},{"id":"202537800000100224","name":"양지어린이공원","lat":37.37523,"lng":127.144037,"roadAddr":"경기도 성남시 분당구 분당동 101","openHours":"상시","maleToilets":0,"femaleToilets":0,"disabled":false,"diaperTable":false,"emergencyBell":true,"cctv":false,"managerTel":"0317293195","source":"public","category":"public"},{"id":"202537800000100282","name":"점골공영주차장","lat":37.376946,"lng":127.139984,"roadAddr":"경기도 성남시 분당구 불정로 419 (서현동)","openHours":"상시","maleToilets":6,"femaleToilets":3,"disabled":false,"diaperTable":false,"emergencyBell":false,"cctv":false,"managerTel":"0317103828","source":"public","category":"public"},{"id":"202537800000100193","name":"장안어린이공원","lat":37.370712,"lng":127.141089,"roadAddr":"경기도 성남시 분당구 분당동 89","openHours":"상시","maleToilets":4,"femaleToilets":2,"disabled":true,"diaperTable":false,"emergencyBell":true,"cctv":false,"managerTel":"0317298092","source":"public","category":"public"},{"id":"202537800000100312","name":"분당정","lat":37.384067,"lng":127.154313,"roadAddr":"경기도 성남시 분당구 만세길 36","openHours":"09시~21시","maleToilets":4,"femaleToilets":2,"disabled":false,"diaperTable":false,"emergencyBell":false,"cctv":false,"managerTel":"0317279943","source":"public","category":"public"},{"id":"202537800000100189","name":"서당어린이공원","lat":37.375252,"lng":127.134529,"roadAddr":"경기도 성남시 분당구 서현2동 302-1","openHours":"상시","maleToilets":4,"femaleToilets":2,"disabled":true,"diaperTable":false,"emergencyBell":true,"cctv":false,"managerTel":"0317298092","source":"public","category":"public"},{"id":"202537800000100512","name":"태현공원(청구빌라 앞)","lat":37.369456,"lng":127.143679,"roadAddr":"경기도 성남시 분당구 분당동 88번지","openHours":"상시","maleToilets":5,"femaleToilets":2,"disabled":true,"diaperTable":false,"emergencyBell":true,"cctv":false,"managerTel":"0317294275","source":"public","category":"public"},{"id":"202555400000100655","name":"광주어린이체육센터 화장실","lat":37.374055,"lng":127.177686,"roadAddr":"경기도 광주시 문형산길 240","openHours":"09:30~18:30","maleToilets":4,"femaleToilets":4,"disabled":true,"diaperTable":true,"emergencyBell":true,"cctv":false,"managerTel":"0317197397","source":"public","category":"public"},{"id":"202555400000100409","name":"분당행복한요양원","lat":37.357118,"lng":127.169359,"roadAddr":"경기도 광주시 대명대길 38-6","openHours":"08:00~18:00","maleToilets":5,"femaleToilets":3,"disabled":false,"diaperTable":true,"emergencyBell":true,"cctv":true,"managerTel":"0317138330","source":"public","category":"public"},{"id":"202555400000100719","name":"HD현대오일뱅크㈜직영 분당현대셀프주유소","lat":37.35971,"lng":127.154484,"roadAddr":"경기도 광주시 태재로 47","openHours":"06:00~23:00","maleToilets":4,"femaleToilets":2,"disabled":false,"diaperTable":false,"emergencyBell":false,"cctv":true,"managerTel":"0317155189","source":"public","category":"public"},{"id":"202555400000100676","name":"신현(저)배수지 체육시설","lat":37.372176,"lng":127.166051,"roadAddr":"경기도 광주시 새말길152번길 43","openHours":"상시","maleToilets":0,"femaleToilets":1,"disabled":true,"diaperTable":true,"emergencyBell":true,"cctv":false,"managerTel":"0317601544","source":"public","category":"public"},{"id":"202555400000100718","name":"삼미상사㈜ 동부주유소","lat":37.359164,"lng":127.157431,"roadAddr":"경기도 광주시 태재로 75","openHours":"06:00~23:00","maleToilets":2,"femaleToilets":1,"disabled":false,"diaperTable":false,"emergencyBell":false,"cctv":false,"managerTel":"0317265181","source":"public","category":"public"},{"id":"202555400000100675","name":"능평배수지 체육시설 공중화장실","lat":37.358829,"lng":127.169386,"roadAddr":"경기도 광주시 오포읍 대명대길 45","openHours":"상시","maleToilets":0,"femaleToilets":1,"disabled":true,"diaperTable":true,"emergencyBell":true,"cctv":false,"managerTel":"0317604880","source":"public","category":"public"},{"id":"202555400000100446","name":"MK빌딩","lat":37.368205,"lng":127.163124,"roadAddr":"경기도 광주시 문형산길47번길 76","openHours":"06:00~21:00","maleToilets":4,"femaleToilets":2,"disabled":true,"diaperTable":false,"emergencyBell":false,"cctv":false,"managerTel":"0310000000","source":"public","category":"public"},{"id":"202555400000100426","name":"신현동행정복지센터","lat":37.359654,"lng":127.158844,"roadAddr":"경기도 광주시 신현로 109","openHours":"09:00~18:00","maleToilets":6,"femaleToilets":6,"disabled":false,"diaperTable":false,"emergencyBell":false,"cctv":false,"managerTel":"0317601544","source":"public","category":"public"},{"id":"202555400000100729","name":"한신주유소","lat":37.359935,"lng":127.156664,"roadAddr":"경기도 광주시 신현로 90","openHours":"06:00~23:00","maleToilets":4,"femaleToilets":2,"disabled":false,"diaperTable":false,"emergencyBell":false,"cctv":true,"managerTel":"0317185151","source":"public","category":"public"},{"id":"202555400000100443","name":"대진빌딩","lat":37.357556,"lng":127.161109,"roadAddr":"경기도 광주시 태재로 102","openHours":"상시","maleToilets":2,"femaleToilets":2,"disabled":false,"diaperTable":false,"emergencyBell":false,"cctv":true,"managerTel":"0310000000","source":"public","category":"public"}]