[{"id":"202540300000100037","name":"무민공원","lat":37.377282,"lng":127.00669,"roadAddr":"경기도 의왕시 의일로 65","openHours":"상시","maleToilets":10,"femaleToilets":9,"disabled":true,"diaperTable":false,"emergencyBell":true,"cctv":false,"managerTel":"0313452863","source":"public","category":"public"},{"id":"202540300000100038","name":"백운 맞이공원(롤러장)","lat":37.365688,"lng":127.003836,"roadAddr":"경기도 의왕시 백운안길 64(학의동)","jibunAddr":"경기도 의왕시 학의동 1012-1","openHours":"상시","maleToilets":1,"femaleToilets":1,"disabled":true,"diaperTable":true,"emergencyBell":true,"cctv":false,"managerTel":"0313452863","source":"public","category":"public"},{"id":"202540300000100072","name":"하늘빛공원","lat":37.375042,"lng":127.011385,"roadAddr":"경기도 의왕시 백운중앙로 139","openHours":"상시","maleToilets":2,"femaleToilets":1,"disabled":false,"diaperTable":false,"emergencyBell":true,"cctv":false,"managerTel":"0313452863","source":"public","category":"public"},{"id":"202540300000100122","name":"청계영업소","lat":37.393557,"lng":127.024961,"roadAddr":"경기도 의왕시 안양판교로 500","jibunAddr":"경기도 의왕시 청계동 154","openHours":"상시","maleToilets":6,"femaleToilets":6,"disabled":false,"diaperTable":false,"emergencyBell":false,"cctv":false,"managerTel":"0548112812","source":"public","category":"public"},{"id":"202540300000100024","name":"판교 현대주유소","lat":37.393873,"lng":127.019293,"roadAddr":"경기도 의왕시 안양판교로 448 (청계동)","jibunAddr":"경기도 의왕시 청계동 252번지 8호","openHours":"정시","maleToilets":5,"femaleToilets":2,"disabled":false,"diaperTable":false,"emergencyBell":false,"cctv":false,"managerTel":"0314235179","source":"public","category":"public"},{"id":"202540300000100120","name":"청계(판교)졸음쉼터","lat":37.393557,"lng":127.024961,"roadAddr":"경기도 의왕시 안양판교로 500","jibunAddr":"경기도 의왕시 청계동  154","openHours":"상시","maleToilets":3,"femaleToilets":2,"disabled":true,"diaperTable":false,"emergencyBell":true,"cctv":true,"managerTel":"0548112838","source":"public","category":"public"},{"id":"202540300000100013","name":"삼미주유소","lat":37.39263,"lng":127.011489,"roadAddr":"경기도 의왕시 안양판교로 377, 삼미오일뱅크 (청계동)","jibunAddr":"경기도 의왕시 청계동 536번지 삼미오일뱅크","openHours":"정시","maleToilets":4,"femaleToilets":2,"disabled":false,"diaperTable":false,"emergencyBell":false,"cctv":false,"managerTel":"0314260333","source":"public","category":"public"},{"id":"202540300000100022","name":"청계충전소","lat":37.394826,"lng":127.02125,"roadAddr":"경기도 의왕시 안양판교로 469, LG가스 (청계동)","jibunAddr":"경기도 의왕시 청계동 249번지 1호 LG가스","openHours":"정시","maleToilets":4,"femaleToilets":1,"disabled":false,"diaperTable":false,"emergencyBell":false,"cctv":false,"managerTel":"0314275801","source":"public","category":"public"},{"id":"202540300000100119","name":"백운커뮤니티센터","lat":37.370038,"lng":127.00758,"roadAddr":"경기도 의왕시 백운중앙로 74 (학의동)","openHours":"정시","maleToilets":22,"femaleToilets":20,"disabled":true,"diaperTable":false,"emergencyBell":true,"cctv":false,"managerTel":"03180458013","source":"public","category":"public"},{"id":"202540300000100045","name":"백운호수 제방","lat":37.383168,"lng":127.002285,"roadAddr":"경기도 의왕시 학현로 263 공중화장실 (학의동)","jibunAddr":"경기도 의왕시 학의동 477번지 9호 백운호수순환도로 공중화장실","openHours":"상시","maleToilets":4,"femaleToilets":4,"disabled":true,"diaperTable":false,"emergencyBell":true,"cctv":false,"managerTel":"0313452863","source":"public","category":"public"},{"id":"202540300000100023","name":"청운주유소","lat":37.394709,"lng":127.020588,"roadAddr":"경기도 의왕시 안양판교로 461, 청운주유소 (청계동)","jibunAddr":"경기도 의왕시 청계동 247번지 청운주유소","openHours":"정시","maleToilets":3,"femaleToilets":1,"disabled":false,"diaperTable":false,"emergencyBell":false,"cctv":false,"managerTel":"0314260128","source":"public","category":"public"},{"id":"202540300000100016","name":"원일충전소","lat":37.392099,"lng":127.011369,"roadAddr":"경기도 의왕시 안양판교로 372, 원일LPG충전소 (학의동)","jibunAddr":"경기도 의왕시 학의동 185번지 1호 원일LPG충전소","openHours":"정시","maleToilets":3,"femaleToilets":1,"disabled":false,"diaperTable":false,"emergencyBell":false,"cctv":false,"managerTel":"0314260105","source":"public","category":"public"},{"id":"202540300000100042","name":"백운 어울공원","lat":37.372932,"lng":127.007548,"roadAddr":"경기도 의왕시 백운호수로 92, 백운어울공원(학의동)","jibunAddr":"경기도 의왕시 학의동 1098","openHours":"상시","maleToilets":4,"femaleToilets":4,"disabled":true,"diaperTable":true,"emergencyBell":true,"cctv":false,"managerTel":"0313452863","source":"public","category":"public"},{"id":"202540300000100044","name":"백운호수 산책로","lat":37.3774,"lng":127.002351,"roadAddr":"경기도 의왕시 백운로 430(학의동)","jibunAddr":"경기도 의왕시 학의동 산 84-1","openHours":"상시","maleToilets":0,"femaleToilets":1,"disabled":true,"diaperTable":false,"emergencyBell":true,"cctv":false,"managerTel":"0313452863","source":"public","category":"public"}]