[{"id":"202238300000102061","name":"평화공원 공중화장실","lat":37.390027,"lng":126.94819,"jibunAddr":"경기도 안양시 동안구 비산동 1104-2","openHours":"00:00~24:00","maleToilets":5,"femaleToilets":5,"disabled":true,"diaperTable":true,"emergencyBell":true,"cctv":true,"managerTel":"03180455015","source":"public","category":"public"},{"id":"202238300000101831","name":"만안보건소 화장실","lat":37.385847,"lng":126.932944,"roadAddr":"경기도 안양시 만안구 문예로 48","jibunAddr":"경기도 안양시 만안구 안양동 532-1","openHours":"정시","maleToilets":4,"femaleToilets":2,"disabled":true,"diaperTable":false,"emergencyBell":false,"cctv":false,"managerTel":"03180453404","source":"public","category":"public"},{"id":"202238300000101857","name":"범계동 행정복지센터 화장실","lat":37.389762,"lng":126.952513,"roadAddr":"경기도 안양시 동안구 평촌대로217번길 63","openHours":"정시","maleToilets":2,"femaleToilets":2,"disabled":true,"diaperTable":false,"emergencyBell":true,"cctv":false,"managerTel":"03180454740","source":"public","category":"public"},{"id":"202238300000101961","name":"안양시청 공중화장실","lat":37.394298,"lng":126.956858,"roadAddr":"경기도 안양시 동안구 시민대로 235","jibunAddr":"경기도 안양시 동안구 관양동 1590","openHours":"00:00~24:00","maleToilets":129,"femaleToilets":60,"disabled":true,"diaperTable":true,"emergencyBell":true,"cctv":true,"managerTel":"03180452114","source":"public","category":"public"},{"id":"202338300000100007","name":"중앙프라자","lat":37.390906,"lng":126.953305,"roadAddr":"경기도 안양시 동안구 평촌대로223번길 42 (호계동)","jibunAddr":"경기도 안양시 동안구 호계동 1045-9","openHours":"상시","maleToilets":4,"femaleToilets":2,"disabled":false,"diaperTable":false,"emergencyBell":false,"cctv":false,"source":"public","category":"public"},{"id":"202438300000100008","name":"호계체육관","lat":37.380229,"lng":126.94691,"roadAddr":"경기도 안양시 동안구 귀인로80번길 52, 호계체육관 (호계동)","jibunAddr":"경기도 안양시 동안구 호계동 177 호계체육관","openHours":"정시","maleToilets":24,"femaleToilets":23,"disabled":true,"diaperTable":false,"emergencyBell":false,"cctv":false,"managerTel":"0313895394","source":"public","category":"public"},{"id":"202238300000101800","name":"달안어린이공원 공중화장실","lat":37.394628,"lng":126.951048,"jibunAddr":"경기도 안양시 동안구 비산동 1109-2","openHours":"00:00~24:00","maleToilets":4,"femaleToilets":3,"disabled":true,"diaperTable":false,"emergencyBell":true,"cctv":true,"managerTel":"03180455021","source":"public","category":"public"},{"id":"202238300000101928","name":"안양3동 행정복지센터 공중화장실","lat":37.396283,"lng":126.914745,"roadAddr":"경기도 안양시 만안구 양화로 28","jibunAddr":"경기도 안양시 만안구안양동 1195-33","openHours":"09:00-18:00","maleToilets":20,"femaleToilets":10,"disabled":true,"diaperTable":false,"emergencyBell":false,"cctv":false,"managerTel":"03180453620","source":"public","category":"public"},{"id":"202438300000100017","name":"백두프라자 개방화장실","lat":37.390329,"lng":126.954134,"roadAddr":"경기도 안양시 동안구 평촌대로217번길 27, 백두프라자 (호계동)","jibunAddr":"경기도 안양시 동안구 호계동 1049 백두프라자","openHours":"상시","maleToilets":5,"femaleToilets":2,"disabled":true,"diaperTable":false,"emergencyBell":false,"cctv":false,"source":"public","category":"public"},{"id":"202238300000101877","name":"브레인빌딩 개방화장실","lat":37.384423,"lng":126.934877,"roadAddr":"경기도 안양시 만안구 만안로 11(안양동)","openHours":"08:00~23:00","maleToilets":3,"femaleToilets":1,"disabled":true,"diaperTable":false,"emergencyBell":false,"cctv":true,"managerTel":"0314455060","source":"public","category":"public"},{"id":"202238300000101962","name":"안양아트센터","lat":37.384548,"lng":126.931326,"roadAddr":"경기도 안양시 만안구 문예로36번길 16","openHours":"08:00~22:00","maleToilets":47,"femaleToilets":53,"disabled":true,"diaperTable":true,"emergencyBell":true,"cctv":true,"managerTel":"0316870508","source":"public","category":"public"},{"id":"202238300000101960","name":"안양시의회 공중화장실","lat":37.393745,"lng":126.955453,"roadAddr":"경기도 안양시 동안구 시민대로 233 (관양동, 안양시의회)","jibunAddr":"경기도 안양시 동안구 관양동 1590","openHours":"06:30~22:00","maleToilets":27,"femaleToilets":10,"disabled":true,"diaperTable":true,"emergencyBell":false,"cctv":true,"managerTel":"03180452523","source":"public","category":"public"},{"id":"202238300000101774","name":"국립농산물품질관리원 경기지원","lat":37.38549,"lng":126.933119,"roadAddr":"경기도 안양시 만안구 안양로 114","openHours":"09:00~18:00","maleToilets":13,"femaleToilets":11,"disabled":true,"diaperTable":false,"emergencyBell":false,"cctv":false,"managerTel":"0314495292","source":"public","category":"public"},{"id":"202238300000102098","name":"흥국화재 안양사옥","lat":37.39132,"lng":126.952589,"roadAddr":"경기도 안양시 동안구 시민대로 194(호계동)","openHours":"상시","maleToilets":50,"femaleToilets":20,"disabled":false,"diaperTable":false,"emergencyBell":false,"cctv":false,"managerTel":"0313812763","source":"public","category":"public"},{"id":"202238300000101875","name":"부흥동 행정복지센터 공중화장실","lat":37.39375,"lng":126.947191,"roadAddr":"경기도 안양시 동안구 달안로 28","openHours":"정시","maleToilets":9,"femaleToilets":3,"disabled":true,"diaperTable":false,"emergencyBell":false,"cctv":true,"managerTel":"03180454630","source":"public","category":"public"},{"id":"202238300000102112","name":"11번가주유소 화장실","lat":37.385919,"lng":126.944819,"roadAddr":"경기도 안양시 동안구 시민대로 98, 11번자주유소 (호계동)","jibunAddr":"경기도 안양시 동안구 호계동 907-3","openHours":"상시","maleToilets":1,"femaleToilets":1,"disabled":false,"diaperTable":false,"emergencyBell":false,"cctv":false,"managerTel":"0314538876","source":"public","category":"public"},{"id":"202338300000100008","name":"현대프라자","lat":37.391363,"lng":126.954661,"roadAddr":"경기도 안양시 동안구 평촌대로223번길 16, 현대프라자 (호계동)","jibunAddr":"경기도 안양시 동안구 호계동 1044-5 현대프라자","openHours":"상시","maleToilets":5,"femaleToilets":3,"disabled":false,"diaperTable":false,"emergencyBell":false,"cctv":false,"source":"public","category":"public"},{"id":"202238300000101799","name":"달안동 행정복지센터 공중화장실","lat":37.396097,"lng":126.950177,"roadAddr":"경기도 안양시 동안구 달안로 65","jibunAddr":"경기도 안양시 동안구 비산동 1101-5","openHours":"09:00~18:00","maleToilets":7,"femaleToilets":5,"disabled":true,"diaperTable":false,"emergencyBell":false,"cctv":false,"managerTel":"03180454640","source":"public","category":"public"},{"id":"202238300000101931","name":"안양5동 행정복지센터공중화장실","lat":37.394298,"lng":126.920844,"roadAddr":"경기도 안양시 만안구 냉천로157번길 18","jibunAddr":"경기도 안양시 만안구 안양동 707-103","openHours":"09:00~20:00","maleToilets":1,"femaleToilets":0,"disabled":true,"diaperTable":true,"emergencyBell":false,"cctv":false,"managerTel":"03180453640","source":"public","category":"public"},{"id":"202238300000102068","name":"한국전력공사 안양지사","lat":37.383673,"lng":126.947051,"roadAddr":"경기도 안양시 동안구 귀인로 59(호계동, 한국전력공사)","jibunAddr":"경기도 안양시 동안구 호계동 921","openHours":"09:00~18:00","maleToilets":19,"femaleToilets":9,"disabled":false,"diaperTable":false,"emergencyBell":false,"cctv":false,"source":"public","category":"public"},{"id":"202438300000100003","name":"중앙시장 상인회관 공중화장실","lat":37.396485,"lng":126.919569,"roadAddr":"경기도 안양시 만안구 냉천로185번길 8 (안양동)","jibunAddr":"경기도 안양시 만안구 안양동 711-280","openHours":"상시","maleToilets":0,"femaleToilets":1,"disabled":true,"diaperTable":false,"emergencyBell":true,"cctv":true,"managerTel":"03180452563","source":"public","category":"public"},{"id":"202238300000101914","name":"수원교구 중앙성당","lat":37.396094,"lng":126.920889,"roadAddr":"경기도 안양시 만안구 장내로 116, 천주교수원교구중앙성당 (안양동)","jibunAddr":"경기도 안양시 만안구 안양동 627-75 천주교수원교구중앙성당","openHours":"05:00~22:00","maleToilets":3,"femaleToilets":3,"disabled":false,"diaperTable":false,"emergencyBell":false,"cctv":false,"source":"public","category":"public"},{"id":"202238300000102092","name":"호금교 공중화장실","lat":37.369236,"lng":126.948421,"jibunAddr":"경기도 안양시 동안구 호계동 1035","openHours":"상시","maleToilets":4,"femaleToilets":4,"disabled":true,"diaperTable":false,"emergencyBell":true,"cctv":true,"managerTel":"03180452187","source":"public","category":"public"},{"id":"202238300000101934","name":"안양7동 행정복지센터 공중화장실","lat":37.391465,"lng":126.933741,"roadAddr":"경기도 안양시 만안구 덕천로 115","jibunAddr":"경기도 안양시 만안구 안양동 1397","openHours":"09:00~18:00","maleToilets":12,"femaleToilets":13,"disabled":true,"diaperTable":false,"emergencyBell":false,"cctv":false,"managerTel":"03180453660","source":"public","category":"public"},{"id":"202338300000100004","name":"한솔센트럴파크1차 개방화장실","lat":37.39066,"lng":126.955501,"roadAddr":"경기도 안양시 동안구 평촌대로 217, 한솔센트럴파크 I 1층 (호계동)","jibunAddr":"경기도 안양시 동안구 호계동 1048-3 한솔센트럴파크 I","openHours":"상시","maleToilets":4,"femaleToilets":2,"disabled":true,"diaperTable":false,"emergencyBell":false,"cctv":false,"managerTel":"0313888101","source":"public","category":"public"},{"id":"202238300000101954","name":"안양세무서 공중화장실","lat":37.388666,"lng":126.925227,"roadAddr":"경기도 안양시 만안구 냉천로 83","jibunAddr":"경기도 안양시 만안구 안양동 582-4","openHours":"09:00~18:00","maleToilets":18,"femaleToilets":9,"disabled":true,"diaperTable":false,"emergencyBell":true,"cctv":false,"managerTel":"0314671200","source":"public","category":"public"},{"id":"202238300000101860","name":"범계어린이공원 공중화장실","lat":37.386634,"lng":126.951501,"jibunAddr":"경기도 안양시 동안구 호계동 1053-5","openHours":"00:00~24:00","maleToilets":3,"femaleToilets":2,"disabled":true,"diaperTable":true,"emergencyBell":true,"cctv":true,"managerTel":"03180455021","source":"public","category":"public"},{"id":"202238300000101987","name":"안양천 수질정화시설 공중화장실","lat":37.379818,"lng":126.940578,"jibunAddr":"경기도 안양시 동안구 호계동 166-1","openHours":"상시","maleToilets":2,"femaleToilets":1,"disabled":false,"diaperTable":false,"emergencyBell":true,"cctv":true,"managerTel":"03180452187","source":"public","category":"public"},{"id":"202238300000101803","name":"대명빌딩 개방화장실","lat":37.385188,"lng":126.950969,"roadAddr":"경기도 안양시 동안구 경수대로 711(호계동)","openHours":"00:00~24:00","maleToilets":2,"femaleToilets":1,"disabled":false,"diaperTable":false,"emergencyBell":false,"cctv":true,"source":"public","category":"public"},{"id":"202438300000100004","name":"남부시장 공중화장실","lat":37.395935,"lng":126.924953,"roadAddr":"경기도 안양시 만안구 장내로140번길 51 (안양동)","jibunAddr":"경기도 안양시 만안구 안양동 622-378","openHours":"상시","maleToilets":6,"femaleToilets":5,"disabled":true,"diaperTable":true,"emergencyBell":true,"cctv":true,"managerTel":"03180452563","source":"public","category":"public"},{"id":"202238300000101788","name":"남부시장 상인회관 개방화장실","lat":37.395935,"lng":126.924953,"roadAddr":"경기도 안양시 만안구 장내로140번길 51","openHours":"05:00~22:00","maleToilets":6,"femaleToilets":5,"disabled":true,"diaperTable":true,"emergencyBell":false,"cctv":true,"managerTel":"0314497400","source":"public","category":"public"},{"id":"202238300000102036","name":"청구랜드 개방화장실","lat":37.390445,"lng":126.953317,"roadAddr":"경기도 안양시 동안구 평촌대로223번길 43","openHours":"00:00~24:00","maleToilets":2,"femaleToilets":1,"disabled":false,"diaperTable":false,"emergencyBell":false,"cctv":true,"source":"public","category":"public"},{"id":"202238300000101917","name":"신기어린이공원 공중화장실","lat":37.382127,"lng":126.956896,"jibunAddr":"경기도 안양시 동안구 호계동 1056-1","openHours":"00:00~24:00","maleToilets":4,"femaleToilets":3,"disabled":true,"diaperTable":true,"emergencyBell":true,"cctv":true,"managerTel":"03180455021","source":"public","category":"public"},{"id":"202338300000100009","name":"에이스프라자","lat":37.391141,"lng":126.954021,"roadAddr":"경기도 안양시 동안구 평촌대로223번길 28 (호계동)","jibunAddr":"경기도 안양시 동안구 호계동 1044-1","openHours":"상시","maleToilets":6,"femaleToilets":3,"disabled":false,"diaperTable":false,"emergencyBell":false,"cctv":false,"source":"public","category":"public"},{"id":"202238300000101791","name":"냉천어린이공원 공중화장실","lat":37.39525,"lng":126.922049,"roadAddr":"경기도 안양시 만안구 안양로 263번길 31","jibunAddr":"경기도 안양시 만안구 안양동 627-311","openHours":"00:00~24:00","maleToilets":5,"femaleToilets":3,"disabled":true,"diaperTable":false,"emergencyBell":true,"cctv":false,"managerTel":"03180455286","source":"public","category":"public"},{"id":"202238300000102102","name":"안양4동노외","lat":37.397278,"lng":126.918538,"roadAddr":"만안구 냉천로 203번길 15(중앙시장 5문 입구)","jibunAddr":"만안구 안양동 711-23","openHours":"00:00~00:00","maleToilets":4,"femaleToilets":2,"disabled":false,"diaperTable":false,"emergencyBell":false,"cctv":false,"managerTel":"0313895326","source":"public","category":"public"},{"id":"202438300000100019","name":"삼덕도서관 화장실","lat":37.396372,"lng":126.915395,"roadAddr":"경기도 안양시 만안구 병목안로 58, 안양시립삼덕도서관 (안양동)","jibunAddr":"경기도 안양시 만안구 안양동 782-30 안양시립삼덕도서관","openHours":"정시","maleToilets":15,"femaleToilets":14,"disabled":true,"diaperTable":true,"emergencyBell":true,"cctv":false,"managerTel":"03180456350","source":"public","category":"public"},{"id":"202238300000101790","name":"내안애팰리스빌딩 개방화장실","lat":37.3666,"lng":126.956992,"roadAddr":"경기도 안양시 동안구 흥안대로94번길 68(호계동)","openHours":"08:00~22:00","maleToilets":5,"femaleToilets":4,"disabled":true,"diaperTable":true,"emergencyBell":false,"cctv":true,"managerTel":"0314550461","source":"public","category":"public"},{"id":"202238300000102065","name":"학운공원 공중화장실(2)","lat":37.397286,"lng":126.944385,"jibunAddr":"경기도 안양시 동안구 비산동 1099","openHours":"00:00~24:00","maleToilets":3,"femaleToilets":3,"disabled":true,"diaperTable":true,"emergencyBell":true,"cctv":true,"managerTel":"03180455015","source":"public","category":"public"},{"id":"202238300000101924","name":"쌍개울 공중화장실","lat":37.395097,"lng":126.937641,"roadAddr":"경기도 안양시 동안구 경수대로883번길 13","jibunAddr":"경기도 안양시 동안구 비산동 593","openHours":"상시","maleToilets":3,"femaleToilets":2,"disabled":true,"diaperTable":false,"emergencyBell":true,"cctv":true,"managerTel":"03180452187","source":"public","category":"public"},{"id":"202238300000101932","name":"안양6동 행정복지센터 공중화장실","lat":37.390068,"lng":126.93058,"roadAddr":"경기도 안양시 만안구 안양로170번길 23","jibunAddr":"경기도 안양시 만안구 안양동 437-4","openHours":"09:00~18:00","maleToilets":7,"femaleToilets":4,"disabled":true,"diaperTable":true,"emergencyBell":false,"cctv":false,"managerTel":"03180453650","source":"public","category":"public"},{"id":"202238300000102050","name":"평촌도서관 화장실","lat":37.396058,"lng":126.957803,"roadAddr":"경기도 안양시 동안구 관평로 213 (관양동, 안양시립평촌도서관)","openHours":"09:00~18:00","maleToilets":24,"femaleToilets":13,"disabled":true,"diaperTable":false,"emergencyBell":false,"cctv":false,"managerTel":"03180456215","source":"public","category":"public"},{"id":"202238300000101944","name":"안양동안경찰서","lat":37.391209,"lng":126.948866,"roadAddr":"경기도 안양시 동안구 동안로159번길 43","openHours":"09:00~18:00","maleToilets":37,"femaleToilets":11,"disabled":true,"diaperTable":false,"emergencyBell":false,"cctv":false,"managerTel":"0314787336","source":"public","category":"public"},{"id":"202238300000101958","name":"안양시보훈회관","lat":37.39173,"lng":126.950252,"roadAddr":"경기도 안양시 동안구 동안로 149","openHours":"09:00~18:00","maleToilets":16,"femaleToilets":6,"disabled":true,"diaperTable":false,"emergencyBell":true,"cctv":true,"managerTel":"0313829953","source":"public","category":"public"},{"id":"202238300000101938","name":"안양건설타워빌딩 개방화장실","lat":37.39177,"lng":126.951742,"roadAddr":"경기도 안양시 동안구 시민대로 187(비산동)","openHours":"00:00~24:00","maleToilets":5,"femaleToilets":3,"disabled":true,"diaperTable":false,"emergencyBell":false,"cctv":true,"managerTel":"0313859040","source":"public","category":"public"},{"id":"202238300000101884","name":"삼덕공원 공중화장실","lat":37.397385,"lng":126.916401,"roadAddr":"경기도 안양시 만안구 삼덕로 106","jibunAddr":"경기도 안양시 만안구 안양동 782-19","openHours":"00:00~24:00","maleToilets":8,"femaleToilets":9,"disabled":true,"diaperTable":true,"emergencyBell":true,"cctv":true,"managerTel":"03180455285","source":"public","category":"public"},{"id":"202438300000100001","name":"만안청소년수련관","lat":37.383272,"lng":126.926449,"roadAddr":"경기도 안양시 만안구 냉천로31번길 33, 만안청소년수련관 (안양동)","jibunAddr":"경기도 안양시 만안구 안양동 462-5 만안청소년수련관","openHours":"정시","maleToilets":36,"femaleToilets":43,"disabled":true,"diaperTable":false,"emergencyBell":false,"cctv":false,"managerTel":"0314704700","source":"public","category":"public"},{"id":"202238300000101830","name":"만안도서관 화장실","lat":37.386194,"lng":126.926223,"roadAddr":"경기도 안양시 만안구 냉천로 51 (안양동, 안양시립만안도서관)","openHours":"09:00~18:00","maleToilets":30,"femaleToilets":12,"disabled":false,"diaperTable":false,"emergencyBell":false,"cctv":false,"managerTel":"03180456115","source":"public","category":"public"},{"id":"202238300000101765","name":"관악어린이공원 공중화장실","lat":37.394984,"lng":126.945633,"jibunAddr":"경기도 안양시 동안구 비산동 1102-6","openHours":"00:00~24:00","maleToilets":4,"femaleToilets":2,"disabled":true,"diaperTable":false,"emergencyBell":true,"cctv":true,"managerTel":"03180455021","source":"public","category":"public"},{"id":"202238300000101829","name":"만안노인복지회관 화장실","lat":37.393704,"lng":126.921481,"roadAddr":"경기도 안양시 만안구 냉천로153번길 15","openHours":"09:00~18:00","maleToilets":16,"femaleToilets":10,"disabled":false,"diaperTable":false,"emergencyBell":false,"cctv":false,"managerTel":"03180456076","source":"public","category":"public"},{"id":"202238300000102087","name":"호계공원 배드민턴장 공중화장실","lat":37.378455,"lng":126.945394,"roadAddr":"경기도 안양시 동안구 엘에스로144번길 86","jibunAddr":"경기도 안양시 동안구 호계동 172-7","openHours":"00:00~24:00","maleToilets":6,"femaleToilets":2,"disabled":false,"diaperTable":false,"emergencyBell":true,"cctv":true,"managerTel":"03180455015","source":"public","category":"public"},{"id":"202338300000100006","name":"제일빌딩","lat":37.390521,"lng":126.952254,"roadAddr":"경기도 안양시 동안구 평촌대로223번길 64, 제일빌딩 (호계동)","jibunAddr":"경기도 안양시 동안구 호계동 1045-2 제일빌딩","openHours":"상시","maleToilets":5,"femaleToilets":2,"disabled":false,"diaperTable":false,"emergencyBell":false,"cctv":false,"source":"public","category":"public"},{"id":"202238300000101812","name":"동안구청 공중화장실(1~5층)","lat":37.392512,"lng":126.951211,"roadAddr":"경기도 안양시 동안구 동안로 158","jibunAddr":"경기도 안양시 비산동 1111","openHours":"06:00~24:00","maleToilets":60,"femaleToilets":28,"disabled":true,"diaperTable":true,"emergencyBell":false,"cctv":false,"managerTel":"03180454277","source":"public","category":"public"},{"id":"202238300000101858","name":"범계빌딩 개방화장실","lat":37.39007,"lng":126.952219,"roadAddr":"경기도 안양시 동안구 평촌대로223번길 65, 범계빌딩 (호계동)","jibunAddr":"경기도 안양시 동안구 호계동 1046-1 범계빌딩","openHours":"24시간","maleToilets":5,"femaleToilets":2,"disabled":false,"diaperTable":false,"emergencyBell":false,"cctv":false,"source":"public","category":"public"},{"id":"202238300000101861","name":"범계역(4호선) 공중화장실","lat":37.389734,"lng":126.950984,"roadAddr":"경기도 안양시 동안구 동안로 130 지하","openHours":"00:00~00:00","maleToilets":9,"femaleToilets":21,"disabled":false,"diaperTable":false,"emergencyBell":false,"cctv":false,"managerTel":"0313847788","source":"public","category":"public"},{"id":"202238300000101933","name":"안양7동 복지회관(2층)","lat":37.389699,"lng":126.935017,"roadAddr":"경기도 안양시 만안구 덕천로 94-9 (안양동, 안양7동복지회관)","jibunAddr":"경기도 안양시 만안구 안양동 194-55","openHours":"09:00~18:00","maleToilets":2,"femaleToilets":1,"disabled":false,"diaperTable":false,"emergencyBell":false,"cctv":false,"managerTel":"03180453660","source":"public","category":"public"},{"id":"202238300000101930","name":"안양4동행정복지센터공중화장실","lat":37.396546,"lng":126.917876,"roadAddr":"경기도 안양시 만안구 냉천로193번길 34","jibunAddr":"경기도 안양시 만안구 안양동711-399","openHours":"정시","maleToilets":6,"femaleToilets":2,"disabled":true,"diaperTable":true,"emergencyBell":false,"cctv":true,"managerTel":"03180453630","source":"public","category":"public"},{"id":"202238300000101839","name":"명학역(1호선) 공중화장실","lat":37.385217,"lng":126.935266,"roadAddr":"경기도 안양시 만안구 만안로 20","jibunAddr":"경기도 안양시 만안구 안양동 1163-1","openHours":"04:30~24:20","maleToilets":4,"femaleToilets":4,"disabled":true,"diaperTable":true,"emergencyBell":true,"cctv":true,"managerTel":"0314477788","source":"public","category":"public"},{"id":"202238300000101801","name":"대건빌딩 개방화장실","lat":37.39089,"lng":126.954651,"roadAddr":"경기도 안양시 동안구 평촌대로223번길 19, 대건상가 (호계동)","jibunAddr":"경기도 안양시 동안구 호계동 1047-4 대건상가","openHours":"24시간","maleToilets":5,"femaleToilets":3,"disabled":false,"diaperTable":false,"emergencyBell":false,"cctv":false,"source":"public","category":"public"},{"id":"202238300000102004","name":"옥지압마당(현충탑) 공중화장실","lat":37.389008,"lng":126.922053,"jibunAddr":"경기도 안양시 만안구 안양동 산103-174","openHours":"상시","maleToilets":1,"femaleToilets":1,"disabled":false,"diaperTable":false,"emergencyBell":false,"cctv":false,"managerTel":"03180453511","source":"public","category":"public"},{"id":"202238300000101922","name":"신촌어린이공원 공중화장실","lat":37.381207,"lng":126.954481,"jibunAddr":"경기도 안양시 동안구 호계동 1055-2","openHours":"00:00~24:00","maleToilets":3,"femaleToilets":2,"disabled":true,"diaperTable":true,"emergencyBell":true,"cctv":true,"managerTel":"03180455021","source":"public","category":"public"},{"id":"202238300000102005","name":"올림픽스포츠센터 개방화장실","lat":37.389559,"lng":126.952249,"roadAddr":"경기도 안양시 동안구 동안로 120(호계동)","openHours":"06:00~22:30","maleToilets":6,"femaleToilets":3,"disabled":true,"diaperTable":true,"emergencyBell":true,"cctv":true,"managerTel":"0313813140","source":"public","category":"public"},{"id":"202238300000101935","name":"안양8동 행정복지센터 공중화장실","lat":37.384194,"lng":126.932138,"roadAddr":"경기도 안양시 만안구  안양로111번길 17","jibunAddr":"경기도 안양시 만안구 안양동 572-1","openHours":"09:00~18:00","maleToilets":9,"femaleToilets":14,"disabled":true,"diaperTable":true,"emergencyBell":true,"cctv":false,"managerTel":"03180453673","source":"public","category":"public"},{"id":"202238300000101821","name":"동영벤처스텔3차 개방화장실","lat":37.385257,"lng":126.935739,"roadAddr":"경기도 안양시 만안구 덕천로 45(안양동)","openHours":"00:00~24:00","maleToilets":5,"femaleToilets":3,"disabled":false,"diaperTable":false,"emergencyBell":false,"cctv":true,"managerTel":"0314683171","source":"public","category":"public"},{"id":"202238300000101838","name":"명학시장 상가건물","lat":37.390585,"lng":126.930227,"roadAddr":"경기도 안양시 만안구 수리산로47번길 38 (안양동, 명학시장 아파트)","jibunAddr":"경기도 안양시 만안구 안양동 434-3 명학시장 아파트","openHours":"08:00~21:00","maleToilets":5,"femaleToilets":4,"disabled":false,"diaperTable":false,"emergencyBell":true,"cctv":false,"source":"public","category":"public"},{"id":"202238300000102085","name":"호계공원 게이트볼장 공중화장실","lat":37.379912,"lng":126.950947,"roadAddr":"경기도 안양시 동안구 경수대로665번길 74-30","jibunAddr":"경기도 안양시 동안구 호계동 314-3","openHours":"00:00~24:00","maleToilets":5,"femaleToilets":2,"disabled":true,"diaperTable":false,"emergencyBell":true,"cctv":true,"managerTel":"03180455015","source":"public","category":"public"},{"id":"202238300000102047","name":"평촌공원 공중화장실","lat":37.394515,"lng":126.954728,"roadAddr":"경기도 안양시 동안구 평촌대로 256","jibunAddr":"경기도 안양시 동안구 관양동 1589-2","openHours":"00:00~24:00","maleToilets":7,"femaleToilets":3,"disabled":true,"diaperTable":false,"emergencyBell":true,"cctv":true,"managerTel":"03180455015","source":"public","category":"public"},{"id":"202238300000101840","name":"목련어린이공원 공중화장실","lat":37.387475,"lng":126.954678,"jibunAddr":"경기도 안양시 동안구 호계동 1052-2","openHours":"00:00~24:00","maleToilets":4,"femaleToilets":2,"disabled":true,"diaperTable":true,"emergencyBell":true,"cctv":true,"managerTel":"03180455021","source":"public","category":"public"},{"id":"202238300000102048","name":"평촌공원 사무실 공중화장실","lat":37.394515,"lng":126.954728,"roadAddr":"경기도 안양시 동안구 평촌대로 256","jibunAddr":"경기도 안양시 동안구 관양동 1589-2","openHours":"00:00~24:00","maleToilets":0,"femaleToilets":2,"disabled":false,"diaperTable":false,"emergencyBell":true,"cctv":true,"managerTel":"03180455015","source":"public","category":"public"},{"id":"202238300000101797","name":"늘푸른어린이공원 공중화장실","lat":37.387364,"lng":126.932907,"roadAddr":"경기도 안양시 만안구 수리산로48번길 43(안양동)","jibunAddr":"경기도 안양시 만안구 안양동 528","openHours":"00:00~24:00","maleToilets":3,"femaleToilets":2,"disabled":true,"diaperTable":true,"emergencyBell":true,"cctv":false,"managerTel":"03180455286","source":"public","category":"public"},{"id":"202238300000102088","name":"호계공원 테니스장 공중화장실","lat":37.378496,"lng":126.948591,"roadAddr":"경기도 안양시 동안구 귀인로80번길 128","jibunAddr":"경기도 안양시 동안구 호계동 335-112","openHours":"00:00~24:00","maleToilets":6,"femaleToilets":3,"disabled":false,"diaperTable":false,"emergencyBell":true,"cctv":true,"managerTel":"03180455015","source":"public","category":"public"},{"id":"202238300000101832","name":"만안평생교육센터 화장실","lat":37.384941,"lng":126.927004,"roadAddr":"경기도 안양시 만안구 냉천로 39","openHours":"09:00~18:00","maleToilets":24,"femaleToilets":19,"disabled":false,"diaperTable":false,"emergencyBell":true,"cctv":false,"managerTel":"03180456063","source":"public","category":"public"},{"id":"202438300000100023","name":"카페수다벅스 개방화장실","lat":37.380769,"lng":126.934921,"roadAddr":"경기도 안양시 만안구 명학로 56, 카페수다벅스 (안양동)","jibunAddr":"경기도 안양시 만안구 안양동 356","openHours":"정시","maleToilets":0,"femaleToilets":0,"disabled":true,"diaperTable":false,"emergencyBell":false,"cctv":false,"source":"public","category":"public"},{"id":"202238300000102026","name":"중앙시장 곱창골목 개방화장실","lat":37.397079,"lng":126.9211,"roadAddr":"경기도 안양시 만안구 장내로119번길 6 (안양동)","jibunAddr":"경기도 안양시 만안구 안양동 676-230","openHours":"상시","maleToilets":5,"femaleToilets":4,"disabled":false,"diaperTable":false,"emergencyBell":true,"cctv":false,"managerTel":"0314479961","source":"public","category":"public"},{"id":"202238300000102083","name":"호계2동 행정복지센터 화장실","lat":37.386432,"lng":126.945298,"roadAddr":"경기도 안양시 동안구 시민대로110번길 6, 2층","jibunAddr":"경기도 안양시 동안구 호계동 907-11","openHours":"09:00~18:00","maleToilets":4,"femaleToilets":2,"disabled":false,"diaperTable":false,"emergencyBell":false,"cctv":true,"managerTel":"03180454720","source":"public","category":"public"},{"id":"202238300000101994","name":"어린이도서관 화장실","lat":37.384982,"lng":126.954594,"roadAddr":"경기도 안양시 동안구 동안로 66 (호계동, 안양어린이도서관)","openHours":"10:00~19:00","maleToilets":10,"femaleToilets":7,"disabled":true,"diaperTable":true,"emergencyBell":false,"cctv":false,"managerTel":"03180456271","source":"public","category":"public"},{"id":"202238300000101828","name":"만안구청 청사내 공중화장실","lat":37.386643,"lng":126.932407,"roadAddr":"경기도 안양시 만안구 안양로 128","jibunAddr":"경기도 안양시 만안구 안양동 530","openHours":"정시","maleToilets":36,"femaleToilets":20,"disabled":true,"diaperTable":true,"emergencyBell":true,"cctv":true,"managerTel":"03180453178","source":"public","category":"public"},{"id":"202338300000100005","name":"안양만안경찰서","lat":37.387334,"lng":126.925974,"roadAddr":"경기도 안양시 만안구 냉천로 63, 안양만안경찰서 (안양동)","jibunAddr":"경기도 안양시 만안구 안양동 578-8 안양만안경찰서","openHours":"09:00~18:00","maleToilets":5,"femaleToilets":6,"disabled":true,"diaperTable":true,"emergencyBell":false,"cctv":false,"source":"public","category":"public"},{"id":"202238300000101819","name":"동안평생교육센터 화장실","lat":37.39173,"lng":126.950252,"roadAddr":"경기도 안양시 동안구 동안로 149","openHours":"09:00~18:00","maleToilets":18,"femaleToilets":18,"disabled":false,"diaperTable":false,"emergencyBell":false,"cctv":false,"managerTel":"03180456044","source":"public","category":"public"},{"id":"202338300000100011","name":"안양4동 복지회관 공중화장실","lat":37.396323,"lng":126.918038,"roadAddr":"경기도 안양시 만안구 냉천로193번길 31 (안양동)","jibunAddr":"경기도 안양시 만안구 안양동 711-266","openHours":"정시","maleToilets":2,"femaleToilets":2,"disabled":true,"diaperTable":false,"emergencyBell":false,"cctv":true,"managerTel":"03180453630","source":"public","category":"public"},{"id":"202238300000102089","name":"호계도서관 화장실","lat":37.383058,"lng":126.950531,"roadAddr":"경기도 안양시 동안구 경수대로685번길 26 (호계동, 안양시립호계도서관)","openHours":"09:00~18:00","maleToilets":18,"femaleToilets":10,"disabled":true,"diaperTable":false,"emergencyBell":false,"cctv":false,"managerTel":"03180456253","source":"public","category":"public"},{"id":"202238300000101813","name":"동안노인복지회관 화장실","lat":37.391465,"lng":126.949627,"roadAddr":"경기도 안양시 동안구 동안로 151","openHours":"09:00~18:00","maleToilets":15,"femaleToilets":12,"disabled":true,"diaperTable":false,"emergencyBell":false,"cctv":false,"managerTel":"03180456044","source":"public","category":"public"},{"id":"202238300000101921","name":"신촌동 행정복지센터 화장실","lat":37.381805,"lng":126.956317,"roadAddr":"경기도 안양시 동안구 동안로 28","jibunAddr":"경기도 안양시 동안구 호계동 1056-2","openHours":"정시","maleToilets":11,"femaleToilets":10,"disabled":true,"diaperTable":true,"emergencyBell":true,"cctv":false,"managerTel":"03180454752","source":"public","category":"public"},{"id":"202238300000101836","name":"명학공원 공중화장실","lat":37.383846,"lng":126.932724,"jibunAddr":"경기도 안양시 만안구 안양동 572","openHours":"00:00~24:00","maleToilets":4,"femaleToilets":4,"disabled":true,"diaperTable":true,"emergencyBell":true,"cctv":false,"managerTel":"03180455285","source":"public","category":"public"},{"id":"202338300000100010","name":"에이스 하이테크시티 범계","lat":37.387249,"lng":126.943486,"roadAddr":"경기도 안양시 동안구 시민대로109번길 29, 에이스하이테크시티 범계 (호계동)","jibunAddr":"경기도 안양시 동안구 호계동 900 에이스하이테크시티 범계","openHours":"정시","maleToilets":3,"femaleToilets":3,"disabled":true,"diaperTable":false,"emergencyBell":false,"cctv":false,"source":"public","category":"public"},{"id":"202238300000101991","name":"애향소공원 공중화장실","lat":37.39461,"lng":126.93737,"roadAddr":"경기도 안양시 만안구 안양천서로 190","jibunAddr":"경기도 안양시 만안구 안양동 250","openHours":"상시","maleToilets":3,"femaleToilets":2,"disabled":false,"diaperTable":false,"emergencyBell":true,"cctv":true,"managerTel":"03180453511","source":"public","category":"public"},{"id":"202238300000101798","name":"다운타운빌딩 개방화장실","lat":37.391933,"lng":126.954813,"roadAddr":"경기도 안양시 동안구 시민대로 214(호계동)","openHours":"00:00~24:00","maleToilets":5,"femaleToilets":2,"disabled":true,"diaperTable":false,"emergencyBell":true,"cctv":true,"managerTel":"0314761336","source":"public","category":"public"},{"id":"202238300000101942","name":"안양노동복지회관","lat":37.377003,"lng":126.940073,"roadAddr":"경기도 안양시 만안구 안양로 3(안양동, 안양노동복지회관)","openHours":"00:00~00:00","maleToilets":10,"femaleToilets":4,"disabled":false,"diaperTable":false,"emergencyBell":false,"cctv":false,"managerTel":"0262770000","source":"public","category":"public"},{"id":"202238300000101785","name":"꿈자람어린이공원 공중화장실","lat":37.385394,"lng":126.955241,"jibunAddr":"경기도 안양시 동안구 호계동 1054-4","openHours":"00:00~24:00","maleToilets":4,"femaleToilets":2,"disabled":true,"diaperTable":false,"emergencyBell":true,"cctv":true,"managerTel":"03180455021","source":"public","category":"public"},{"id":"202238300000102099","name":"희성어린이공원화장실","lat":37.397354,"lng":126.949505,"jibunAddr":"경기도 안양시 달안동 1101-3","openHours":"00:00~24:00","maleToilets":4,"femaleToilets":2,"disabled":true,"diaperTable":false,"emergencyBell":true,"cctv":true,"managerTel":"03180455021","source":"public","category":"public"},{"id":"202238300000102063","name":"푸르미어린이공원 공중화장실","lat":37.388584,"lng":126.923721,"jibunAddr":"경기도 안양시 만안구  안양동 1419","openHours":"00:00~24:00","maleToilets":3,"femaleToilets":3,"disabled":true,"diaperTable":true,"emergencyBell":true,"cctv":true,"managerTel":"03180455286","source":"public","category":"public"},{"id":"202238300000101965","name":"안양우체국","lat":37.39323,"lng":126.952671,"roadAddr":"경기도 안양시 동안구 평촌대로253번길 25","jibunAddr":"경기도 안양시 동안구 비산동 1110","openHours":"09:00~18:00","maleToilets":25,"femaleToilets":9,"disabled":true,"diaperTable":false,"emergencyBell":false,"cctv":false,"managerTel":"0313909788","source":"public","category":"public"},{"id":"202238300000101827","name":"마하주유소 개방화장실","lat":37.379715,"lng":126.938793,"roadAddr":"경기도 안양시 만안구 엘에스로 237(안양동)","openHours":"00:00~24:00","maleToilets":3,"femaleToilets":1,"disabled":false,"diaperTable":false,"emergencyBell":true,"cctv":false,"managerTel":"0314445175","source":"public","category":"public"},{"id":"202238300000102029","name":"중앙시장 상인회관 개방화장실","lat":37.396485,"lng":126.919569,"roadAddr":"경기도 안양시 만안구 냉천로185번길 8(안양동)","openHours":"00:00~24:00","maleToilets":3,"femaleToilets":2,"disabled":true,"diaperTable":true,"emergencyBell":true,"cctv":true,"managerTel":"0314479961","source":"public","category":"public"},{"id":"202238300000101815","name":"동안빌딩 개방화장실","lat":37.390621,"lng":126.953894,"roadAddr":"경기도 안양시 동안구 평촌대로223번길 31","openHours":"00:00~24:00","maleToilets":5,"femaleToilets":3,"disabled":false,"diaperTable":false,"emergencyBell":false,"cctv":true,"managerTel":"0313878403","source":"public","category":"public"},{"id":"202238300000102086","name":"호계공원 매봉광장 옆 공중화장실","lat":37.378496,"lng":126.948591,"roadAddr":"경기도 안양시 동안구 귀인로80번길 128","jibunAddr":"경기도 안양시 동안구 호계동 335-112","openHours":"00:00~24:00","maleToilets":8,"femaleToilets":4,"disabled":true,"diaperTable":false,"emergencyBell":true,"cctv":true,"managerTel":"03180455015","source":"public","category":"public"},{"id":"202238300000101814","name":"동안보건소 화장실","lat":37.392973,"lng":126.952072,"roadAddr":"경기도 안양시 동안구 평촌대로253번길 41","jibunAddr":"경기도 안양시 동안구 비산동 1111","openHours":"정시","maleToilets":16,"femaleToilets":12,"disabled":true,"diaperTable":false,"emergencyBell":true,"cctv":false,"managerTel":"03180454472","source":"public","category":"public"},{"id":"202238300000101899","name":"서안양우체국","lat":37.39379,"lng":126.925049,"roadAddr":"경기도 안양시 만안구 안양로 233","jibunAddr":"경기도 안양시 만안구 안양동 445-13","openHours":"09:00~18:00","maleToilets":3,"femaleToilets":2,"disabled":true,"diaperTable":false,"emergencyBell":false,"cctv":true,"managerTel":"0314452005","source":"public","category":"public"},{"id":"202238300000102031","name":"지방노동청 안양지청(1~4층)","lat":37.387392,"lng":126.939002,"roadAddr":"경기도 안양시 만안구 전파로44번길 73(안양동, 중부지방고용노동청 안양지청)","jibunAddr":"경기도 안양시 만안구 안양동 199-35","openHours":"09:00~18:00","maleToilets":16,"femaleToilets":8,"disabled":true,"diaperTable":false,"emergencyBell":false,"cctv":false,"managerTel":"0314637303","source":"public","category":"public"},{"id":"202338300000100003","name":"아이에스비즈타워 개방화장실","lat":37.392656,"lng":126.938222,"roadAddr":"경기도 안양시 만안구 덕천로152번길 25, 안양아이에스BIZ타워센트럴 (안양동)","jibunAddr":"경기도 안양시 만안구 안양동 1432 안양아이에스BIZ타워센트럴","openHours":"상시","maleToilets":9,"femaleToilets":10,"disabled":true,"diaperTable":false,"emergencyBell":false,"cctv":false,"managerTel":"0314205003","source":"public","category":"public"},{"id":"202238300000101817","name":"동안청소년수련관","lat":37.39173,"lng":126.950252,"roadAddr":"경기도 안양시 동안구 동안로 149","openHours":"09:00~22:00","maleToilets":23,"femaleToilets":26,"disabled":true,"diaperTable":false,"emergencyBell":false,"cctv":true,"managerTel":"03180454900","source":"public","category":"public"}]