[{"id":"202430200000100017","name":"늘푸른 어린이공원","lat":37.534904,"lng":126.956556,"roadAddr":"서울특별시 용산구 원효로41가길 14-19 (원효로3가, 공중화장실)","openHours":"상시","maleToilets":4,"femaleToilets":2,"disabled":false,"diaperTable":true,"emergencyBell":true,"cctv":false,"managerTel":"0221997605","source":"public","category":"public"},{"id":"202430200000100057","name":"에이치디현대오일뱅크㈜ \n직영강변현대주유소","lat":37.534828,"lng":126.945783,"roadAddr":"서울특별시 용산구원효로 9","openHours":"상시","maleToilets":2,"femaleToilets":1,"disabled":false,"diaperTable":false,"emergencyBell":false,"cctv":false,"source":"public","category":"public"},{"id":"202430200000100031","name":"용문동 주민센터","lat":37.538956,"lng":126.957585,"roadAddr":"서울특별시 용산구 새창로12길 13","openHours":"정시","maleToilets":13,"femaleToilets":7,"disabled":false,"diaperTable":false,"emergencyBell":true,"cctv":false,"managerTel":"0221998540","source":"public","category":"public"},{"id":"202430200000100101","name":"용산문화원","lat":37.53345,"lng":126.952193,"roadAddr":"서울특별시 용산구 효창원로8길 28 (원효로4가)","openHours":"정시","maleToilets":3,"femaleToilets":2,"disabled":false,"diaperTable":false,"emergencyBell":false,"cctv":false,"managerTel":"21997240","source":"public","category":"public"},{"id":"202330200000100483","name":"강변 주유소","lat":37.534828,"lng":126.945783,"roadAddr":"서울특별시 용산구 원효로 9 (청암동, SK네트웍스강변주유소)","openHours":"-","maleToilets":2,"femaleToilets":1,"disabled":false,"diaperTable":false,"emergencyBell":false,"cctv":false,"managerTel":"0221997650","source":"public","category":"public"},{"id":"202330200000100419","name":"원효로2동 주민센터","lat":37.534346,"lng":126.951559,"roadAddr":"서울특별시 용산구 효창원로8길 3 (산천동, 원효로제2동 주민센터)","openHours":"-","maleToilets":3,"femaleToilets":2,"disabled":false,"diaperTable":false,"emergencyBell":false,"cctv":false,"managerTel":"0221998500","source":"public","category":"public"},{"id":"202430200000100073","name":"광성빌딩(민간개방지정)","lat":37.541064,"lng":126.957875,"roadAddr":"서울특별시 용산구 백범로43길8","openHours":"상시","maleToilets":2,"femaleToilets":1,"disabled":false,"diaperTable":false,"emergencyBell":false,"cctv":true,"source":"public","category":"public"},{"id":"202531200000100236","name":"북아현동 주민센터","lat":37.559471,"lng":126.957036,"roadAddr":"서울특별시 서대문구 북아현로 24","jibunAddr":"서울특별시 서대문구 북아현동 129-37","openHours":"정시","maleToilets":18,"femaleToilets":13,"disabled":true,"diaperTable":true,"emergencyBell":true,"cctv":false,"managerTel":"023308105","source":"public","category":"public"},{"id":"202531200000100303","name":"맥도날드(연대점) 개방화장실","lat":37.558591,"lng":126.936723,"roadAddr":"서울특별시 서대문구 연세로 33","jibunAddr":"서울특별시 서대문구 창천동 33-38","openHours":"상시","maleToilets":3,"femaleToilets":2,"disabled":false,"diaperTable":false,"emergencyBell":false,"cctv":true,"managerTel":"023301592","source":"public","category":"public"},{"id":"202531200000100344","name":"추계예술대학교 지사관(추정기념별관) 화장실","lat":37.563177,"lng":126.954059,"roadAddr":"서울특별시 서대문구 북아현로11가길 7","jibunAddr":"서울특별시 서대문구 북아현동 190-1","openHours":"정시","maleToilets":10,"femaleToilets":11,"disabled":true,"diaperTable":true,"emergencyBell":false,"cctv":true,"managerTel":"023623317","source":"public","category":"public"},{"id":"202531200000100348","name":"추계예술대학교 청사관 화장실","lat":37.563177,"lng":126.954059,"roadAddr":"서울특별시 서대문구 북아현로11가길 7","jibunAddr":"서울특별시 서대문구 북아현동 190-1","openHours":"정시","maleToilets":47,"femaleToilets":43,"disabled":true,"diaperTable":false,"emergencyBell":false,"cctv":false,"managerTel":"023623317","source":"public","category":"public"},{"id":"202531200000100261","name":"궁동체육관","lat":37.571304,"lng":126.925281,"roadAddr":"서울특별시 서대문구 연희로11마길 86-47","jibunAddr":"서울특별시 서대문구 연희동 188-21","openHours":"상시","maleToilets":6,"femaleToilets":4,"disabled":true,"diaperTable":false,"emergencyBell":true,"cctv":false,"managerTel":"023608652","source":"public","category":"public"},{"id":"202531200000100188","name":"현저 공중화장실","lat":37.572909,"lng":126.953033,"roadAddr":"서울특별시 서대문구 통일로 279-73","jibunAddr":"서울특별시 서대문구 현저동 107-479","openHours":"상시","maleToilets":5,"femaleToilets":3,"disabled":false,"diaperTable":false,"emergencyBell":true,"cctv":true,"managerTel":"023301518","source":"public","category":"public"},{"id":"202531200000100247","name":"연희동 자치회관","lat":37.569336,"lng":126.930776,"roadAddr":"서울특별시 서대문구 증가로 13-10","jibunAddr":"서울특별시 서대문구 연희동 122-16","openHours":"정시","maleToilets":2,"femaleToilets":2,"disabled":false,"diaperTable":false,"emergencyBell":true,"cctv":false,"managerTel":"023308173","source":"public","category":"public"},{"id":"202531200000100257","name":"신촌문화발전소","lat":37.557963,"lng":126.939755,"roadAddr":"서울특별시 서대문구 연세로2나길 57","jibunAddr":"서울특별시 서대문구 창천동 4-113","openHours":"정시","maleToilets":5,"femaleToilets":3,"disabled":true,"diaperTable":false,"emergencyBell":false,"cctv":true,"managerTel":"023304393","source":"public","category":"public"},{"id":"202531200000100185","name":"연대앞 공중화장실","lat":37.559777,"lng":126.934434,"roadAddr":"서울특별시 서대문구 성산로 426","jibunAddr":"서울특별시 서대문구 창천동 84-43","openHours":"상시","maleToilets":8,"femaleToilets":5,"disabled":true,"diaperTable":true,"emergencyBell":true,"cctv":true,"managerTel":"023301518","source":"public","category":"public"},{"id":"202531200000100297","name":"SK BROADBAND 개방화장실","lat":37.556687,"lng":126.940807,"roadAddr":"서울특별시 서대문구 신촌로 135","jibunAddr":"서울특별시 서대문구 창천동 20-21","openHours":"정시","maleToilets":3,"femaleToilets":2,"disabled":false,"diaperTable":false,"emergencyBell":false,"cctv":true,"managerTel":"023301592","source":"public","category":"public"},{"id":"202531200000100283","name":"구도일주유소 두꺼비 화장실","lat":37.566071,"lng":126.924941,"roadAddr":"서울특별시 서대문구 성산로 312","jibunAddr":"서울특별시 서대문구 연희동 220-55","openHours":"정시","maleToilets":3,"femaleToilets":1,"disabled":false,"diaperTable":false,"emergencyBell":false,"cctv":true,"managerTel":"023308741","source":"public","category":"public"},{"id":"202531200000100254","name":"청년취업사관학교 서대문캠퍼스","lat":37.556848,"lng":126.935203,"roadAddr":"서울특별시 서대문구 연세로5나길 19","jibunAddr":"서울특별시 서대문구 창천동 57-18","openHours":"상시","maleToilets":4,"femaleToilets":3,"disabled":true,"diaperTable":false,"emergencyBell":true,"cctv":true,"managerTel":"023308298","source":"public","category":"public"},{"id":"202531200000100263","name":"북아현문화체육센터","lat":37.56184,"lng":126.955438,"roadAddr":"서울특별시 서대문구 북아현로 51","jibunAddr":"서울특별시 서대문구 북아현동 1012-2","openHours":"정시","maleToilets":12,"femaleToilets":15,"disabled":true,"diaperTable":true,"emergencyBell":true,"cctv":false,"managerTel":"023608660","source":"public","category":"public"},{"id":"202531200000100293","name":"행촌제2주유소 화장실","lat":37.561016,"lng":126.941569,"roadAddr":"서울특별시 서대문구 성산로 490","jibunAddr":"서울특별시 서대문구 대신동 16-7","openHours":"정시","maleToilets":3,"femaleToilets":1,"disabled":false,"diaperTable":false,"emergencyBell":false,"cctv":true,"managerTel":"023308741","source":"public","category":"public"},{"id":"202531200000100266","name":"이진아기념도서관","lat":37.572954,"lng":126.955549,"roadAddr":"서울특별시 서대문구 독립문공원길 80","jibunAddr":"서울특별시 서대문구 현저동 101","openHours":"정시","maleToilets":13,"femaleToilets":12,"disabled":true,"diaperTable":true,"emergencyBell":true,"cctv":true,"managerTel":"023608600","source":"public","category":"public"},{"id":"202531200000100273","name":"경의중앙선 신촌역","lat":37.559824,"lng":126.942387,"roadAddr":"서울특별시 서대문구 신촌역로 30","jibunAddr":"서울특별시 서대문구 신촌동 74-12","openHours":"정시","maleToilets":14,"femaleToilets":14,"disabled":true,"diaperTable":true,"emergencyBell":true,"cctv":true,"managerTel":"15447788","source":"public","category":"public"},{"id":"202531200000100205","name":"뜨란채 화장실","lat":37.570447,"lng":126.953851,"jibunAddr":"서울특별시 서대문구 현저동 107-508","openHours":"상시","maleToilets":3,"femaleToilets":2,"disabled":true,"diaperTable":false,"emergencyBell":true,"cctv":true,"managerTel":"023308733","source":"public","category":"public"},{"id":"202531200000100246","name":"신촌동 자치회관","lat":37.557582,"lng":126.939576,"roadAddr":"서울특별시 서대문구 연세로2나길 48","jibunAddr":"서울특별시 서대문구 창천동 4-63","openHours":"정시","maleToilets":4,"femaleToilets":3,"disabled":false,"diaperTable":false,"emergencyBell":true,"cctv":false,"managerTel":"023307980","source":"public","category":"public"},{"id":"202531200000100308","name":"신촌 푸르지오 시티 개방화장실","lat":37.557353,"lng":126.9425,"roadAddr":"서울특별시 서대문구 신촌역로 7","jibunAddr":"서울특별시 서대문구 대현동 104-5","openHours":"정시","maleToilets":3,"femaleToilets":4,"disabled":false,"diaperTable":false,"emergencyBell":false,"cctv":true,"managerTel":"023301592","source":"public","category":"public"},{"id":"202531200000100213","name":"복주산근린공원 공중화장실","lat":37.560874,"lng":126.955613,"roadAddr":"서울특별시 서대문구 북아현로 39, 복주산근린공원 공중화장실 (북아현동)","jibunAddr":"서울특별시 서대문구 북아현동 1016-2 복주산근린공원 공중화장실","openHours":"상시","maleToilets":2,"femaleToilets":2,"disabled":true,"diaperTable":false,"emergencyBell":true,"cctv":true,"managerTel":"023301518","source":"public","category":"public"},{"id":"202531200000100212","name":"복주물약수터 화장실","lat":37.567053,"lng":126.951882,"roadAddr":"서울특별시 서대문구 북아현로 134-7","jibunAddr":"서울특별시 서대문구 북아현동 1-818","openHours":"상시","maleToilets":2,"femaleToilets":1,"disabled":true,"diaperTable":false,"emergencyBell":true,"cctv":true,"managerTel":"023308733","source":"public","category":"public"},{"id":"202531200000100200","name":"궁동근린공원 화장실","lat":37.569996,"lng":126.922965,"roadAddr":"서울특별시 서대문구 홍제천로 54-150","jibunAddr":"서울특별시 서대문구 연희동 산 118-1","openHours":"상시","maleToilets":7,"femaleToilets":6,"disabled":true,"diaperTable":false,"emergencyBell":true,"cctv":true,"managerTel":"023301708","source":"public","category":"public"},{"id":"202531200000100320","name":"현대백화점 개방화장실","lat":37.556083,"lng":126.935845,"roadAddr":"서울특별시 서대문구 신촌로 83","jibunAddr":"서울특별시 서대문구 창천동 30-33","openHours":"정시","maleToilets":4,"femaleToilets":3,"disabled":false,"diaperTable":false,"emergencyBell":false,"cctv":true,"managerTel":"023301592","source":"public","category":"public"},{"id":"202531200000100182","name":"봉원2 공중화장실","lat":37.571544,"lng":126.946933,"roadAddr":"서울특별시 서대문구 봉원사길 115","jibunAddr":"서울특별시 서대문구 봉원동 23-2","openHours":"상시","maleToilets":5,"femaleToilets":5,"disabled":false,"diaperTable":false,"emergencyBell":true,"cctv":true,"managerTel":"023301518","source":"public","category":"public"},{"id":"202531200000100311","name":"아남오피스텔 개방화장실","lat":37.556206,"lng":126.939296,"roadAddr":"서울특별시 서대문구 신촌로 121","jibunAddr":"서울특별시 서대문구 창천동 20-41","openHours":"상시","maleToilets":4,"femaleToilets":3,"disabled":false,"diaperTable":false,"emergencyBell":false,"cctv":true,"managerTel":"023301592","source":"public","category":"public"},{"id":"202531200000100301","name":"르메이에르신촌3차 개방화장실","lat":37.556462,"lng":126.939993,"roadAddr":"서울특별시 서대문구 신촌로 127","jibunAddr":"서울특별시 서대문구 창천동 20-26","openHours":"상시","maleToilets":3,"femaleToilets":2,"disabled":false,"diaperTable":false,"emergencyBell":false,"cctv":true,"managerTel":"023301592","source":"public","category":"public"},{"id":"202531200000100351","name":"추계예술대학교 황신덕기념관 화장실","lat":37.563177,"lng":126.954059,"roadAddr":"서울특별시 서대문구 북아현로11가길 7","jibunAddr":"서울특별시 서대문구 북아현동 190-1","openHours":"정시","maleToilets":7,"femaleToilets":25,"disabled":true,"diaperTable":false,"emergencyBell":false,"cctv":false,"managerTel":"023623317","source":"public","category":"public"},{"id":"202531200000100272","name":"경의중앙선 가좌역","lat":37.568887,"lng":126.91515,"roadAddr":"서울특별시 서대문구 수색로 27","jibunAddr":"서울특별시 서대문구 남가좌동 293-64","openHours":"정시","maleToilets":14,"femaleToilets":12,"disabled":true,"diaperTable":true,"emergencyBell":true,"cctv":true,"managerTel":"15447788","source":"public","category":"public"},{"id":"202531200000100346","name":"추계예술대학교 창고 화장실","lat":37.563177,"lng":126.954059,"roadAddr":"서울특별시 서대문구 북아현로11가길 7","jibunAddr":"서울특별시 서대문구 북아현동 190-1","openHours":"정시","maleToilets":0,"femaleToilets":0,"disabled":false,"diaperTable":false,"emergencyBell":false,"cctv":false,"managerTel":"023623317","source":"public","category":"public"},{"id":"202531200000100324","name":"이화여자대학교종합사회복지관","lat":37.563903,"lng":126.950511,"roadAddr":"서울특별시 서대문구 이화여대길19길 58-21","jibunAddr":"서울특별시 서대문구 북아현동 1-826","openHours":"정시","maleToilets":5,"femaleToilets":8,"disabled":true,"diaperTable":true,"emergencyBell":false,"cctv":false,"managerTel":"0232773190","source":"public","category":"public"},{"id":"202531200000100323","name":"서대문종합사회복지관 화장실(신관1층)","lat":37.57126,"lng":126.919841,"roadAddr":"서울특별시 서대문구 모래내로 173","jibunAddr":"서울특별시 서대문구 남가좌동 139-4","openHours":"정시","maleToilets":2,"femaleToilets":1,"disabled":false,"diaperTable":false,"emergencyBell":true,"cctv":false,"managerTel":"023755040","source":"public","category":"public"},{"id":"202531200000100290","name":"연희주유소 화장실","lat":37.569308,"lng":126.932458,"roadAddr":"서울특별시 서대문구 연희로 129","jibunAddr":"서울특별시 서대문구 연희동 89-7","openHours":"정시","maleToilets":3,"femaleToilets":1,"disabled":false,"diaperTable":false,"emergencyBell":false,"cctv":true,"managerTel":"023308741","source":"public","category":"public"},{"id":"202531200000100345","name":"추계예술대학교 지송관 화장실","lat":37.563177,"lng":126.954059,"roadAddr":"서울특별시 서대문구 북아현로11가길 7","jibunAddr":"서울특별시 서대문구 북아현동 190-1","openHours":"정시","maleToilets":11,"femaleToilets":3,"disabled":true,"diaperTable":false,"emergencyBell":false,"cctv":false,"managerTel":"023623317","source":"public","category":"public"},{"id":"202531200000100310","name":"쓰리알유씨티 개방화장실","lat":37.558874,"lng":126.927395,"roadAddr":"서울특별시 서대문구 신촌로 1","jibunAddr":"서울특별시 서대문구 창천동 510-2","openHours":"정시","maleToilets":5,"femaleToilets":5,"disabled":false,"diaperTable":false,"emergencyBell":false,"cctv":true,"managerTel":"023301592","source":"public","category":"public"},{"id":"202531200000100177","name":"가재울 공중화장실","lat":37.571025,"lng":126.920209,"roadAddr":"서울특별시 서대문구 모래내로 174","jibunAddr":"서울특별시 서대문구 연희동 530-2","openHours":"상시","maleToilets":2,"femaleToilets":2,"disabled":true,"diaperTable":true,"emergencyBell":true,"cctv":true,"managerTel":"023301518","source":"public","category":"public"},{"id":"202531200000100286","name":"삼미상사㈜ 서부주유소 화장실","lat":37.567721,"lng":126.918866,"roadAddr":"서울특별시 서대문구 성산로 255","jibunAddr":"서울특별시 서대문구 연희동 446-4","openHours":"정시","maleToilets":3,"femaleToilets":1,"disabled":false,"diaperTable":false,"emergencyBell":false,"cctv":true,"managerTel":"023308741","source":"public","category":"public"},{"id":"202531200000100237","name":"신촌동 주민센터","lat":37.557818,"lng":126.939546,"roadAddr":"서울특별시 서대문구 연세로2나길 47","jibunAddr":"서울특별시 서대문구 창천동 4-62","openHours":"정시","maleToilets":2,"femaleToilets":1,"disabled":true,"diaperTable":true,"emergencyBell":true,"cctv":false,"managerTel":"023304357","source":"public","category":"public"},{"id":"202531200000100221","name":"연세 화장실","lat":37.571425,"lng":126.942353,"jibunAddr":"서울특별시 서대문구 연희동 산2-17","openHours":"상시","maleToilets":3,"femaleToilets":2,"disabled":true,"diaperTable":false,"emergencyBell":true,"cctv":true,"managerTel":"023308733","source":"public","category":"public"},{"id":"202531200000100350","name":"추계예술대학교 추정기념관 화장실","lat":37.562518,"lng":126.955096,"roadAddr":"서울특별시 서대문구 북아현로11가길 8","jibunAddr":"서울특별시 서대문구 북아현동 176-54","openHours":"정시","maleToilets":5,"femaleToilets":6,"disabled":true,"diaperTable":false,"emergencyBell":false,"cctv":false,"managerTel":"023623317","source":"public","category":"public"},{"id":"202531200000100240","name":"충현동 주민센터","lat":37.564807,"lng":126.95472,"roadAddr":"서울특별시 서대문구 북아현로22길 38","jibunAddr":"서울특별시 서대문구 북아현동 1-90","openHours":"정시","maleToilets":2,"femaleToilets":1,"disabled":true,"diaperTable":true,"emergencyBell":true,"cctv":false,"managerTel":"023308178","source":"public","category":"public"},{"id":"202531200000100296","name":"k-스퀘어 신촌 개방화장실","lat":37.556307,"lng":126.93452,"roadAddr":"서울특별시 서대문구 신촌로 73","jibunAddr":"서울특별시 서대문구 창천동 72-12","openHours":"정시","maleToilets":2,"femaleToilets":1,"disabled":false,"diaperTable":false,"emergencyBell":false,"cctv":true,"managerTel":"023301592","source":"public","category":"public"},{"id":"202531200000100181","name":"봉원1 공중화장실","lat":37.570492,"lng":126.946039,"roadAddr":"서울특별시 서대문구 봉원사길 75-14","jibunAddr":"서울특별시 서대문구 봉원동 20","openHours":"상시","maleToilets":6,"femaleToilets":3,"disabled":true,"diaperTable":true,"emergencyBell":true,"cctv":true,"managerTel":"023301518","source":"public","category":"public"},{"id":"202531200000100225","name":"창천근린공원 공중화장실","lat":37.558046,"lng":126.940432,"roadAddr":"서울특별시 서대문구 연세로2나길 66, 창천근린공원 공중화장실 (창천동)","jibunAddr":"서울특별시 서대문구 창천동 4-55 창천근린공원 공중화장실","openHours":"상시","maleToilets":2,"femaleToilets":2,"disabled":true,"diaperTable":false,"emergencyBell":true,"cctv":true,"managerTel":"023301518","source":"public","category":"public"},{"id":"202531200000100306","name":"버거킹(연세로점) 개방화장실","lat":37.557895,"lng":126.936696,"roadAddr":"서울특별시 서대문구 연세로 25","jibunAddr":"서울특별시 서대문구 창천동 33-38","openHours":"상시","maleToilets":2,"femaleToilets":1,"disabled":false,"diaperTable":false,"emergencyBell":false,"cctv":true,"managerTel":"023301592","source":"public","category":"public"},{"id":"202531200000100349","name":"추계예술대학교 추계기념관 화장실","lat":37.563177,"lng":126.954059,"roadAddr":"서울특별시 서대문구 북아현로11가길 7","jibunAddr":"서울특별시 서대문구 북아현동 190-1","openHours":"정시","maleToilets":17,"femaleToilets":24,"disabled":true,"diaperTable":false,"emergencyBell":false,"cctv":true,"managerTel":"023623317","source":"public","category":"public"},{"id":"202531200000100291","name":"안국에너지 삼보주유소 화장실","lat":37.565024,"lng":126.929929,"roadAddr":"서울특별시 서대문구 연희로 78","jibunAddr":"서울특별시 서대문구 연희동 194-32","openHours":"정시","maleToilets":3,"femaleToilets":1,"disabled":false,"diaperTable":false,"emergencyBell":false,"cctv":true,"managerTel":"023308741","source":"public","category":"public"},{"id":"202531200000100214","name":"봉원소공원 공중화장실","lat":37.569759,"lng":126.945399,"roadAddr":"서울특별시 서대문구 봉원사길 59, 봉원소공원 공중화장실 (봉원동)","jibunAddr":"서울특별시 서대문구 봉원동 51-12 봉원소공원 공중화장실","openHours":"상시","maleToilets":3,"femaleToilets":1,"disabled":true,"diaperTable":false,"emergencyBell":true,"cctv":true,"managerTel":"023301518","source":"public","category":"public"},{"id":"202531200000100343","name":"추계예술대학교 후문경비실 화장실","lat":37.563177,"lng":126.954059,"roadAddr":"서울특별시 서대문구 북아현로11가길 7","jibunAddr":"서울특별시 서대문구 북아현동 190-1","openHours":"정시","maleToilets":0,"femaleToilets":0,"disabled":false,"diaperTable":false,"emergencyBell":false,"cctv":false,"managerTel":"023623317","source":"public","category":"public"},{"id":"202531200000100203","name":"능안정 전망대 화장실","lat":37.569369,"lng":126.955267,"jibunAddr":"서울특별시 서대문구 영천동 산1-39","openHours":"상시","maleToilets":2,"femaleToilets":1,"disabled":false,"diaperTable":false,"emergencyBell":true,"cctv":true,"managerTel":"023308733","source":"public","category":"public"},{"id":"202531200000100342","name":"추계예술대학교 정문경비실 화장실","lat":37.563177,"lng":126.954059,"roadAddr":"서울특별시 서대문구 북아현로11가길 7","jibunAddr":"서울특별시 서대문구 북아현동 190-1","openHours":"정시","maleToilets":0,"femaleToilets":0,"disabled":false,"diaperTable":false,"emergencyBell":false,"cctv":false,"managerTel":"023623317","source":"public","category":"public"},{"id":"202531200000100321","name":"서대문종합사회복지관 화장실(본관2층)","lat":37.571454,"lng":126.920082,"roadAddr":"서울특별시 서대문구 모래내로 177","jibunAddr":"서울특별시 서대문구 남가좌동 115-63","openHours":"정시","maleToilets":4,"femaleToilets":3,"disabled":true,"diaperTable":false,"emergencyBell":true,"cctv":false,"managerTel":"023755040","source":"public","category":"public"},{"id":"202531200000100184","name":"연가교 공중화장실","lat":37.573081,"lng":126.922877,"roadAddr":"서울특별시 서대문구 모래내로 208","jibunAddr":"서울특별시 서대문구 남가좌동 79-166","openHours":"상시","maleToilets":2,"femaleToilets":2,"disabled":true,"diaperTable":true,"emergencyBell":true,"cctv":true,"managerTel":"023301518","source":"public","category":"public"},{"id":"202531200000100347","name":"추계예술대학교 창조관 화장실","lat":37.563177,"lng":126.954059,"roadAddr":"서울특별시 서대문구 북아현로11가길 7","jibunAddr":"서울특별시 서대문구 북아현동 190-1","openHours":"정시","maleToilets":70,"femaleToilets":64,"disabled":true,"diaperTable":true,"emergencyBell":false,"cctv":true,"managerTel":"023623317","source":"public","category":"public"},{"id":"202231300000100242","name":"공덕역(경의중앙선)","lat":37.542543,"lng":126.952197,"roadAddr":"서울특별시 마포구 마포대로 지하92, 공덕역(경의중앙선) (도화동)","jibunAddr":"서울특별시 마포구 도화동 25-13 공덕역(경의중앙선)","openHours":"02~24","maleToilets":17,"femaleToilets":19,"disabled":true,"diaperTable":true,"emergencyBell":true,"cctv":true,"managerTel":"027025277","source":"public","category":"public"},{"id":"202231300000100393","name":"도원빌딩 화장실","lat":37.53926,"lng":126.946152,"roadAddr":"서울특별시 마포구 마포대로 34, 도원빌딩 1층 (도화동)","jibunAddr":"서울특별시 마포구 도화동 292-20 도원빌딩","openHours":"09~20","maleToilets":5,"femaleToilets":2,"disabled":false,"diaperTable":false,"emergencyBell":false,"cctv":false,"source":"public","category":"public"},{"id":"202431300000100006","name":"우리마포복지관","lat":37.555859,"lng":126.942321,"roadAddr":"서울특별시 마포구 신촌로26길 10, 우리마포복지관 (노고산동)","jibunAddr":"서울특별시 마포구 노고산동 1-50 우리마포복지관","openHours":"정시","maleToilets":38,"femaleToilets":38,"disabled":true,"diaperTable":true,"emergencyBell":true,"cctv":false,"source":"public","category":"public"},{"id":"202231300000100264","name":"마포새빛문화숲","lat":37.544264,"lng":126.916441,"jibunAddr":"서울특별시 마포구 합정동 55-1","openHours":"00~24","maleToilets":3,"femaleToilets":3,"disabled":true,"diaperTable":true,"emergencyBell":true,"cctv":true,"managerTel":"0231539234","source":"public","category":"public"},{"id":"202231300000100352","name":"마포원조주물럭 화장실","lat":37.540825,"lng":126.941858,"roadAddr":"서울특별시 마포구 토정로 294, 1층 (용강동)","jibunAddr":"서울특별시 마포구 용강동 45-1","openHours":"09~22","maleToilets":2,"femaleToilets":1,"disabled":false,"diaperTable":false,"emergencyBell":false,"cctv":false,"source":"public","category":"public"},{"id":"202231300000100321","name":"합정역(2)","lat":37.550115,"lng":126.914638,"roadAddr":"서울특별시 마포구 양화로 지하 55, 합정역 1,2번출구 옆 (서교동)","jibunAddr":"서울특별시 마포구 서교동 393 합정역","openHours":"05~24","maleToilets":10,"femaleToilets":16,"disabled":true,"diaperTable":true,"emergencyBell":true,"cctv":true,"managerTel":"0261102381","source":"public","category":"public"},{"id":"202231300000100409","name":"서강대역 화장실","lat":37.552705,"lng":126.934808,"roadAddr":"서울특별시 마포구 서강로 지하 118, 서강대역 고객지원실 앞 (노고산동)","jibunAddr":"서울특별시 마포구 노고산동 112-5 서강대역","openHours":"05~24","maleToilets":13,"femaleToilets":13,"disabled":true,"diaperTable":false,"emergencyBell":true,"cctv":false,"managerTel":"027125288","source":"public","category":"public"},{"id":"202231300000100284","name":"염리생활체육관 화장실","lat":37.541967,"lng":126.945232,"roadAddr":"서울특별시 마포구 큰우물로 61, 염리 제2공영주차장 3층 (염리동)","jibunAddr":"서울특별시 마포구 염리동 174-3 염리 제2공영주차장","openHours":"09~18","maleToilets":5,"femaleToilets":6,"disabled":true,"diaperTable":true,"emergencyBell":false,"cctv":false,"managerTel":"027049400","source":"public","category":"public"},{"id":"202231300000100425","name":"마포경찰서 별관 화장실","lat":37.550829,"lng":126.954018,"roadAddr":"서울특별시 마포구 마포대로 183, 서울마포경찰서 별관1층 (아현동)","jibunAddr":"서울특별시 마포구 아현동 618-1 서울마포경찰서","openHours":"09~18","maleToilets":4,"femaleToilets":3,"disabled":true,"diaperTable":false,"emergencyBell":false,"cctv":false,"managerTel":"0231496321","source":"public","category":"public"},{"id":"202231300000100280","name":"시립마포노인종합복지관 화장실","lat":37.548941,"lng":126.932211,"roadAddr":"서울특별시 마포구 서강로 68, 마포노인사회복지시설 1층 (창전동)","jibunAddr":"서울특별시 마포구 창전동 140 마포노인사회복지시설","openHours":"09~18","maleToilets":5,"femaleToilets":2,"disabled":false,"diaperTable":false,"emergencyBell":false,"cctv":true,"managerTel":"023331040","source":"public","category":"public"},{"id":"202231300000100251","name":"염리동주민센터 개방화장실","lat":37.547074,"lng":126.945648,"roadAddr":"서울특별시 마포구 숭문길 14, 염리동 주민센터 (염리동)","jibunAddr":"서울특별시 마포구 염리동 147-14 염리동 주민센터","openHours":"09~18","maleToilets":3,"femaleToilets":2,"disabled":true,"diaperTable":true,"emergencyBell":false,"cctv":true,"source":"public","category":"public"},{"id":"202231300000100247","name":"염리공영주차장","lat":37.541967,"lng":126.945232,"roadAddr":"서울특별시 마포구 큰우물로 61, 염리 제2공영주차장 (염리동)","jibunAddr":"서울특별시 마포구 염리동 174-3 염리 제2공영주차장","openHours":"00~24","maleToilets":3,"femaleToilets":1,"disabled":false,"diaperTable":false,"emergencyBell":false,"cctv":true,"source":"public","category":"public"},{"id":"202231300000100240","name":"서울복지타운","lat":37.547459,"lng":126.950578,"roadAddr":"서울특별시 마포구 백범로31길 21, 서울창업허브, 서울복지타운 (공덕동)","jibunAddr":"서울특별시 마포구 공덕동 370-4 서울창업허브, 서울복지타운","openHours":"07~20","maleToilets":4,"femaleToilets":4,"disabled":false,"diaperTable":false,"emergencyBell":false,"cctv":true,"managerTel":"0263530268","source":"public","category":"public"},{"id":"202231300000100388","name":"거구장 화장실","lat":37.552811,"lng":126.937948,"roadAddr":"서울특별시 마포구 백범로 23, 거구장 (신수동)","jibunAddr":"서울특별시 마포구 신수동 63-14 거구장","openHours":"07~21","maleToilets":5,"femaleToilets":3,"disabled":false,"diaperTable":false,"emergencyBell":false,"cctv":false,"source":"public","category":"public"},{"id":"202231300000100429","name":"서교동주민센터 화장실","lat":37.55511,"lng":126.91459,"roadAddr":"서울특별시 마포구 동교로15길 7, 서교동 주민센터 1층 (서교동)","jibunAddr":"서울특별시 마포구 서교동 478-5 서교동 주민센터","openHours":"00~24","maleToilets":3,"femaleToilets":3,"disabled":true,"diaperTable":false,"emergencyBell":true,"cctv":true,"managerTel":"0231536740","source":"public","category":"public"},{"id":"202231300000100272","name":"동교치안센터 화장실","lat":37.557237,"lng":126.928657,"roadAddr":"서울특별시 마포구 신촌로2안길 27, 동교치안센터 (동교동)","jibunAddr":"서울특별시 마포구 동교동 179-37 동교치안센터","openHours":"09~18","maleToilets":0,"femaleToilets":0,"disabled":true,"diaperTable":true,"emergencyBell":false,"cctv":false,"managerTel":"023345908","source":"public","category":"public"},{"id":"202231300000100246","name":"창전공영주차장","lat":37.554918,"lng":126.939295,"roadAddr":"서울특별시 마포구 백범로1길 56, 창전공영주차장 (노고산동)","jibunAddr":"서울특별시 마포구 노고산동 33-1 창전공영주차장","openHours":"00~24","maleToilets":3,"femaleToilets":1,"disabled":false,"diaperTable":false,"emergencyBell":false,"cctv":false,"source":"public","category":"public"},{"id":"202231300000100351","name":"마포 양촌리 화장실","lat":37.540257,"lng":126.942688,"roadAddr":"서울특별시 마포구 토정로 304, 용현빌딩 1층 (용강동)","jibunAddr":"서울특별시 마포구 용강동 50-1 용현빌딩","openHours":"10~22","maleToilets":4,"femaleToilets":2,"disabled":false,"diaperTable":false,"emergencyBell":false,"cctv":false,"source":"public","category":"public"},{"id":"202231300000100320","name":"신촌역(2)","lat":37.555442,"lng":126.936119,"roadAddr":"서울특별시 마포구 신촌로 지하 90, 신촌역 5번출구 옆 (노고산동)","jibunAddr":"서울특별시 마포구 노고산동 31-11 신촌역","openHours":"05~24","maleToilets":12,"femaleToilets":12,"disabled":true,"diaperTable":true,"emergencyBell":true,"cctv":true,"managerTel":"0261102401","source":"public","category":"public"},{"id":"202231300000100350","name":"원조마포왕갈비 화장실","lat":37.539947,"lng":126.944149,"roadAddr":"서울특별시 마포구 토정로 315, 1층 (용강동)","jibunAddr":"서울특별시 마포구 용강동 40-5","openHours":"12~22","maleToilets":2,"femaleToilets":1,"disabled":false,"diaperTable":false,"emergencyBell":false,"cctv":false,"source":"public","category":"public"},{"id":"202231300000100418","name":"아현동주민센터 공중화장실","lat":37.54712,"lng":126.952212,"roadAddr":"서울특별시 마포구 마포대로7길 18, 아현동주민센터 (공덕동)","jibunAddr":"서울특별시 마포구 공덕동 458 아현동주민센터","openHours":"00~24","maleToilets":3,"femaleToilets":1,"disabled":true,"diaperTable":true,"emergencyBell":true,"cctv":true,"managerTel":"0231536326","source":"public","category":"public"},{"id":"202231300000100385","name":"아현시장 고객지원센터 화장실","lat":37.556447,"lng":126.95466,"roadAddr":"서울특별시 마포구 굴레방로 27-17, 1층 (아현동)","jibunAddr":"서울특별시 마포구 아현동 327-19","openHours":"00~24","maleToilets":2,"femaleToilets":2,"disabled":true,"diaperTable":true,"emergencyBell":true,"cctv":true,"managerTel":"0231539234","source":"public","category":"public"},{"id":"202231300000100446","name":"복사꽃어린이공원화장실","lat":37.539035,"lng":126.946295,"roadAddr":"서울특별시 마포구 마포대로4길 11-2 (도화동)","jibunAddr":"서울특별시 마포구 도화동 533","openHours":"00~24","maleToilets":0,"femaleToilets":1,"disabled":true,"diaperTable":true,"emergencyBell":true,"cctv":true,"managerTel":"0231539234","source":"public","category":"public"},{"id":"202231300000100408","name":"대흥동 주민센터 화장실","lat":37.555859,"lng":126.942321,"roadAddr":"서울특별시 마포구 신촌로26길 10, 우리마포복지관(대흥동주민센터) 1층 (노고산동)","jibunAddr":"서울특별시 마포구 노고산동 1-50 우리마포복지관(대흥동주민센터)","openHours":"00~24","maleToilets":4,"femaleToilets":3,"disabled":true,"diaperTable":true,"emergencyBell":true,"cctv":true,"managerTel":"027032900","source":"public","category":"public"},{"id":"202231300000100271","name":"서교치안센터 화장실","lat":37.552425,"lng":126.920803,"roadAddr":"서울특별시 마포구 잔다리로6길 29, 서교치안센터 (서교동)","jibunAddr":"서울특별시 마포구 서교동 369-9 서교치안센터","openHours":"09~18","maleToilets":2,"femaleToilets":1,"disabled":true,"diaperTable":false,"emergencyBell":false,"cctv":false,"managerTel":"023348150","source":"public","category":"public"},{"id":"202231300000100241","name":"홍대입구역(경의중앙선)","lat":37.557445,"lng":126.926779,"roadAddr":"서울특별시 마포구 양화로 지하188, 홍대입구역(경의중앙선) (동교동)","jibunAddr":"서울특별시 마포구 동교동 190-1 홍대입구역(경의중앙선)","openHours":"05~24","maleToilets":15,"femaleToilets":17,"disabled":true,"diaperTable":true,"emergencyBell":true,"cctv":true,"managerTel":"023227897","source":"public","category":"public"},{"id":"202231300000100419","name":"공덕역(5) 화장실","lat":37.544527,"lng":126.951364,"roadAddr":"서울특별시 마포구 마포대로 지하100, 공덕역 (공덕동)","jibunAddr":"서울특별시 마포구 공덕동 423-29 공덕역","openHours":"05~24","maleToilets":6,"femaleToilets":6,"disabled":true,"diaperTable":true,"emergencyBell":true,"cctv":true,"managerTel":"0263115291","source":"public","category":"public"},{"id":"202331300000100003","name":"아현동주민센터","lat":37.54712,"lng":126.952212,"roadAddr":"서울특별시 마포구 마포대로7길 18, 아현동주민센터 (공덕동)","jibunAddr":"서울특별시 마포구 공덕동 458 아현동주민센터","openHours":"24시간","maleToilets":3,"femaleToilets":1,"disabled":true,"diaperTable":true,"emergencyBell":true,"cctv":true,"source":"public","category":"public"},{"id":"202231300000100443","name":"와우어린이공원 화장실","lat":37.548573,"lng":126.924993,"roadAddr":"서울특별시 마포구 독막로19길 20-13, 와우어린이공원 화장실 (상수동)","jibunAddr":"서울특별시 마포구 상수동 72-7 와우어린이공원 화장실","openHours":"00~24","maleToilets":1,"femaleToilets":1,"disabled":true,"diaperTable":true,"emergencyBell":true,"cctv":true,"managerTel":"0231539234","source":"public","category":"public"},{"id":"202231300000100316","name":"애오개역(5)","lat":37.553362,"lng":126.956613,"roadAddr":"서울특별시 마포구 마포대로 지하 210, 애오개역 게이트 통과 후좌측 (아현동)","jibunAddr":"서울특별시 마포구 아현동 612 애오개역","openHours":"05~24","maleToilets":9,"femaleToilets":9,"disabled":true,"diaperTable":true,"emergencyBell":true,"cctv":true,"managerTel":"0263115301","source":"public","category":"public"},{"id":"202231300000100307","name":"대흥역(6)","lat":37.547668,"lng":126.942465,"roadAddr":"서울특별시 마포구 대흥로 지하 85, 대흥역 4번출구 앞 (대흥동)","jibunAddr":"서울특별시 마포구 대흥동 128-1 대흥역","openHours":"05~24","maleToilets":7,"femaleToilets":7,"disabled":true,"diaperTable":true,"emergencyBell":true,"cctv":true,"managerTel":"0263116251","source":"public","category":"public"},{"id":"202231300000100399","name":"진영제2빌딩 화장실","lat":37.560837,"lng":126.916147,"roadAddr":"서울특별시 마포구 월드컵북로 78, 1층 (성산동)","jibunAddr":"서울특별시 마포구 성산동 209-1","openHours":"00~24","maleToilets":3,"femaleToilets":2,"disabled":false,"diaperTable":false,"emergencyBell":false,"cctv":false,"source":"public","category":"public"},{"id":"202231300000100442","name":"서강지구대 화장실","lat":37.547347,"lng":126.929311,"roadAddr":"서울특별시 마포구 독막로22길 8, 서강지구대 (창전동)","jibunAddr":"서울특별시 마포구 창전동 402-59 서강지구대","openHours":"00~24","maleToilets":1,"femaleToilets":0,"disabled":true,"diaperTable":false,"emergencyBell":false,"cctv":false,"managerTel":"023344975","source":"public","category":"public"},{"id":"202231300000100434","name":"용강이동 공중화장실","lat":37.538658,"lng":126.94135,"roadAddr":"서울특별시 마포구 마포대로1길 19-1(마포동)","jibunAddr":"서울특별시 마포구 마포동 37-2","openHours":"00~24","maleToilets":1,"femaleToilets":1,"disabled":false,"diaperTable":false,"emergencyBell":true,"cctv":false,"managerTel":"0231539234","source":"public","category":"public"},{"id":"202231300000100252","name":"연남동주민센터 개방화장실","lat":37.564865,"lng":126.922198,"roadAddr":"서울특별시 마포구 성미산로29길 17-9, 연남동주민센터 (연남동)","jibunAddr":"서울특별시 마포구 연남동 250-9 연남동주민센터","openHours":"09~20","maleToilets":4,"femaleToilets":3,"disabled":true,"diaperTable":true,"emergencyBell":true,"cctv":false,"managerTel":"0231536872","source":"public","category":"public"},{"id":"202231300000100381","name":"적암빌딩 화장실","lat":37.555742,"lng":126.939972,"roadAddr":"서울특별시 마포구 신촌로 128, 1층 (노고산동)","jibunAddr":"서울특별시 마포구 노고산동 40-1","openHours":"07~22","maleToilets":4,"femaleToilets":2,"disabled":false,"diaperTable":false,"emergencyBell":false,"cctv":false,"source":"public","category":"public"},{"id":"202231300000100368","name":"애프터눈커피 화장실","lat":37.557331,"lng":126.927591,"roadAddr":"서울특별시 마포구 신촌로4길 22-14, 1층 (동교동)","jibunAddr":"서울특별시 마포구 동교동 176-9","openHours":"11~21","maleToilets":2,"femaleToilets":1,"disabled":false,"diaperTable":false,"emergencyBell":false,"cctv":false,"source":"public","category":"public"},{"id":"202231300000100349","name":"도화소어린이공원화장실","lat":37.541049,"lng":126.945355,"roadAddr":"서울특별시 마포구 토정로37길 22 (도화동)","jibunAddr":"서울특별시 마포구 도화동 540","openHours":"00~24","maleToilets":7,"femaleToilets":4,"disabled":true,"diaperTable":false,"emergencyBell":true,"cctv":true,"managerTel":"0231539234","source":"public","category":"public"},{"id":"202231300000100404","name":"홍대입구역(2)화장실","lat":37.55689,"lng":126.923674,"roadAddr":"서울특별시 마포구 양화로 지하160, 홍대입구역 (동교동)","jibunAddr":"서울특별시 마포구 동교동 165 홍대입구역","openHours":"05~24","maleToilets":15,"femaleToilets":21,"disabled":true,"diaperTable":true,"emergencyBell":true,"cctv":true,"managerTel":"023227897","source":"public","category":"public"},{"id":"202231300000100410","name":"도화동주민센터 화장실","lat":37.541531,"lng":126.949875,"roadAddr":"서울특별시 마포구 도화길 37, 도화 공영주차장 및 주민센터 1층 (도화동)","jibunAddr":"서울특별시 마포구 도화동 557 도화 공영주차장 및 주민센터","openHours":"00~24","maleToilets":2,"femaleToilets":2,"disabled":true,"diaperTable":true,"emergencyBell":true,"cctv":true,"managerTel":"0231536560","source":"public","category":"public"},{"id":"202231300000100239","name":"서울신용보증재단","lat":37.549123,"lng":126.954017,"roadAddr":"서울특별시 마포구 마포대로 163, 서울신용보증재단 (공덕동)","jibunAddr":"서울특별시 마포구 공덕동 168 서울신용보증재단","openHours":"00~24","maleToilets":4,"femaleToilets":1,"disabled":true,"diaperTable":true,"emergencyBell":false,"cctv":false,"managerTel":"0221745599","source":"public","category":"public"},{"id":"202231300000100353","name":"와우근린공원화장실","lat":37.552667,"lng":126.930321,"roadAddr":"서울특별시 마포구 와우산로30길 37, 공중화장실 (창전동)","jibunAddr":"서울특별시 마포구 창전동 3-189 공중화장실","openHours":"00~24","maleToilets":3,"femaleToilets":1,"disabled":true,"diaperTable":true,"emergencyBell":true,"cctv":true,"managerTel":"0231539234","source":"public","category":"public"},{"id":"202231300000100318","name":"아현역(2)","lat":37.557358,"lng":126.956034,"roadAddr":"서울특별시 마포구 신촌로 지하 270, 아현역 대합실 서쪽끝 (아현동)","jibunAddr":"서울특별시 마포구 아현동 354-23 아현역","openHours":"05~24","maleToilets":6,"femaleToilets":6,"disabled":true,"diaperTable":true,"emergencyBell":true,"cctv":true,"managerTel":"0261102421","source":"public","category":"public"},{"id":"202231300000100277","name":"연남파출소 화장실","lat":37.560336,"lng":126.923762,"roadAddr":"서울특별시 마포구 연남로 4, 연남파출소 (연남동)","jibunAddr":"서울특별시 마포구 연남동 373-20 연남파출소","openHours":"00~24","maleToilets":3,"femaleToilets":1,"disabled":true,"diaperTable":false,"emergencyBell":true,"cctv":false,"managerTel":"023344974","source":"public","category":"public"},{"id":"202231300000100267","name":"에스에스주유소","lat":37.549834,"lng":126.932591,"roadAddr":"서울특별시 마포구 서강로 76, SK창전주유소 (창전동)","jibunAddr":"서울특별시 마포구 창전동 13-6 SK창전주유소","openHours":"06~24시","maleToilets":3,"femaleToilets":2,"disabled":false,"diaperTable":false,"emergencyBell":false,"cctv":false,"source":"public","category":"public"},{"id":"202231300000100278","name":"서교119안전센터 화장실","lat":37.550285,"lng":126.915544,"roadAddr":"서울특별시 마포구 양화로 60, 마포소방서 서교119안전센터 1층 (서교동)","jibunAddr":"서울특별시 마포구 서교동 394-42 마포소방서 서교119안전센터","openHours":"00~24","maleToilets":2,"femaleToilets":1,"disabled":false,"diaperTable":false,"emergencyBell":false,"cctv":false,"managerTel":"0231432119","source":"public","category":"public"},{"id":"202231300000100377","name":"삼성화재 빌딩 화장실","lat":37.552026,"lng":126.916684,"roadAddr":"서울특별시 마포구 양화로 81, 1층 (서교동)","jibunAddr":"서울특별시 마포구 서교동 378-10","openHours":"00~24","maleToilets":6,"femaleToilets":3,"disabled":false,"diaperTable":false,"emergencyBell":false,"cctv":false,"source":"public","category":"public"},{"id":"202231300000100283","name":"용강지구대 화장실","lat":37.542561,"lng":126.943083,"roadAddr":"서울특별시 마포구 토정로31길 35, 서울마포경찰서 용강지구대 1층 (용강동)","jibunAddr":"서울특별시 마포구 용강동 503 서울마포경찰서 용강지구대","openHours":"00~24","maleToilets":2,"femaleToilets":1,"disabled":true,"diaperTable":false,"emergencyBell":false,"cctv":false,"source":"public","category":"public"},{"id":"202231300000100238","name":"오렌즈 비젼센터","lat":37.556591,"lng":126.924932,"roadAddr":"서울특별시 마포구 양화로18길 15, 지하1층 (동교동)","jibunAddr":"서울특별시 마포구 동교동 169-14 지하1층","openHours":"11~21","maleToilets":0,"femaleToilets":3,"disabled":false,"diaperTable":false,"emergencyBell":false,"cctv":false,"source":"public","category":"public"},{"id":"202231300000100355","name":"다솜어린이공원화장실","lat":37.562511,"lng":126.91547,"roadAddr":"서울특별시 마포구 월드컵북로12길 33(성산동)","jibunAddr":"서울특별시 마포구 성산동 113-2","openHours":"00~24","maleToilets":3,"femaleToilets":3,"disabled":false,"diaperTable":true,"emergencyBell":true,"cctv":true,"managerTel":"0231539234","source":"public","category":"public"},{"id":"202231300000100398","name":"성지빌딩 화장실","lat":37.541265,"lng":126.946295,"roadAddr":"서울특별시 마포구 큰우물로 75, 성지빌딩 1층 (도화동)","jibunAddr":"서울특별시 마포구 도화동 538 성지빌딩","openHours":"00~24","maleToilets":12,"femaleToilets":6,"disabled":false,"diaperTable":false,"emergencyBell":false,"cctv":false,"source":"public","category":"public"},{"id":"202231300000100254","name":"도화치안센터","lat":37.541287,"lng":126.950206,"roadAddr":"서울특별시 마포구 도화길 40, 도화치안센터 (도화동)","jibunAddr":"서울특별시 마포구 도화동 6-69 도화치안센터","openHours":"09~18","maleToilets":4,"femaleToilets":1,"disabled":true,"diaperTable":false,"emergencyBell":false,"cctv":false,"source":"public","category":"public"},{"id":"202231300000100440","name":"도화청소년문화의집 화장실","lat":37.537634,"lng":126.950216,"roadAddr":"서울특별시 마포구 도화2길 77, 구립도화청소년문화의집 (도화동)","jibunAddr":"서울특별시 마포구 도화동 353-2 구립도화청소년문화의집","openHours":"09~18","maleToilets":6,"femaleToilets":6,"disabled":true,"diaperTable":false,"emergencyBell":false,"cctv":false,"managerTel":"0269352684","source":"public","category":"public"},{"id":"202231300000100265","name":"도화동쉼터","lat":37.536836,"lng":126.951965,"jibunAddr":"서울특별시 마포구 도화동 353-7","openHours":"00~24","maleToilets":2,"femaleToilets":1,"disabled":false,"diaperTable":false,"emergencyBell":true,"cctv":true,"managerTel":"0231539234","source":"public","category":"public"},{"id":"202231300000100287","name":"공덕지구대 화장실","lat":37.551809,"lng":126.95404,"roadAddr":"서울특별시 마포구 마포대로 195-1, 공덕지구대 1층 (아현동)","jibunAddr":"서울특별시 마포구 아현동 785 공덕지구대","openHours":"09~18","maleToilets":0,"femaleToilets":0,"disabled":true,"diaperTable":false,"emergencyBell":false,"cctv":false,"managerTel":"027030492","source":"public","category":"public"},{"id":"202231300000100391","name":"마포어린이공원화장실","lat":37.535841,"lng":126.943675,"roadAddr":"서울특별시 마포구 마포대로4다길 30, 마포어린이공원 화장실 (마포동)","jibunAddr":"서울특별시 마포구 마포동 350-5 마포어린이공원 화장실","openHours":"00~24","maleToilets":2,"femaleToilets":2,"disabled":true,"diaperTable":true,"emergencyBell":true,"cctv":false,"managerTel":"0231539234","source":"public","category":"public"},{"id":"202231300000100319","name":"이대역(2)","lat":37.556798,"lng":126.945758,"roadAddr":"서울특별시 마포구 신촌로 지하 180, 이대역 5번출구 옆 (염리동)","jibunAddr":"서울특별시 마포구 염리동 8-85 이대역","openHours":"05~24","maleToilets":13,"femaleToilets":13,"disabled":true,"diaperTable":true,"emergencyBell":true,"cctv":true,"managerTel":"0261102411","source":"public","category":"public"},{"id":"202231300000100306","name":"염리동주유소 화장실","lat":37.546226,"lng":126.94497,"roadAddr":"서울특별시 마포구 백범로 126 (염리동)","jibunAddr":"서울특별시 마포구 염리동 155-6","openHours":"00~24","maleToilets":2,"femaleToilets":1,"disabled":false,"diaperTable":false,"emergencyBell":false,"cctv":false,"source":"public","category":"public"},{"id":"202231300000100392","name":"진도빌딩 화장실","lat":37.539973,"lng":126.947098,"roadAddr":"서울특별시 마포구 마포대로 44, 진도빌딩 1층 (도화동)","jibunAddr":"서울특별시 마포구 도화동 37 진도빌딩","openHours":"00~24","maleToilets":6,"femaleToilets":1,"disabled":true,"diaperTable":false,"emergencyBell":false,"cctv":false,"source":"public","category":"public"},{"id":"202231300000100444","name":"마포세무서화장실","lat":37.546522,"lng":126.939494,"roadAddr":"서울특별시 마포구 독막로 234, 마포세무서 1층 (신수동)","jibunAddr":"서울특별시 마포구 신수동 43 마포세무서","openHours":"09~18","maleToilets":20,"femaleToilets":27,"disabled":true,"diaperTable":false,"emergencyBell":true,"cctv":false,"managerTel":"027057200","source":"public","category":"public"},{"id":"202231300000100317","name":"마포역(5)","lat":37.539584,"lng":126.94592,"roadAddr":"서울특별시 마포구 마포대로 지하 33, 마포역 토니모리좌측 (도화동)","jibunAddr":"서울특별시 마포구 도화동 160 마포역","openHours":"05~24","maleToilets":8,"femaleToilets":8,"disabled":true,"diaperTable":true,"emergencyBell":true,"cctv":true,"managerTel":"0263115281","source":"public","category":"public"},{"id":"202231300000100248","name":"신수동주민센터 개방화장실","lat":37.547046,"lng":126.935233,"roadAddr":"서울특별시 마포구 독막로 192, 신수동주민센터 (신수동)","jibunAddr":"서울특별시 마포구 신수동 458 신수동주민센터","openHours":"09~18","maleToilets":2,"femaleToilets":2,"disabled":false,"diaperTable":false,"emergencyBell":false,"cctv":true,"source":"public","category":"public"},{"id":"202231300000100428","name":"풍림VIP텔 빌딩 화장실","lat":37.546194,"lng":126.952141,"roadAddr":"서울특별시 마포구 마포대로 127, 풍림브이아이피텔 1층 (공덕동)","jibunAddr":"서울특별시 마포구 공덕동 404 풍림브이아이피텔","openHours":"00~24","maleToilets":6,"femaleToilets":2,"disabled":false,"diaperTable":false,"emergencyBell":false,"cctv":false,"managerTel":"027038354","source":"public","category":"public"},{"id":"202231300000100432","name":"서강동주민센터 화장실","lat":37.547735,"lng":126.932062,"roadAddr":"서울특별시 마포구 독막로 165, 서강동주민센터 (창전동)","jibunAddr":"서울특별시 마포구 창전동 242 서강동주민센터","openHours":"00~24","maleToilets":2,"femaleToilets":3,"disabled":true,"diaperTable":true,"emergencyBell":true,"cctv":true,"managerTel":"0231536724","source":"public","category":"public"},{"id":"202231300000100394","name":"SK허브블루오피스텔","lat":37.552022,"lng":126.956534,"roadAddr":"서울특별시 마포구 마포대로 204, 마포에스케이허브블루 1층 (아현동)","jibunAddr":"서울특별시 마포구 아현동 737 마포에스케이허브블루","openHours":"00~24","maleToilets":4,"femaleToilets":2,"disabled":false,"diaperTable":false,"emergencyBell":false,"cctv":false,"source":"public","category":"public"},{"id":"202231300000100376","name":"서교어린이공원 화장실","lat":37.55202,"lng":126.915476,"roadAddr":"서울특별시 마포구 양화로11길 21, 공중화장실 (서교동)","jibunAddr":"서울특별시 마포구 서교동 391-1 공중화장실","openHours":"00~24","maleToilets":1,"femaleToilets":1,"disabled":true,"diaperTable":true,"emergencyBell":true,"cctv":true,"managerTel":"0231539234","source":"public","category":"public"},{"id":"202231300000100305","name":"공덕역(6)","lat":37.543527,"lng":126.951948,"roadAddr":"서울특별시 마포구 백범로 지하 200, 공덕역 7번출구 앞 (공덕동)","jibunAddr":"서울특별시 마포구 공덕동 439 공덕역","openHours":"05~24","maleToilets":7,"femaleToilets":7,"disabled":true,"diaperTable":true,"emergencyBell":true,"cctv":true,"managerTel":"0263115291","source":"public","category":"public"},{"id":"202231300000100441","name":"마포문화아트센터 화장실","lat":37.549906,"lng":126.945534,"roadAddr":"서울특별시 마포구 대흥로20길 28, 마포아트센터 (대흥동)","jibunAddr":"서울특별시 마포구 대흥동 30-3 마포아트센터","openHours":"00~24","maleToilets":6,"femaleToilets":11,"disabled":true,"diaperTable":true,"emergencyBell":true,"cctv":true,"managerTel":"0232748655","source":"public","category":"public"},{"id":"202231300000100367","name":"홍익문화공원화장실","lat":37.552163,"lng":126.922987,"roadAddr":"서울특별시 마포구 와우산로21길 19-3, 노인정 (서교동)","jibunAddr":"서울특별시 마포구 서교동 359 노인정","openHours":"00~24","maleToilets":3,"femaleToilets":2,"disabled":true,"diaperTable":false,"emergencyBell":true,"cctv":true,"managerTel":"0231539234","source":"public","category":"public"},{"id":"202231300000100373","name":"동교어린이공원화장실","lat":37.560097,"lng":126.923454,"roadAddr":"서울특별시 마포구 연남로 3, 공중화장실 (동교동)","jibunAddr":"서울특별시 마포구 동교동 197-17 공중화장실","openHours":"00~24","maleToilets":1,"femaleToilets":1,"disabled":true,"diaperTable":true,"emergencyBell":true,"cctv":true,"managerTel":"0231539234","source":"public","category":"public"},{"id":"202331300000100002","name":"모닝글로리","lat":37.555113,"lng":126.930566,"roadAddr":"서울특별시 마포구 와우산로 160, 모닝글로리빌딩 (서교동)","jibunAddr":"서울특별시 마포구 서교동 325-16 모닝글로리빌딩","openHours":"10:00~22:00","maleToilets":4,"femaleToilets":4,"disabled":false,"diaperTable":false,"emergencyBell":false,"cctv":true,"source":"public","category":"public"},{"id":"202231300000100374","name":"윗잔다리어린이공원화장실","lat":37.557013,"lng":126.925669,"roadAddr":"서울특별시 마포구 양화로18안길 21, 마포어린이집 (동교동)","jibunAddr":"서울특별시 마포구 동교동 168-1 마포어린이집","openHours":"00~24","maleToilets":2,"femaleToilets":1,"disabled":true,"diaperTable":true,"emergencyBell":true,"cctv":true,"managerTel":"0231539234","source":"public","category":"public"},{"id":"202231300000100308","name":"광흥창역(6)","lat":37.547486,"lng":126.931939,"roadAddr":"서울특별시 마포구 독막로 지하 165, 광흥창역 지하2층 (창전동)","jibunAddr":"서울특별시 마포구 창전동 145-17 광흥창역","openHours":"05~24","maleToilets":8,"femaleToilets":8,"disabled":true,"diaperTable":true,"emergencyBell":true,"cctv":true,"managerTel":"0263116241","source":"public","category":"public"},{"id":"202231300000100372","name":"느티나무어린이공원화장실","lat":37.559507,"lng":126.918717,"roadAddr":"서울특별시 마포구 연남로3길 80 (연남동)","jibunAddr":"서울특별시 마포구 연남동 563-5","openHours":"00~24","maleToilets":1,"femaleToilets":1,"disabled":true,"diaperTable":true,"emergencyBell":true,"cctv":true,"managerTel":"0231539234","source":"public","category":"public"},{"id":"202231300000100255","name":"대흥치안센터","lat":37.547727,"lng":126.941523,"roadAddr":"서울특별시 마포구 대흥로 85, 대흥치안센터 (대흥동)","jibunAddr":"서울특별시 마포구 대흥동 298-4 대흥치안센터","openHours":"09~18","maleToilets":2,"femaleToilets":1,"disabled":false,"diaperTable":false,"emergencyBell":false,"cctv":true,"source":"public","category":"public"},{"id":"202231300000100309","name":"상수역(6)","lat":37.547772,"lng":126.92241,"roadAddr":"서울특별시 마포구 독막로 지하 85, 상수역 지하2층 (상수동)","jibunAddr":"서울특별시 마포구 상수동 309-10 상수역","openHours":"05~24","maleToilets":7,"femaleToilets":6,"disabled":true,"diaperTable":true,"emergencyBell":true,"cctv":true,"managerTel":"0263116231","source":"public","category":"public"},{"id":"202231300000100397","name":"용강동주민센터 화장실","lat":37.542316,"lng":126.942707,"roadAddr":"서울특별시 마포구 토정로31길 31, 용강동주민센터 1층 (용강동)","jibunAddr":"서울특별시 마포구 용강동 505 용강동주민센터","openHours":"00~24","maleToilets":3,"femaleToilets":3,"disabled":true,"diaperTable":true,"emergencyBell":true,"cctv":true,"managerTel":"0231536606","source":"public","category":"public"},{"id":"202431300000100011","name":"염리종합사회복지관","lat":37.55464,"lng":126.948744,"roadAddr":"서울특별시 마포구 대흥로24길 50 (염리동)","jibunAddr":"서울특별시 마포구 염리동 532-2","openHours":"정시","maleToilets":7,"femaleToilets":17,"disabled":true,"diaperTable":true,"emergencyBell":true,"cctv":true,"source":"public","category":"public"},{"id":"202231300000100270","name":"마포소방서 화장실","lat":37.549394,"lng":126.933203,"roadAddr":"서울특별시 마포구 창전로 76, 마포소방서 1층 (신수동)","jibunAddr":"서울특별시 마포구 신수동 100-5 마포소방서","openHours":"00~24","maleToilets":6,"femaleToilets":2,"disabled":true,"diaperTable":false,"emergencyBell":false,"cctv":false,"managerTel":"0269817930","source":"public","category":"public"},{"id":"202231300000100269","name":"염리119안전센터 화장실","lat":37.541734,"lng":126.945573,"roadAddr":"서울특별시 마포구 토정로37길 27, 마포소방서 염리119안전센터 1층 (염리동)","jibunAddr":"서울특별시 마포구 염리동 174-19 마포소방서 염리119안전센터","openHours":"00~24","maleToilets":3,"femaleToilets":1,"disabled":true,"diaperTable":false,"emergencyBell":false,"cctv":false,"managerTel":"027130965","source":"public","category":"public"},{"id":"202431300000100007","name":"마포어르신돌봄센터","lat":37.545085,"lng":126.927019,"roadAddr":"서울특별시 마포구 토정로 148-14 (상수동)","jibunAddr":"서울특별시 마포구 상수동 397","openHours":"정시","maleToilets":4,"femaleToilets":8,"disabled":true,"diaperTable":false,"emergencyBell":true,"cctv":false,"source":"public","category":"public"},{"id":"202231300000100262","name":"노고산 공중화장실","lat":37.553908,"lng":126.941196,"roadAddr":"서울특별시 마포구 고산2길 66-3(노고산동)","jibunAddr":"서울특별시 마포구 노고산동 24-4","openHours":"00~24","maleToilets":2,"femaleToilets":1,"disabled":false,"diaperTable":false,"emergencyBell":true,"cctv":false,"managerTel":"0231539234","source":"public","category":"public"},{"id":"202231300000100383","name":"은행나무어린이공원화장실","lat":37.564865,"lng":126.922198,"roadAddr":"서울특별시 마포구 성미산로29길 17-3, 은행나무어린이공원 화장실 (연남동)","jibunAddr":"서울특별시 마포구 연남동 250-1 은행나무어린이공원 화장실","openHours":"00~24","maleToilets":1,"femaleToilets":2,"disabled":true,"diaperTable":false,"emergencyBell":true,"cctv":true,"managerTel":"0231539234","source":"public","category":"public"},{"id":"202231300000100243","name":"마포구보훈회관 1층","lat":37.546847,"lng":126.934547,"roadAddr":"서울특별시 마포구 신수로 58, 마포구 보훈회관 (신수동)","jibunAddr":"서울특별시 마포구 신수동 371-18 마포구 보훈회관","openHours":"00~24","maleToilets":1,"femaleToilets":0,"disabled":true,"diaperTable":false,"emergencyBell":true,"cctv":true,"source":"public","category":"public"},{"id":"202231300000100288","name":"마포유수지 공영주차장 화장실","lat":37.539211,"lng":126.9434,"roadAddr":"서울특별시 마포구 마포대로1길 9, 마포주차장 정문 (마포동)","jibunAddr":"서울특별시 마포구 마포동 36-1 마포주차장","openHours":"08~21","maleToilets":18,"femaleToilets":6,"disabled":true,"diaperTable":false,"emergencyBell":true,"cctv":false,"managerTel":"0222907184","source":"public","category":"public"},{"id":"202031800000104659","name":"여의도파라곤","lat":37.530929,"lng":126.921083,"roadAddr":"서울특별시 영등포구 국회대로 800","jibunAddr":"서울특별시 영등포구 여의도동 13","openHours":"07:00~22:00","maleToilets":8,"femaleToilets":4,"disabled":false,"diaperTable":false,"emergencyBell":true,"cctv":false,"managerTel":"027858196","source":"public","category":"public"}]