[{"id":"202439900000101389","name":"팔당역","lat":37.54689,"lng":127.243831,"roadAddr":"경기도 남양주시 와부읍 팔당로 107 (팔당리, 팔당역)","jibunAddr":"경기도 남양주시 팔당리 360","openHours":"정시","maleToilets":9,"femaleToilets":9,"disabled":true,"diaperTable":true,"emergencyBell":true,"cctv":true,"managerTel":"0315762888","source":"public","category":"public"},{"id":"202439900000101370","name":"티나새(민간개방화장실)","lat":37.539507,"lng":127.256994,"roadAddr":"경기도 남양주시 다산로 71","jibunAddr":"경기도 남양주시 와부읍 팔당리 55-10","openHours":"정시","maleToilets":3,"femaleToilets":2,"disabled":false,"diaperTable":false,"emergencyBell":false,"cctv":false,"managerTel":"0310000000","source":"public","category":"public"},{"id":"202439900000101244","name":"팔당역 예봉산[팔당-3]","lat":37.547186,"lng":127.251232,"jibunAddr":"경기도 남양주시 와부읍 팔당리 125-1","openHours":"상시","maleToilets":4,"femaleToilets":3,"disabled":false,"diaperTable":false,"emergencyBell":true,"cctv":false,"managerTel":"0315902416","source":"public","category":"public"},{"id":"202439900000101232","name":"남한강자전거(팔당대교)[팔당-1]","lat":37.54823,"lng":127.239905,"jibunAddr":"경기도 남양주시 와부읍 팔당리 409","openHours":"상시","maleToilets":2,"femaleToilets":1,"disabled":false,"diaperTable":false,"emergencyBell":true,"cctv":true,"managerTel":"0315901392","source":"public","category":"public"},{"id":"202439900000101416","name":"남양주시립박물관 화장실","lat":37.546386,"lng":127.244374,"roadAddr":"경기도 남양주시 팔당로 121(와부읍)","jibunAddr":"경기도 남양주시 와부읍 팔당리 237-3","openHours":"정시","maleToilets":6,"femaleToilets":8,"disabled":true,"diaperTable":false,"emergencyBell":false,"cctv":true,"managerTel":"0315908600","source":"public","category":"public"},{"id":"202439900000101344","name":"팔당제2공영주차장[팔당-2]","lat":37.559805,"lng":127.234525,"jibunAddr":"경기도 남양주시 와부읍 팔당리 706-6","openHours":"상시","maleToilets":3,"femaleToilets":3,"disabled":true,"diaperTable":false,"emergencyBell":true,"cctv":true,"managerTel":"0315902848","source":"public","category":"public"},{"id":"202439900000101231","name":"남한강 자전거도곡취수)[도곡-3]","lat":37.568346,"lng":127.227393,"jibunAddr":"경기도 남양주시 와부읍 도곡리 504-41","openHours":"상시","maleToilets":2,"femaleToilets":2,"disabled":false,"diaperTable":false,"emergencyBell":true,"cctv":true,"managerTel":"0315901392","source":"public","category":"public"},{"id":"202439900000101233","name":"남한강 자전거도로[팔당-4]","lat":37.544716,"lng":127.24539,"jibunAddr":"경기도 남양주시 와부읍 팔당리 350-1","openHours":"상시","maleToilets":3,"femaleToilets":2,"disabled":false,"diaperTable":false,"emergencyBell":true,"cctv":true,"managerTel":"0315901392","source":"public","category":"public"},{"id":"202440400000101427","name":"스타필드하남 화장실(2층 서측)","lat":37.545404,"lng":127.22394,"roadAddr":"경기도 하남시 미사대로 750","jibunAddr":"경기도 하남시 신장동 616","openHours":"정시","maleToilets":11,"femaleToilets":14,"disabled":true,"diaperTable":false,"emergencyBell":false,"cctv":false,"managerTel":"03118339001","source":"public","category":"public"},{"id":"202440400000101445","name":"셀프광장주유소","lat":37.531849,"lng":127.225986,"roadAddr":"경기도 하남시 창우로 56 (창우동)","jibunAddr":"경기도 하남시 창우동 361-5","openHours":"상시","maleToilets":4,"femaleToilets":3,"disabled":false,"diaperTable":false,"emergencyBell":false,"cctv":false,"managerTel":"0317952001","source":"public","category":"public"},{"id":"202440400000101425","name":"스타필드하남 화장실(1층 서측)","lat":37.545404,"lng":127.22394,"roadAddr":"경기도 하남시 미사대로 750","jibunAddr":"경기도 하남시 신장동 616","openHours":"정시","maleToilets":11,"femaleToilets":5,"disabled":true,"diaperTable":false,"emergencyBell":false,"cctv":false,"managerTel":"03118339001","source":"public","category":"public"},{"id":"202440400000101213","name":"창우 배드민턴장","lat":37.539297,"lng":127.224505,"roadAddr":"경기도 하남시 창우동520-2","jibunAddr":"경기도 하남시 창우동 520-2","openHours":"상시","maleToilets":2,"femaleToilets":2,"disabled":false,"diaperTable":false,"emergencyBell":true,"cctv":false,"managerTel":"0317905116","source":"public","category":"public"},{"id":"202440400000100963","name":"신장둔치","lat":37.545394,"lng":127.228801,"roadAddr":"경기도 하남시 미사대로 775","jibunAddr":"경기도 하남시 창우동 133-3","openHours":"상시","maleToilets":3,"femaleToilets":2,"disabled":false,"diaperTable":false,"emergencyBell":true,"cctv":false,"managerTel":"0317905145","source":"public","category":"public"},{"id":"202440400000101112","name":"스타필드하남 메가박스 화장실(키즈)","lat":37.545404,"lng":127.22394,"roadAddr":"경기도 하남시 미사대로 750","jibunAddr":"경기도 하남시 신장동 616","openHours":"정시","maleToilets":2,"femaleToilets":2,"disabled":false,"diaperTable":false,"emergencyBell":false,"cctv":false,"managerTel":"03151821289","source":"public","category":"public"},{"id":"202440400000101089","name":"이마트트레이더스하남 화장실(고객)","lat":37.545404,"lng":127.22394,"roadAddr":"경기도 하남시 미사대로 750","jibunAddr":"경기도 하남시 신장동 616","openHours":"정시","maleToilets":10,"femaleToilets":8,"disabled":false,"diaperTable":true,"emergencyBell":true,"cctv":false,"managerTel":"03180691211","source":"public","category":"public"},{"id":"202440400000100929","name":"꿈돌이공원","lat":37.535431,"lng":127.22348,"roadAddr":"경기도 하남시 천현로 129","jibunAddr":"경기도 하남시 창우동 521-7","openHours":"상시","maleToilets":2,"femaleToilets":2,"disabled":true,"diaperTable":false,"emergencyBell":true,"cctv":false,"managerTel":"0317905145","source":"public","category":"public"},{"id":"202440400000101420","name":"스타필드하남 화장실(지하2층 동측)","lat":37.545404,"lng":127.22394,"roadAddr":"경기도 하남시 미사대로 750","jibunAddr":"경기도 하남시 신장동 616","openHours":"정시","maleToilets":2,"femaleToilets":2,"disabled":false,"diaperTable":false,"emergencyBell":false,"cctv":false,"managerTel":"03118339001","source":"public","category":"public"},{"id":"202440400000100955","name":"엄마사랑화장실","lat":37.536532,"lng":127.229437,"roadAddr":"경기도 하남시 검단산로250번길 3-6","jibunAddr":"경기도 하남시 창우동 265-1","openHours":"상시","maleToilets":5,"femaleToilets":4,"disabled":true,"diaperTable":true,"emergencyBell":true,"cctv":false,"managerTel":"0317905145","source":"public","category":"public"},{"id":"202440400000101109","name":"스타필드하남 아쿠아필드 화장실(찜질방)","lat":37.545404,"lng":127.22394,"roadAddr":"경기도 하남시 미사대로 750","jibunAddr":"경기도 하남시 신장동 616","openHours":"정시","maleToilets":7,"femaleToilets":6,"disabled":false,"diaperTable":false,"emergencyBell":false,"cctv":false,"managerTel":"03118339001","source":"public","category":"public"},{"id":"202440400000101414","name":"스타필드하남 메가박스 화장실(MX)","lat":37.545404,"lng":127.22394,"roadAddr":"경기도 하남시 미사대로 750","jibunAddr":"경기도 하남시 신장동 616","openHours":"정시","maleToilets":3,"femaleToilets":2,"disabled":false,"diaperTable":false,"emergencyBell":false,"cctv":false,"managerTel":"03151821289","source":"public","category":"public"},{"id":"202440400000101115","name":"스타필드하남 메가박스 화장실(5관앞)","lat":37.545404,"lng":127.22394,"roadAddr":"경기도 하남시 미사대로 750","jibunAddr":"경기도 하남시 신장동 616","openHours":"정시","maleToilets":4,"femaleToilets":3,"disabled":false,"diaperTable":false,"emergencyBell":false,"cctv":false,"managerTel":"03151821289","source":"public","category":"public"},{"id":"202440400000101108","name":"신세계백화점하남 지하1층","lat":37.545404,"lng":127.22394,"roadAddr":"경기도 하남시 미사대로750","jibunAddr":"경기도 하남시 신장동 616","openHours":"정시","maleToilets":5,"femaleToilets":7,"disabled":true,"diaperTable":true,"emergencyBell":true,"cctv":false,"managerTel":"03180721041","source":"public","category":"public"},{"id":"202440400000100926","name":"새나라공원","lat":37.542363,"lng":127.223161,"roadAddr":"경기도 하남시 신장동로 145","jibunAddr":"경기도 하남시 창우동 518-1","openHours":"상시","maleToilets":3,"femaleToilets":1,"disabled":false,"diaperTable":false,"emergencyBell":true,"cctv":false,"managerTel":"0317905145","source":"public","category":"public"},{"id":"202440400000101106","name":"신세계백화점하남 2층","lat":37.545404,"lng":127.22394,"roadAddr":"경기도 하남시 미사대로750","jibunAddr":"경기도 하남시 신장동 616","openHours":"정시","maleToilets":5,"femaleToilets":8,"disabled":true,"diaperTable":true,"emergencyBell":true,"cctv":false,"managerTel":"03180721041","source":"public","category":"public"},{"id":"202440400000101421","name":"스타필드하남 화장실(지하1층 서측)","lat":37.545404,"lng":127.22394,"roadAddr":"경기도 하남시 미사대로 750","jibunAddr":"경기도 하남시 신장동 616","openHours":"정시","maleToilets":3,"femaleToilets":5,"disabled":true,"diaperTable":false,"emergencyBell":false,"cctv":false,"managerTel":"03118339001","source":"public","category":"public"},{"id":"202440400000101116","name":"스타필드하남 화장실(지하3층 서측2홀)","lat":37.545404,"lng":127.22394,"roadAddr":"경기도 하남시 미사대로 750","jibunAddr":"경기도 하남시 신장동 616","openHours":"정시","maleToilets":3,"femaleToilets":3,"disabled":true,"diaperTable":false,"emergencyBell":false,"cctv":false,"managerTel":"03118339001","source":"public","category":"public"},{"id":"202440400000101411","name":"스타필드하남 아쿠아필드 화장실(실내워터파크)","lat":37.545404,"lng":127.22394,"roadAddr":"경기도 하남시 미사대로 750","jibunAddr":"경기도 하남시 신장동 616","openHours":"정시","maleToilets":6,"femaleToilets":8,"disabled":false,"diaperTable":false,"emergencyBell":false,"cctv":false,"managerTel":"03118339001","source":"public","category":"public"},{"id":"202440400000101413","name":"스타필드하남 메가박스 화장실(로비)","lat":37.545404,"lng":127.22394,"roadAddr":"경기도 하남시 미사대로 750","jibunAddr":"경기도 하남시 신장동 616","openHours":"정시","maleToilets":6,"femaleToilets":16,"disabled":true,"diaperTable":false,"emergencyBell":false,"cctv":false,"managerTel":"03151821289","source":"public","category":"public"},{"id":"202440400000100967","name":"창우동 자전거 교육장","lat":37.543864,"lng":127.234955,"roadAddr":"경기도 하남시 한강남자전거길 5218","jibunAddr":"경기도 하남시 창우동 469-2","openHours":"상시","maleToilets":2,"femaleToilets":1,"disabled":false,"diaperTable":false,"emergencyBell":true,"cctv":false,"managerTel":"0317905145","source":"public","category":"public"},{"id":"202440400000101225","name":"은방울공원","lat":37.539731,"lng":127.224537,"roadAddr":"경기도 하남시 대청로 109","jibunAddr":"경기도 하남시 창우동 518-4","openHours":"상시","maleToilets":3,"femaleToilets":2,"disabled":true,"diaperTable":false,"emergencyBell":true,"cctv":false,"managerTel":"0317905145","source":"public","category":"public"},{"id":"202440400000101426","name":"스타필드하남 화장실(1층 동측)","lat":37.545404,"lng":127.22394,"roadAddr":"경기도 하남시 미사대로 750","jibunAddr":"경기도 하남시 신장동 616","openHours":"정시","maleToilets":11,"femaleToilets":14,"disabled":true,"diaperTable":false,"emergencyBell":false,"cctv":false,"managerTel":"03118339001","source":"public","category":"public"},{"id":"202440400000101110","name":"스타필드하남 아쿠아필드 화장실(사우나)","lat":37.545404,"lng":127.22394,"roadAddr":"경기도 하남시 미사대로 750","jibunAddr":"경기도 하남시 신장동 616","openHours":"정시","maleToilets":7,"femaleToilets":6,"disabled":true,"diaperTable":false,"emergencyBell":false,"cctv":false,"managerTel":"03118339001","source":"public","category":"public"},{"id":"202440400000101122","name":"스타필드하남 화장실(4층 스포츠몬스터)","lat":37.545404,"lng":127.22394,"roadAddr":"경기도 하남시 미사대로 750","jibunAddr":"경기도 하남시 신장동 616","openHours":"정시","maleToilets":3,"femaleToilets":3,"disabled":false,"diaperTable":false,"emergencyBell":false,"cctv":false,"managerTel":"03118339001","source":"public","category":"public"},{"id":"202440400000101118","name":"스타필드하남 화장실(지하3층 동측)","lat":37.545404,"lng":127.22394,"roadAddr":"경기도 하남시 미사대로 750","jibunAddr":"경기도 하남시 신장동 616","openHours":"정시","maleToilets":2,"femaleToilets":2,"disabled":false,"diaperTable":false,"emergencyBell":false,"cctv":false,"managerTel":"03118339001","source":"public","category":"public"},{"id":"202440400000101123","name":"스타필드하남 (구) 와인 메가샵 (공사중)","lat":37.545404,"lng":127.22394,"roadAddr":"경기도 하남시 미사대로 750","jibunAddr":"경기도 하남시 신장동 616","openHours":"정시","maleToilets":7,"femaleToilets":6,"disabled":false,"diaperTable":false,"emergencyBell":false,"cctv":false,"managerTel":"03118339001","source":"public","category":"public"},{"id":"202440400000101419","name":"스타필드하남 화장실(지하2층 서측)","lat":37.545404,"lng":127.22394,"roadAddr":"경기도 하남시 미사대로 750","jibunAddr":"경기도 하남시 신장동 616","openHours":"정시","maleToilets":4,"femaleToilets":3,"disabled":true,"diaperTable":false,"emergencyBell":false,"cctv":false,"managerTel":"03118339001","source":"public","category":"public"},{"id":"202440400000100954","name":"검단산등산로(아빠사랑화장실)","lat":37.532294,"lng":127.229793,"roadAddr":"경기도 하남시 검단산로218번길 41-28","jibunAddr":"경기도 하남시 창우동 산14-7","openHours":"상시","maleToilets":4,"femaleToilets":4,"disabled":false,"diaperTable":false,"emergencyBell":true,"cctv":false,"managerTel":"0317905145","source":"public","category":"public"},{"id":"202440400000101128","name":"스타필드하남 화장실(2층 동측)","lat":37.545404,"lng":127.22394,"roadAddr":"경기도 하남시 미사대로 750","jibunAddr":"경기도 하남시 신장동 616","openHours":"정시","maleToilets":11,"femaleToilets":14,"disabled":true,"diaperTable":false,"emergencyBell":false,"cctv":false,"managerTel":"03118339001","source":"public","category":"public"},{"id":"202440400000101107","name":"신세계백화점하남 1층","lat":37.545404,"lng":127.22394,"roadAddr":"경기도 하남시 미사대로750","jibunAddr":"경기도 하남시 신장동 616","openHours":"정시","maleToilets":5,"femaleToilets":8,"disabled":true,"diaperTable":true,"emergencyBell":true,"cctv":false,"managerTel":"03180721041","source":"public","category":"public"},{"id":"202440400000100922","name":"신장 근린제2호공원","lat":37.537711,"lng":127.225709,"roadAddr":"경기도 하남시 대청로116번길 41","jibunAddr":"경기도 하남시 창우동 521-4","openHours":"상시","maleToilets":2,"femaleToilets":1,"disabled":true,"diaperTable":false,"emergencyBell":true,"cctv":false,"managerTel":"0317905145","source":"public","category":"public"},{"id":"202440400000101130","name":"스타필드하남 화장실(3층 동측)","lat":37.545404,"lng":127.22394,"roadAddr":"경기도 하남시 미사대로 750","jibunAddr":"경기도 하남시 신장동 616","openHours":"정시","maleToilets":7,"femaleToilets":8,"disabled":true,"diaperTable":false,"emergencyBell":false,"cctv":false,"managerTel":"03118339001","source":"public","category":"public"},{"id":"202440400000101105","name":"신세계백화점하남 3층","lat":37.545404,"lng":127.22394,"roadAddr":"경기도 하남시 미사대로750","jibunAddr":"경기도 하남시 신장동 616","openHours":"정시","maleToilets":6,"femaleToilets":7,"disabled":true,"diaperTable":true,"emergencyBell":true,"cctv":false,"managerTel":"03180721041","source":"public","category":"public"},{"id":"202440400000101124","name":"스타필드하남 화장실(지하1층 동측)","lat":37.545404,"lng":127.22394,"roadAddr":"경기도 하남시 미사대로 750","jibunAddr":"경기도 하남시 신장동 616","openHours":"정시","maleToilets":5,"femaleToilets":3,"disabled":true,"diaperTable":false,"emergencyBell":false,"cctv":false,"managerTel":"03118339001","source":"public","category":"public"},{"id":"202440400000101117","name":"스타필드하남 화장실(지하3층 서측1홀)","lat":37.545404,"lng":127.22394,"roadAddr":"경기도 하남시 미사대로 750","jibunAddr":"경기도 하남시 신장동 616","openHours":"정시","maleToilets":7,"femaleToilets":5,"disabled":true,"diaperTable":false,"emergencyBell":false,"cctv":false,"managerTel":"03118339001","source":"public","category":"public"},{"id":"202440400000101429","name":"스타필드하남 화장실(3층 서측)","lat":37.545404,"lng":127.22394,"roadAddr":"경기도 하남시 미사대로 750","jibunAddr":"경기도 하남시 신장동 616","openHours":"정시","maleToilets":11,"femaleToilets":14,"disabled":true,"diaperTable":false,"emergencyBell":false,"cctv":false,"managerTel":"03118339001","source":"public","category":"public"}]