[{"id":"202230400000100896","name":"프라임중앙상가","lat":37.536958,"lng":127.096537,"roadAddr":"서울특별시 광진구 광나루로56길 29","openHours":"08:00~22:00","maleToilets":8,"femaleToilets":4,"disabled":false,"diaperTable":false,"emergencyBell":false,"cctv":false,"managerTel":"024501375","source":"public","category":"public"},{"id":"202230400000100863","name":"와이엔오피스텔","lat":37.538537,"lng":127.091936,"roadAddr":"서울특별시 광진구 아차산로 444","openHours":"00:00~00:00","maleToilets":3,"femaleToilets":2,"disabled":false,"diaperTable":false,"emergencyBell":false,"cctv":false,"managerTel":"024501375","source":"public","category":"public"},{"id":"202230400000100803","name":"강변역(2)","lat":37.535368,"lng":127.094551,"roadAddr":"서울특별시 광진구 구의동 546-6 2호선 강변역","jibunAddr":"서울특별시 광진구 구의동 546-6 2호선 강변역","openHours":"05:00~24:00","maleToilets":12,"femaleToilets":14,"disabled":false,"diaperTable":true,"emergencyBell":true,"cctv":true,"managerTel":"0261102141","source":"public","category":"public"},{"id":"202230400000100729","name":"구의3동주민센터 공중화장실","lat":37.537993,"lng":127.091985,"roadAddr":"서울특별시 광진구 강변역로 17","openHours":"00:00~00:00","maleToilets":4,"femaleToilets":3,"disabled":true,"diaperTable":false,"emergencyBell":true,"cctv":false,"managerTel":"024501375","source":"public","category":"public"},{"id":"202230400000100734","name":"구의공원 공중화장실","lat":37.536797,"lng":127.095062,"roadAddr":"서울특별시 광진구 광나루로56길 86","openHours":"00:00~00:00","maleToilets":4,"femaleToilets":3,"disabled":true,"diaperTable":true,"emergencyBell":true,"cctv":false,"managerTel":"024501375","source":"public","category":"public"},{"id":"202230400000100780","name":"구의3동 공영주차장","lat":37.539125,"lng":127.091426,"roadAddr":"서울특별시 광진구 광나루로52길 83","openHours":"00:00~00:00","maleToilets":2,"femaleToilets":1,"disabled":false,"diaperTable":false,"emergencyBell":false,"cctv":false,"managerTel":"0220494540","source":"public","category":"public"},{"id":"202230400000100860","name":"인성빌딩","lat":37.548593,"lng":127.106982,"roadAddr":"서울특별시 광진구 아차산로 623","openHours":"00:00~00:00","maleToilets":6,"femaleToilets":2,"disabled":false,"diaperTable":false,"emergencyBell":false,"cctv":false,"managerTel":"024501375","source":"public","category":"public"},{"id":"202230400000100733","name":"무궁화공원","lat":37.541431,"lng":127.094391,"roadAddr":"서울특별시 광진구 광나루로52길 12","openHours":"00:00~00:00","maleToilets":4,"femaleToilets":2,"disabled":false,"diaperTable":true,"emergencyBell":true,"cctv":false,"managerTel":"024501375","source":"public","category":"public"},{"id":"202230400000100859","name":"워커힐상가","lat":37.54944,"lng":127.107218,"roadAddr":"서울특별시 광진구 아차산로 635","openHours":"00:00~00:00","maleToilets":5,"femaleToilets":4,"disabled":false,"diaperTable":false,"emergencyBell":false,"cctv":false,"managerTel":"024501375","source":"public","category":"public"},{"id":"202230400000100782","name":"광진구민체육센터 화장실","lat":37.54601,"lng":127.106801,"roadAddr":"서울특별시 광진구 구천면로 14","openHours":"06:00~22:00","maleToilets":5,"femaleToilets":5,"disabled":false,"diaperTable":true,"emergencyBell":false,"cctv":false,"managerTel":"0220494800","source":"public","category":"public"},{"id":"202230400000100786","name":"광장동 체육부지 공용화장실","lat":37.545436,"lng":127.105914,"roadAddr":"서울특별시 광진구 아차산로 588","openHours":"00:00~00:00","maleToilets":2,"femaleToilets":1,"disabled":false,"diaperTable":false,"emergencyBell":false,"cctv":false,"managerTel":"024507588","source":"public","category":"public"},{"id":"202230400000100781","name":"광진문화원 화장실","lat":37.536513,"lng":127.096478,"roadAddr":"서울특별시 광진구 광나루로56길 67","openHours":"09:00~22:00","maleToilets":4,"femaleToilets":2,"disabled":false,"diaperTable":false,"emergencyBell":false,"cctv":false,"managerTel":"024470244","source":"public","category":"public"},{"id":"202230400000100861","name":"강평 주유소","lat":37.547646,"lng":127.107296,"roadAddr":"서울특별시 광진구 아차산로 616","openHours":"00:00~00:00","maleToilets":3,"femaleToilets":2,"disabled":false,"diaperTable":false,"emergencyBell":false,"cctv":false,"managerTel":"024501375","source":"public","category":"public"},{"id":"202230400000100751","name":"온달공원","lat":37.545987,"lng":127.104076,"roadAddr":"서울특별시 광진구 아차산로73길 15","openHours":"00:00~00:00","maleToilets":4,"femaleToilets":4,"disabled":true,"diaperTable":true,"emergencyBell":true,"cctv":false,"managerTel":"024501375","source":"public","category":"public"},{"id":"202230400000100732","name":"푸른동산공원","lat":37.542795,"lng":127.091001,"roadAddr":"서울특별시 광진구 광나루로44길 32","openHours":"00:00~00:00","maleToilets":4,"femaleToilets":2,"disabled":false,"diaperTable":false,"emergencyBell":true,"cctv":false,"managerTel":"024501375","source":"public","category":"public"},{"id":"202230400000100772","name":"구의3동주민센터","lat":37.537993,"lng":127.091985,"roadAddr":"서울특별시 광진구 강변역로 17","openHours":"09:00~18:00","maleToilets":5,"femaleToilets":3,"disabled":true,"diaperTable":false,"emergencyBell":false,"cctv":false,"managerTel":"024501508","source":"public","category":"public"},{"id":"202230400000100833","name":"삼호 주유소","lat":37.545722,"lng":127.103717,"roadAddr":"서울특별시 광진구 천호대로 809","openHours":"00:00~00:00","maleToilets":3,"femaleToilets":2,"disabled":false,"diaperTable":false,"emergencyBell":false,"cctv":false,"managerTel":"024501375","source":"public","category":"public"},{"id":"202430400000100135","name":"아차산숲속도서관","lat":37.552474,"lng":127.100816,"roadAddr":"서울특별시 광진구 영화사로 139","openHours":"09:00~18:00(화요일미개방)","maleToilets":2,"femaleToilets":2,"disabled":true,"diaperTable":true,"emergencyBell":true,"cctv":true,"source":"public","category":"public"},{"id":"202230400000100737","name":"긴고랑어린이공원","lat":37.558855,"lng":127.091019,"roadAddr":"서울특별시 광진구 긴고랑로 143","openHours":"00:00~00:00","maleToilets":3,"femaleToilets":3,"disabled":false,"diaperTable":false,"emergencyBell":true,"cctv":false,"managerTel":"024501375","source":"public","category":"public"},{"id":"202230400000100794","name":"구의2동주택가 공용주차장","lat":37.552936,"lng":127.092843,"roadAddr":"서울특별시 광진구 자양로 307","openHours":"00:00~00:00","maleToilets":4,"femaleToilets":4,"disabled":true,"diaperTable":false,"emergencyBell":false,"cctv":false,"managerTel":"0220494534","source":"public","category":"public"},{"id":"202230400000100800","name":"광진구청 청소과 화장실","lat":37.545517,"lng":127.10073,"roadAddr":"서울특별시 광진구 천호대로 788","openHours":"09:00~18:00","maleToilets":5,"femaleToilets":3,"disabled":false,"diaperTable":false,"emergencyBell":false,"cctv":false,"managerTel":"024501375","source":"public","category":"public"},{"id":"202230400000100894","name":"구의현대2단지종합상가","lat":37.537097,"lng":127.095326,"roadAddr":"서울특별시 광진구 광나루로56길 66","openHours":"08:00~00:00","maleToilets":5,"femaleToilets":2,"disabled":false,"diaperTable":false,"emergencyBell":false,"cctv":false,"managerTel":"024501375","source":"public","category":"public"},{"id":"202230400000100753","name":"아차산생태공원","lat":37.552298,"lng":127.100495,"roadAddr":"서울특별시 광진구 영화사로 145","openHours":"00:00~00:00","maleToilets":5,"femaleToilets":8,"disabled":true,"diaperTable":true,"emergencyBell":true,"cctv":false,"managerTel":"024501375","source":"public","category":"public"},{"id":"202230400000100797","name":"광장동실내배드민턴장","lat":37.544425,"lng":127.100196,"roadAddr":"서울특별시 광진구 천호대로140길 40","openHours":"06:00~22:00","maleToilets":5,"femaleToilets":5,"disabled":true,"diaperTable":false,"emergencyBell":false,"cctv":false,"managerTel":"024589063","source":"public","category":"public"},{"id":"202430400000100125","name":"삼호주유소","lat":37.545722,"lng":127.103717,"roadAddr":"서울특별시 광진구 천호대로 809","openHours":"미개방","maleToilets":3,"femaleToilets":3,"disabled":false,"diaperTable":false,"emergencyBell":false,"cctv":true,"source":"public","category":"public"},{"id":"202230400000100752","name":"광장동청년회","lat":37.548897,"lng":127.110043,"roadAddr":"서울특별시 광진구 아차산로78길 133","openHours":"00:00~00:00","maleToilets":3,"femaleToilets":2,"disabled":false,"diaperTable":false,"emergencyBell":true,"cctv":false,"managerTel":"024501375","source":"public","category":"public"},{"id":"202230400000100806","name":"광나루역(5)","lat":37.54517,"lng":127.103503,"roadAddr":"서울특별시 광진구 광장동 237 광나루역","jibunAddr":"서울특별시 광진구 광장동 237 광나루역","openHours":"05:00~24:00","maleToilets":12,"femaleToilets":14,"disabled":false,"diaperTable":true,"emergencyBell":true,"cctv":true,"managerTel":"0263115461","source":"public","category":"public"},{"id":"202230400000100851","name":"정립회관","lat":37.550537,"lng":127.097917,"roadAddr":"서울특별시 광진구 워커힐로 93","openHours":"06:00~22:00","maleToilets":6,"femaleToilets":5,"disabled":true,"diaperTable":false,"emergencyBell":false,"cctv":false,"managerTel":"024501375","source":"public","category":"public"},{"id":"202230400000100899","name":"대한빌딩","lat":37.541796,"lng":127.094709,"roadAddr":"서울특별시 광진구 광나루로 602","openHours":"07:00~23:00","maleToilets":3,"femaleToilets":1,"disabled":false,"diaperTable":false,"emergencyBell":false,"cctv":false,"managerTel":"024501375","source":"public","category":"public"},{"id":"202230400000100749","name":"목련공원 공중화장실","lat":37.54051,"lng":127.090628,"roadAddr":"서울특별시 광진구 아차산로59길 49","openHours":"00:00~00:00","maleToilets":4,"femaleToilets":4,"disabled":true,"diaperTable":true,"emergencyBell":true,"cctv":false,"managerTel":"024501375","source":"public","category":"public"},{"id":"202430400000100122","name":"강평텔레콤강평주유소","lat":37.547646,"lng":127.107296,"roadAddr":"서울특별시 광진구 아차산로 616","openHours":"미개방","maleToilets":3,"femaleToilets":2,"disabled":false,"diaperTable":false,"emergencyBell":false,"cctv":true,"source":"public","category":"public"},{"id":"202230400000100773","name":"광장동주민센터","lat":37.546883,"lng":127.10301,"roadAddr":"서울특별시 광진구 광장로 52","openHours":"09:00~18:00","maleToilets":4,"femaleToilets":2,"disabled":true,"diaperTable":true,"emergencyBell":false,"cctv":false,"managerTel":"024501509","source":"public","category":"public"},{"id":"202230400000100895","name":"프라임프라자상가","lat":37.536789,"lng":127.096161,"roadAddr":"서울특별시 광진구 광나루로56길 63","openHours":"00:00~00:00","maleToilets":11,"femaleToilets":6,"disabled":false,"diaperTable":false,"emergencyBell":false,"cctv":false,"managerTel":"024501375","source":"public","category":"public"},{"id":"202230400000100904","name":"동서울터미널종합상가","lat":37.534539,"lng":127.094184,"roadAddr":"서울특별시 광진구 강변역로 50","openHours":"04:00~00:00","maleToilets":25,"femaleToilets":11,"disabled":false,"diaperTable":false,"emergencyBell":false,"cctv":false,"managerTel":"024501375","source":"public","category":"public"},{"id":"202230400000100897","name":"광장현대3단지종합상가","lat":37.540064,"lng":127.097812,"roadAddr":"서울특별시 광진구 광나루로 635","openHours":"00:00~00:00","maleToilets":5,"femaleToilets":2,"disabled":false,"diaperTable":false,"emergencyBell":false,"cctv":false,"managerTel":"024501375","source":"public","category":"public"},{"id":"202230400000100871","name":"광성빌딩","lat":37.534225,"lng":127.091432,"roadAddr":"서울특별시 광진구 뚝섬로 742","openHours":"00:00~00:00","maleToilets":4,"femaleToilets":2,"disabled":false,"diaperTable":false,"emergencyBell":false,"cctv":false,"managerTel":"024501375","source":"public","category":"public"},{"id":"202230400000100903","name":"리젠트오피스텔","lat":37.532601,"lng":127.092596,"roadAddr":"서울특별시 광진구 강변역로4길 68","openHours":"04:00~01:00","maleToilets":6,"femaleToilets":3,"disabled":false,"diaperTable":false,"emergencyBell":false,"cctv":false,"managerTel":"024501375","source":"public","category":"public"},{"id":"202230400000100898","name":"진넥스 베르디엠","lat":37.541578,"lng":127.094914,"roadAddr":"서울특별시 광진구 광나루로 604","openHours":"05:00~01:00","maleToilets":2,"femaleToilets":2,"disabled":false,"diaperTable":false,"emergencyBell":false,"cctv":false,"managerTel":"024501375","source":"public","category":"public"},{"id":"202230400000100788","name":"광진정보도서관 1층 화장실","lat":37.551073,"lng":127.110615,"roadAddr":"서울특별시 광진구 아차산로78길 90","openHours":"09:00~22:00","maleToilets":3,"femaleToilets":2,"disabled":false,"diaperTable":false,"emergencyBell":false,"cctv":false,"managerTel":"0234375092","source":"public","category":"public"},{"id":"202230400000100735","name":"평강공원","lat":37.547949,"lng":127.100771,"roadAddr":"서울특별시 광진구 광장로1가길 31","openHours":"00:00~00:00","maleToilets":2,"femaleToilets":1,"disabled":false,"diaperTable":false,"emergencyBell":true,"cctv":false,"managerTel":"024501375","source":"public","category":"public"},{"id":"202230400000100909","name":"아원빌딩","lat":37.532909,"lng":127.091872,"roadAddr":"서울특별시 광진구 구의강변로 22","openHours":"08:00~24:00","maleToilets":2,"femaleToilets":1,"disabled":false,"diaperTable":false,"emergencyBell":false,"cctv":false,"managerTel":"024501375","source":"public","category":"public"},{"id":"202230400000100858","name":"한울복지관(PARADIA)","lat":37.549173,"lng":127.108447,"roadAddr":"서울특별시 광진구 아차산로 636","openHours":"00:00~00:00","maleToilets":6,"femaleToilets":1,"disabled":false,"diaperTable":false,"emergencyBell":false,"cctv":false,"managerTel":"024501375","source":"public","category":"public"},{"id":"202230400000100750","name":"광남중학교입구","lat":37.540486,"lng":127.102903,"roadAddr":"서울특별시 광진구 아차산로70길 17-47","openHours":"00:00~00:00","maleToilets":1,"femaleToilets":1,"disabled":true,"diaperTable":false,"emergencyBell":true,"cctv":false,"managerTel":"024501375","source":"public","category":"public"},{"id":"202230400000100862","name":"진넥스오딧세이","lat":37.541357,"lng":127.097232,"roadAddr":"서울특별시 광진구 아차산로 502","openHours":"00:00~00:00","maleToilets":3,"femaleToilets":2,"disabled":false,"diaperTable":false,"emergencyBell":false,"cctv":false,"managerTel":"024501375","source":"public","category":"public"},{"id":"202430400000100134","name":"광진정보도서관","lat":37.551073,"lng":127.110615,"roadAddr":"서울특별시 광진구 아차산로78길 90","openHours":"07:00~22:00(평일),07:00~21:00(토,일),(2,4주화요일,법정공휴일미개방)","maleToilets":26,"femaleToilets":20,"disabled":true,"diaperTable":true,"emergencyBell":true,"cctv":true,"source":"public","category":"public"},{"id":"202230400000100758","name":"숲나루공원","lat":37.547528,"lng":127.098158,"roadAddr":"서울특별시 광진구 구의동 38-17","jibunAddr":"서울특별시 광진구 구의동 38-17","openHours":"00:00~00:00","maleToilets":5,"femaleToilets":3,"disabled":true,"diaperTable":true,"emergencyBell":true,"cctv":false,"managerTel":"024501375","source":"public","category":"public"},{"id":"202230400000100802","name":"구의역(2)","lat":37.538321,"lng":127.090767,"roadAddr":"서울특별시 광진구 구의동 245-24 2호선 구의역","jibunAddr":"서울특별시 광진구 구의동 245-24 2호선 구의역","openHours":"05:00~24:00","maleToilets":7,"femaleToilets":6,"disabled":false,"diaperTable":true,"emergencyBell":true,"cctv":true,"managerTel":"0261102131","source":"public","category":"public"},{"id":"202230400000100893","name":"테크노마트","lat":37.535725,"lng":127.095692,"roadAddr":"서울특별시 광진구 광나루로56길 85","openHours":"10:00~20:00","maleToilets":7,"femaleToilets":4,"disabled":true,"diaperTable":false,"emergencyBell":false,"cctv":false,"managerTel":"024501375","source":"public","category":"public"},{"id":"202230400000100754","name":"해오름공원","lat":37.556785,"lng":127.092185,"roadAddr":"서울특별시 광진구 영화사로7길 25","openHours":"00:00~00:00","maleToilets":4,"femaleToilets":4,"disabled":true,"diaperTable":true,"emergencyBell":true,"cctv":false,"managerTel":"024501375","source":"public","category":"public"},{"id":"202230400000100828","name":"구의야구공원화장실","lat":37.547212,"lng":127.096818,"roadAddr":"서울특별시 광진구 워커힐로 57-30","openHours":"09:00~18:00","maleToilets":11,"femaleToilets":5,"disabled":false,"diaperTable":false,"emergencyBell":false,"cctv":false,"managerTel":"0234362889","source":"public","category":"public"},{"id":"202532300000100660","name":"풍납빌딩(삼성생명빌딩)","lat":37.538242,"lng":127.122892,"roadAddr":"서울특별시 송파구 올림픽로 633","jibunAddr":"서울특별시 송파구 풍납동 473-5","openHours":"09:00-18:00","maleToilets":6,"femaleToilets":3,"disabled":false,"diaperTable":false,"emergencyBell":false,"cctv":true,"managerTel":"024893149","source":"public","category":"public"},{"id":"202532300000100671","name":"성광교회","lat":37.529362,"lng":127.116374,"roadAddr":"서울특별시 송파구 토성로 55","jibunAddr":"서울특별시 송파구 풍납동 405","openHours":"상시","maleToilets":4,"femaleToilets":2,"disabled":false,"diaperTable":false,"emergencyBell":false,"cctv":false,"source":"public","category":"public"},{"id":"202532300000100477","name":"풍납족구장 화장실","lat":37.530658,"lng":127.11031,"roadAddr":"서울특별시 송파구 풍납동 310-17","jibunAddr":"서울특별시 송파구 풍납동 310-17","openHours":"상시","maleToilets":2,"femaleToilets":2,"disabled":false,"diaperTable":false,"emergencyBell":false,"cctv":false,"managerTel":"0221475134","source":"public","category":"public"},{"id":"202532300000100551","name":"풍납공원 화장실","lat":37.538177,"lng":127.121752,"roadAddr":"서울특별시 송파구 풍납동 74","jibunAddr":"서울특별시 송파구 풍납동 74","openHours":"상시","maleToilets":4,"femaleToilets":4,"disabled":true,"diaperTable":false,"emergencyBell":true,"cctv":false,"managerTel":"0221473380","source":"public","category":"public"},{"id":"202532300000100482","name":"풍납1동주민센터 화장실","lat":37.538072,"lng":127.122074,"roadAddr":"서울특별시 송파구 천호대로152길 7","jibunAddr":"서울특별시 송파구 풍납동 476","openHours":"(평일)09:00-18:00","maleToilets":5,"femaleToilets":4,"disabled":true,"diaperTable":false,"emergencyBell":false,"cctv":false,"managerTel":"0221474008","source":"public","category":"public"},{"id":"202532300000100572","name":"솔바람복지센터","lat":37.536104,"lng":127.115966,"roadAddr":"서울특별시 송파구 풍성로5길 16","jibunAddr":"서울특별시 송파구 풍납동 175","openHours":"09:00-18:00","maleToilets":7,"femaleToilets":4,"disabled":true,"diaperTable":false,"emergencyBell":false,"cctv":true,"managerTel":"0221472680","source":"public","category":"public"},{"id":"202532300000100782","name":"농구장","lat":37.537948,"lng":127.112818,"roadAddr":"서울특별시 송파구 풍납동 45-3","jibunAddr":"서울특별시 송파구 풍납동 45-3","openHours":"상시","maleToilets":3,"femaleToilets":3,"disabled":true,"diaperTable":true,"emergencyBell":true,"cctv":false,"managerTel":"0237800785","source":"public","category":"public"},{"id":"202532300000100785","name":"풍납파출소","lat":37.534165,"lng":127.117095,"roadAddr":"서울특별시 송파구 풍성로 42","jibunAddr":"서울특별시 송파구 풍납동 229-14","openHours":"상시","maleToilets":2,"femaleToilets":1,"disabled":false,"diaperTable":false,"emergencyBell":false,"cctv":false,"managerTel":"0234026308","source":"public","category":"public"},{"id":"202532300000100566","name":"풍납백제문화공원 화장실","lat":37.53581,"lng":127.115282,"roadAddr":"서울특별시 송파구 한가람로14길 16","jibunAddr":"서울특별시 송파구 풍납동 197","openHours":"상시","maleToilets":5,"femaleToilets":8,"disabled":true,"diaperTable":true,"emergencyBell":true,"cctv":false,"managerTel":"0221472001","source":"public","category":"public"},{"id":"202532400000100420","name":"암사2동주민센터 화장실","lat":37.551706,"lng":127.127271,"roadAddr":"서울특별시 강동구 상암로3길 28","jibunAddr":"서울특별시 강동구 암사동 503-8","openHours":"(평일)09:00~18:00","maleToilets":2,"femaleToilets":2,"disabled":true,"diaperTable":true,"emergencyBell":true,"cctv":false,"managerTel":"0234257610","source":"public","category":"public"},{"id":"202532400000100401","name":"(주)지유에너지직영 오렌지주유소","lat":37.532321,"lng":127.13309,"roadAddr":"서울특별시 강동구 성안로 102","jibunAddr":"서울특별시 강동구 성내동 385-4","openHours":"06:00~22:00","maleToilets":3,"femaleToilets":1,"disabled":false,"diaperTable":false,"emergencyBell":false,"cctv":false,"managerTel":"024846165","source":"public","category":"public"},{"id":"202532400000100319","name":"고분다리시장(주차장)","lat":37.542977,"lng":127.132248,"roadAddr":"서울특별시 강동구 구천면로 258-6","jibunAddr":"서울특별시 강동구 천호1동 280-9","openHours":"상시","maleToilets":2,"femaleToilets":2,"disabled":false,"diaperTable":true,"emergencyBell":true,"cctv":false,"managerTel":"0234255864","source":"public","category":"public"},{"id":"202532400000100457","name":"이천일아울렛","lat":37.541592,"lng":127.125536,"roadAddr":"서울특별시 강동구 구천면로 189","jibunAddr":"서울특별시 강동구 천호동 563","openHours":"10:30~21:00","maleToilets":5,"femaleToilets":3,"disabled":true,"diaperTable":false,"emergencyBell":false,"cctv":false,"managerTel":"0222246606","source":"public","category":"public"},{"id":"202532400000100354","name":"복원움집 뒤 화장실","lat":37.559852,"lng":127.130833,"roadAddr":"서울특별시 강동구 올림픽로 875","jibunAddr":"서울특별시 강동구 암사동 139-2","openHours":"09:00~18:00","maleToilets":2,"femaleToilets":2,"disabled":true,"diaperTable":true,"emergencyBell":true,"cctv":true,"managerTel":"0234256528","source":"public","category":"public"},{"id":"202532400000100459","name":"하나로마트 성내점","lat":37.529405,"lng":127.1204,"roadAddr":"서울특별시 강동구 올림픽로 528","jibunAddr":"서울특별시 강동구 성내동 451","openHours":"09:00~21:00","maleToilets":6,"femaleToilets":3,"disabled":true,"diaperTable":false,"emergencyBell":false,"cctv":false,"managerTel":"0222248120","source":"public","category":"public"},{"id":"202532400000100325","name":"암사역사공원 비지터센터","lat":37.559204,"lng":127.13128,"roadAddr":"서울특별시 강동구 암사동 137-2(전)","jibunAddr":"서울특별시 강동구 암사3동 137-10","openHours":"상시","maleToilets":2,"femaleToilets":2,"disabled":true,"diaperTable":true,"emergencyBell":true,"cctv":false,"managerTel":"0234255864","source":"public","category":"public"},{"id":"202532400000100353","name":"수표소 뒤 화장실","lat":37.559852,"lng":127.130833,"roadAddr":"서울특별시 강동구 올림픽로 875","jibunAddr":"서울특별시 강동구 암사동 139-2","openHours":"09:00~18:00","maleToilets":5,"femaleToilets":4,"disabled":true,"diaperTable":true,"emergencyBell":false,"cctv":true,"managerTel":"0234256528","source":"public","category":"public"},{"id":"202532400000100350","name":"천호유수지공영주차장 화장실","lat":37.544789,"lng":127.121878,"roadAddr":"서울특별시 강동구 선사로 70","jibunAddr":"서울특별시 강동구 천호동 329","openHours":"상시","maleToilets":1,"femaleToilets":0,"disabled":false,"diaperTable":false,"emergencyBell":true,"cctv":true,"managerTel":"0220456147","source":"public","category":"public"},{"id":"202532400000100324","name":"암사역사공원","lat":37.557443,"lng":127.13048,"roadAddr":"서울특별시 강동구 암사동 193(전)","jibunAddr":"서울특별시 강동구 암사3동 193","openHours":"상시","maleToilets":5,"femaleToilets":6,"disabled":true,"diaperTable":true,"emergencyBell":true,"cctv":false,"managerTel":"0234255864","source":"public","category":"public"},{"id":"202532400000100444","name":"강동구청 성안별관 화장실","lat":37.530636,"lng":127.123933,"roadAddr":"서울특별시 강동구 성내로3가길 19","jibunAddr":"서울특별시 강동구 성내동 535-8","openHours":"(평일)09:00~18:00","maleToilets":2,"femaleToilets":1,"disabled":true,"diaperTable":false,"emergencyBell":true,"cctv":false,"managerTel":"0234255098","source":"public","category":"public"},{"id":"202532400000100455","name":"신세계 이마트 천호지점 화장실","lat":37.538729,"lng":127.125146,"roadAddr":"서울특별시 강동구 천호대로 1017","jibunAddr":"서울특별시 강동구 천호동 454-1","openHours":"10:00~22:00","maleToilets":4,"femaleToilets":4,"disabled":false,"diaperTable":false,"emergencyBell":true,"cctv":false,"managerTel":"0222241234","source":"public","category":"public"},{"id":"202532400000100352","name":"부설주차장 화장실","lat":37.559852,"lng":127.130833,"roadAddr":"서울특별시 강동구 올림픽로 875","jibunAddr":"서울특별시 강동구 암사동 139-2","openHours":"상시","maleToilets":6,"femaleToilets":4,"disabled":true,"diaperTable":true,"emergencyBell":true,"cctv":true,"managerTel":"0234256528","source":"public","category":"public"},{"id":"202532400000100344","name":"안말공영주차장 화장실","lat":37.531257,"lng":127.129916,"roadAddr":"서울특별시 강동구 풍성로45길 11","jibunAddr":"서울특별시 강동구 성내로 512","openHours":"상시","maleToilets":0,"femaleToilets":1,"disabled":true,"diaperTable":false,"emergencyBell":true,"cctv":true,"managerTel":"0220456147","source":"public","category":"public"},{"id":"202532400000100360","name":"브라운스톤 천호","lat":37.538051,"lng":127.123789,"roadAddr":"서울특별시 강동구 천호대로 1006","jibunAddr":"서울특별시 강동구 성내2동 64-13","openHours":"06:00~24:00","maleToilets":6,"femaleToilets":4,"disabled":true,"diaperTable":false,"emergencyBell":true,"cctv":true,"managerTel":"024740637","source":"public","category":"public"},{"id":"202532400000100370","name":"삼정빌딩","lat":37.549967,"lng":127.127179,"roadAddr":"서울특별시 강동구 올림픽로 769","jibunAddr":"서울특별시 강동구 암사2동 512-17","openHours":"06:00~24:00","maleToilets":4,"femaleToilets":2,"disabled":false,"diaperTable":false,"emergencyBell":true,"cctv":false,"managerTel":"0234262691","source":"public","category":"public"},{"id":"202532400000100355","name":"박물관 앞 화장실","lat":37.559852,"lng":127.130833,"roadAddr":"서울특별시 강동구 올림픽로 875","jibunAddr":"서울특별시 강동구 암사동 139-2","openHours":"09:00~18:00","maleToilets":4,"femaleToilets":3,"disabled":true,"diaperTable":true,"emergencyBell":true,"cctv":true,"managerTel":"0234256528","source":"public","category":"public"},{"id":"202532400000100449","name":"성내도서관 화장실","lat":37.532845,"lng":127.133343,"roadAddr":"서울특별시 강동구 성안로 106-1","jibunAddr":"서울특별시 강동구 성내동 385","openHours":"09:00~18:00","maleToilets":15,"femaleToilets":10,"disabled":true,"diaperTable":true,"emergencyBell":true,"cctv":true,"managerTel":"024400585","source":"public","category":"public"},{"id":"202532400000100376","name":"소망빌딩","lat":37.529998,"lng":127.131549,"roadAddr":"서울특별시 강동구 성안로 71","jibunAddr":"서울특별시 강동구 성내1동 420-42","openHours":"06:00~24:00","maleToilets":2,"femaleToilets":1,"disabled":false,"diaperTable":false,"emergencyBell":true,"cctv":true,"source":"public","category":"public"},{"id":"202532400000100427","name":"성내2동주민센터 화장실","lat":37.532429,"lng":127.129541,"roadAddr":"서울특별시 강동구 풍성로37가길 62","jibunAddr":"서울특별시 강동구 성내동 508, 성내2동 주민센터","openHours":"(평일)09:00~18:00","maleToilets":7,"femaleToilets":3,"disabled":false,"diaperTable":true,"emergencyBell":false,"cctv":false,"managerTel":"0234257790","source":"public","category":"public"},{"id":"202532400000100366","name":"힐탑오피스텔","lat":37.536525,"lng":127.131403,"roadAddr":"서울특별시 강동구 천호대로 1073","jibunAddr":"서울특별시 강동구 천호3동 449-49","openHours":"07:00~23:00","maleToilets":5,"femaleToilets":6,"disabled":false,"diaperTable":false,"emergencyBell":true,"cctv":true,"managerTel":"024731281","source":"public","category":"public"},{"id":"202532400000100403","name":"㈜퍼스트오일 코알라주유소","lat":37.531331,"lng":127.121249,"roadAddr":"서울특별시 강동구 올림픽로 556","jibunAddr":"서울특별시 강동구 성내동 319-1","openHours":"05:00~24:00","maleToilets":2,"femaleToilets":2,"disabled":false,"diaperTable":false,"emergencyBell":false,"cctv":false,"managerTel":"024841162","source":"public","category":"public"},{"id":"202532400000100382","name":"암사종합시장 고객화장실","lat":37.550046,"lng":127.128855,"roadAddr":"서울특별시 강동구 상암로11길 8, 2층","jibunAddr":"서울특별시 강동구 암사동 496-16, 2층","openHours":"09:30~20:00","maleToilets":4,"femaleToilets":3,"disabled":false,"diaperTable":false,"emergencyBell":true,"cctv":false,"managerTel":"024421040","source":"public","category":"public"},{"id":"202532400000100320","name":"새장터어린이공원","lat":37.552126,"lng":127.13058,"roadAddr":"서울특별시 강동구 암사1가길 16","jibunAddr":"서울특별시 강동구 암사1동 468-2","openHours":"상시","maleToilets":4,"femaleToilets":3,"disabled":true,"diaperTable":true,"emergencyBell":true,"cctv":false,"managerTel":"0234255864","source":"public","category":"public"},{"id":"202532400000100368","name":"의정부 부대찌개","lat":37.552206,"lng":127.127924,"roadAddr":"서울특별시 강동구 올림픽로 795","jibunAddr":"서울특별시 강동구 암사동 503-21","openHours":"08:00~20:00","maleToilets":4,"femaleToilets":2,"disabled":false,"diaperTable":false,"emergencyBell":true,"cctv":false,"managerTel":"0234266651","source":"public","category":"public"},{"id":"202532400000100425","name":"천호3동주민센터 화장실","lat":37.539928,"lng":127.129773,"roadAddr":"서울특별시 강동구 진황도로23길 7","jibunAddr":"서울특별시 강동구 천호동 555","openHours":"(평일)09:00~18:00","maleToilets":4,"femaleToilets":4,"disabled":true,"diaperTable":false,"emergencyBell":false,"cctv":false,"managerTel":"0234257730","source":"public","category":"public"},{"id":"202532400000100321","name":"광나루공원","lat":37.55002,"lng":127.125545,"roadAddr":"서울특별시 강동구 상암로 12-19","jibunAddr":"서울특별시 강동구 암사2동 515","openHours":"상시","maleToilets":3,"femaleToilets":3,"disabled":true,"diaperTable":true,"emergencyBell":true,"cctv":false,"managerTel":"0234255864","source":"public","category":"public"},{"id":"202532400000100456","name":"현대백화점 천호지점","lat":37.538975,"lng":127.124441,"roadAddr":"서울특별시 강동구 천호대로 1005","jibunAddr":"서울특별시 강동구 천호동 572","openHours":"10:30~20:00","maleToilets":72,"femaleToilets":128,"disabled":true,"diaperTable":true,"emergencyBell":true,"cctv":true,"managerTel":"0222258761","source":"public","category":"public"},{"id":"202532400000100409","name":"강동구보건소 화장실","lat":37.529542,"lng":127.125586,"roadAddr":"서울특별시 강동구 성내로 45","jibunAddr":"서울특별시 강동구 성내동 541-2","openHours":"09:00~18:00","maleToilets":4,"femaleToilets":3,"disabled":true,"diaperTable":true,"emergencyBell":true,"cctv":false,"managerTel":"0234256604","source":"public","category":"public"},{"id":"202532400000100423","name":"천호2동주민센터 화장실","lat":37.542409,"lng":127.12832,"roadAddr":"서울특별시 강동구 올림픽로80길 60","jibunAddr":"서울특별시 강동구 천호동 422-12","openHours":"(평일)09:00~18:00","maleToilets":4,"femaleToilets":4,"disabled":true,"diaperTable":false,"emergencyBell":false,"cctv":false,"managerTel":"0234257700","source":"public","category":"public"},{"id":"202532400000100424","name":"천호2동자치회관 화장실","lat":37.542573,"lng":127.120777,"roadAddr":"서울특별시 강동구 구천면로 141","jibunAddr":"서울특별시 강동구 천호동 337-121","openHours":"(평일)09:00~18:00","maleToilets":8,"femaleToilets":4,"disabled":true,"diaperTable":false,"emergencyBell":false,"cctv":false,"managerTel":"0234257703","source":"public","category":"public"},{"id":"202532400000100346","name":"천호3동 공영주차장 화장실","lat":37.539128,"lng":127.133269,"roadAddr":"서울특별시 강동구 진황도로29길 34","jibunAddr":"서울특별시 강동구 천호동 167-195","openHours":"상시","maleToilets":2,"femaleToilets":0,"disabled":true,"diaperTable":false,"emergencyBell":true,"cctv":true,"managerTel":"0220456147","source":"public","category":"public"},{"id":"202532400000100426","name":"성내1동주민센터 화장실","lat":37.530478,"lng":127.122458,"roadAddr":"서울특별시 강동구 성내로 13","jibunAddr":"서울특별시 강동구 성내동 539-1","openHours":"(평일)09:00~18:00","maleToilets":16,"femaleToilets":8,"disabled":true,"diaperTable":true,"emergencyBell":true,"cctv":false,"managerTel":"0234257760","source":"public","category":"public"},{"id":"202532400000100295","name":"성내하니공원","lat":37.529452,"lng":127.12654,"roadAddr":"서울특별시 강동구 성내로3가길 71","jibunAddr":"서울특별시 강동구 성내1동 533","openHours":"상시","maleToilets":4,"femaleToilets":4,"disabled":true,"diaperTable":true,"emergencyBell":true,"cctv":false,"managerTel":"0234255864","source":"public","category":"public"},{"id":"202532400000100399","name":"㈜소모에너지 성내주유소","lat":37.53326,"lng":127.122008,"roadAddr":"서울특별시 강동구 올림픽로 578","jibunAddr":"서울특별시 강동구 성내동 107-7","openHours":"06:00~22:00","maleToilets":2,"femaleToilets":1,"disabled":false,"diaperTable":false,"emergencyBell":false,"cctv":false,"managerTel":"024793838","source":"public","category":"public"},{"id":"202532400000100442","name":"강동구청 제2청사 화장실","lat":37.530161,"lng":127.123792,"roadAddr":"서울특별시 강동구 성내로 25","jibunAddr":"서울특별시 강동구 성내동 540","openHours":"(평일)09:00~18:00","maleToilets":5,"femaleToilets":3,"disabled":false,"diaperTable":true,"emergencyBell":true,"cctv":false,"managerTel":"0234255098","source":"public","category":"public"},{"id":"202532400000100371","name":"신라빌딩","lat":37.539339,"lng":127.123302,"roadAddr":"서울특별시 강동구 천호대로 997","jibunAddr":"서울특별시 강동구  천호2동 456","openHours":"06:00~23:00","maleToilets":4,"femaleToilets":2,"disabled":false,"diaperTable":false,"emergencyBell":true,"cctv":true,"source":"public","category":"public"},{"id":"202532400000100441","name":"강동구청 본관 화장실","lat":37.530161,"lng":127.123792,"roadAddr":"서울특별시 강동구 성내로 25","jibunAddr":"서울특별시 강동구 성내동 540","openHours":"(평일)09:00~18:00","maleToilets":5,"femaleToilets":3,"disabled":true,"diaperTable":true,"emergencyBell":true,"cctv":false,"managerTel":"0234255098","source":"public","category":"public"},{"id":"202532400000100450","name":"암사도서관 화장실","lat":37.552833,"lng":127.133365,"roadAddr":"서울특별시 강동구 고덕로 20길 42","jibunAddr":"서울특별시 강동구 암사동 471-37","openHours":"09:00~18:00","maleToilets":1,"femaleToilets":2,"disabled":true,"diaperTable":true,"emergencyBell":true,"cctv":true,"managerTel":"024400585","source":"public","category":"public"},{"id":"202532400000100322","name":"당말어린이공원","lat":37.539128,"lng":127.133269,"roadAddr":"서울특별시 강동구 진황도로29길 34","jibunAddr":"서울특별시 강동구 천호3동 167-195","openHours":"상시","maleToilets":3,"femaleToilets":2,"disabled":true,"diaperTable":false,"emergencyBell":true,"cctv":false,"managerTel":"0234255864","source":"public","category":"public"},{"id":"202532400000100358","name":"강동구립 해공노인복지관(신관) 화장실","lat":37.546212,"lng":127.131714,"roadAddr":"서울특별시 강동구 천중로 17길 42-16","jibunAddr":"서울특별시 강동구 천호동 302-4","openHours":"09:00~18:00","maleToilets":7,"femaleToilets":7,"disabled":true,"diaperTable":false,"emergencyBell":true,"cctv":true,"managerTel":"024780601","source":"public","category":"public"},{"id":"202532400000100452","name":"해공도서관 화장실","lat":37.543948,"lng":127.125538,"roadAddr":"서울특별시 강동구 올림픽로 702","jibunAddr":"서울특별시 강동구 천호동 360","openHours":"09:00~18:00","maleToilets":3,"femaleToilets":2,"disabled":true,"diaperTable":true,"emergencyBell":true,"cctv":true,"managerTel":"024400585","source":"public","category":"public"},{"id":"202532400000100356","name":"선사체험교실 화장실","lat":37.559852,"lng":127.130833,"roadAddr":"서울특별시 강동구 올림픽로 875","jibunAddr":"서울특별시 강동구 암사동 139-2","openHours":"09:00~18:00","maleToilets":5,"femaleToilets":6,"disabled":true,"diaperTable":true,"emergencyBell":true,"cctv":true,"managerTel":"0234256528","source":"public","category":"public"},{"id":"202532400000100390","name":"강동소방서 화장실","lat":37.529458,"lng":127.125372,"roadAddr":"서울특별시 강동구 성내로39","jibunAddr":"서울특별시 강동구 성내동 541","openHours":"09:00~18:00","maleToilets":5,"femaleToilets":0,"disabled":true,"diaperTable":false,"emergencyBell":true,"cctv":false,"managerTel":"0269817621","source":"public","category":"public"},{"id":"202532400000100472","name":"5호선 천호역","lat":37.538504,"lng":127.125112,"roadAddr":"서울특별시 강동구 천호동 455 천호역(5 또는 8호선)","jibunAddr":"서울특별시 강동구 천호동 455 천호역(5 또는 8호선)","openHours":"05:00~24:00","maleToilets":16,"femaleToilets":16,"disabled":true,"diaperTable":true,"emergencyBell":true,"cctv":true,"managerTel":"0263115471","source":"public","category":"public"},{"id":"202532400000100359","name":"서경빌딩","lat":37.530361,"lng":127.122831,"roadAddr":"서울특별시 강동구 성내로 19","jibunAddr":"서울특별시 강동구 성내1동 539-3","openHours":"06:00~24:00","maleToilets":6,"femaleToilets":3,"disabled":false,"diaperTable":false,"emergencyBell":true,"cctv":true,"managerTel":"024850902","source":"public","category":"public"},{"id":"202532400000100369","name":"태성프라자","lat":37.551545,"lng":127.127723,"roadAddr":"서울특별시 강동구 올림픽로 787","jibunAddr":"서울특별시 강동구 암사2동 503-23","openHours":"07:00~24:00","maleToilets":6,"femaleToilets":4,"disabled":false,"diaperTable":false,"emergencyBell":true,"cctv":true,"source":"public","category":"public"},{"id":"202532400000100378","name":"나비상가","lat":37.538232,"lng":127.127289,"roadAddr":"서울특별시 강동구 천호대로157길 14","jibunAddr":"서울특별시 강동구 천호동 453-19","openHours":"08:00~24:00","maleToilets":6,"femaleToilets":2,"disabled":false,"diaperTable":false,"emergencyBell":true,"cctv":true,"managerTel":"0262070200","source":"public","category":"public"},{"id":"202532400000100400","name":"천호 현대주유소","lat":37.545178,"lng":127.129497,"roadAddr":"서울특별시 강동구 천중로 67","jibunAddr":"서울특별시 강동구 천호동 308-11","openHours":"06:00~24:00","maleToilets":2,"femaleToilets":1,"disabled":false,"diaperTable":false,"emergencyBell":false,"cctv":false,"managerTel":"024849323","source":"public","category":"public"},{"id":"202532400000100418","name":"암사1동주민센터 화장실","lat":37.551473,"lng":127.132669,"roadAddr":"서울특별시 강동구 올림로98가길 57","jibunAddr":"서울특별시 강동구 암사동 493-13","openHours":"(평일)09:00~18:00","maleToilets":4,"femaleToilets":1,"disabled":true,"diaperTable":true,"emergencyBell":true,"cctv":true,"managerTel":"0234257580","source":"public","category":"public"},{"id":"202532400000100443","name":"강동구청 서관 화장실","lat":37.530161,"lng":127.123792,"roadAddr":"서울특별시 강동구 성내로 25","jibunAddr":"서울특별시 강동구 성내동 540","openHours":"(평일)09:00~18:00","maleToilets":5,"femaleToilets":4,"disabled":false,"diaperTable":false,"emergencyBell":true,"cctv":false,"managerTel":"0234255098","source":"public","category":"public"},{"id":"202532400000100397","name":"광성주유소","lat":37.541577,"lng":127.124242,"roadAddr":"서울특별시 강동구 올림픽로 673","jibunAddr":"서울특별시 강동구 천호동 354-4","openHours":"06:00~22:00","maleToilets":2,"femaleToilets":2,"disabled":false,"diaperTable":false,"emergencyBell":false,"cctv":false,"managerTel":"024782574","source":"public","category":"public"},{"id":"202532400000100394","name":"삼표에너지 고덕주유소","lat":37.55506,"lng":127.129844,"roadAddr":"서울특별시 강동구 고덕로 39","jibunAddr":"서울특별시 강동구 암사동 441-13","openHours":"06:00~24:00","maleToilets":3,"femaleToilets":1,"disabled":true,"diaperTable":false,"emergencyBell":false,"cctv":false,"managerTel":"024413327","source":"public","category":"public"},{"id":"202532400000100470","name":"8호선 암사역","lat":37.551167,"lng":127.128209,"roadAddr":"서울특별시 강동구 암사동 501 암사역","jibunAddr":"서울특별시 강동구 암사동 501 암사역","openHours":"05:00~24:00","maleToilets":7,"femaleToilets":10,"disabled":true,"diaperTable":true,"emergencyBell":true,"cctv":true,"managerTel":"0263118101","source":"public","category":"public"},{"id":"202532400000100408","name":"비자인터내셔날㈜암사충전소 화장실","lat":37.551825,"lng":127.127781,"jibunAddr":"서울특별시 강동구 암사동 503-30","openHours":"06:00~22:00","maleToilets":5,"femaleToilets":1,"disabled":false,"diaperTable":false,"emergencyBell":false,"cctv":false,"source":"public","category":"public"},{"id":"202532400000100468","name":"8호선 강동구청역","lat":37.530674,"lng":127.120576,"roadAddr":"서울특별시 강동구 성내동 319 강동구청역","jibunAddr":"서울특별시 강동구 성내동 319 강동구청역","openHours":"05:00~24:00","maleToilets":7,"femaleToilets":7,"disabled":true,"diaperTable":true,"emergencyBell":true,"cctv":true,"managerTel":"0263118121","source":"public","category":"public"},{"id":"202532400000100410","name":"천호보건지소 화장실","lat":37.546847,"lng":127.133776,"roadAddr":"서울특별시 강동구 구천면로297-5","jibunAddr":"서울특별시 강동구 천호동293-8","openHours":"09:00~18:00","maleToilets":6,"femaleToilets":6,"disabled":true,"diaperTable":true,"emergencyBell":true,"cctv":false,"managerTel":"0234257942","source":"public","category":"public"},{"id":"202532400000100341","name":"해공문화체육관 화장실","lat":37.542093,"lng":127.129832,"roadAddr":"서울특별시 강동구 천중로 18길 61","jibunAddr":"서울특별시 강동구 천호동 399-1","openHours":"06:00~22:00","maleToilets":3,"femaleToilets":3,"disabled":false,"diaperTable":false,"emergencyBell":true,"cctv":false,"managerTel":"0220457651","source":"public","category":"public"}]