[{"id":"202537800000100350","name":"성남시장애인종합복지관","lat":37.443425,"lng":127.178872,"roadAddr":"경기도 성남시 중원구 사기막골로150번길 20 (상대원동)","openHours":"09시~18시","maleToilets":0,"femaleToilets":0,"disabled":false,"diaperTable":false,"emergencyBell":true,"cctv":false,"managerTel":"0317293195","source":"public","category":"public"},{"id":"202537800000100494","name":"사기막골공원(관리사무소)","lat":37.445805,"lng":127.182277,"roadAddr":"경기도 성남시 중원구 사기막골로 209-1 (상대원동)","openHours":"상시","maleToilets":6,"femaleToilets":4,"disabled":true,"diaperTable":false,"emergencyBell":true,"cctv":false,"managerTel":"0317294275","source":"public","category":"public"},{"id":"202555400000100798","name":"남한산성도립공원 장경사","lat":37.474861,"lng":127.198058,"roadAddr":"경기도 광주시 남한산성로 676-1","openHours":"상시","maleToilets":2,"femaleToilets":3,"disabled":true,"diaperTable":true,"emergencyBell":false,"cctv":false,"managerTel":"03180085188","source":"public","category":"public"},{"id":"202555400000100793","name":"남한산성도립공원 불당리주차장","lat":37.458245,"lng":127.215243,"roadAddr":"경기도 광주시 남한산성면 불당길 2-5","openHours":"상시","maleToilets":2,"femaleToilets":2,"disabled":true,"diaperTable":true,"emergencyBell":false,"cctv":false,"managerTel":"03180085188","source":"public","category":"public"},{"id":"202555400000100794","name":"남한산성도립공원 검복리2주차장","lat":37.464113,"lng":127.208845,"roadAddr":"경기도 광주시 남한산성로 477","openHours":"상시","maleToilets":4,"femaleToilets":3,"disabled":true,"diaperTable":false,"emergencyBell":false,"cctv":false,"managerTel":"03180085188","source":"public","category":"public"},{"id":"202555400000100799","name":"남한산성도립공원 동문","lat":37.474491,"lng":127.193749,"roadAddr":"경기도 광주시 남한산성로 680-5","openHours":"상시","maleToilets":2,"femaleToilets":1,"disabled":false,"diaperTable":false,"emergencyBell":false,"cctv":false,"managerTel":"03180085188","source":"public","category":"public"},{"id":"202555400000100803","name":"남한산성도립공원 국청사","lat":37.483993,"lng":127.177844,"roadAddr":"경기도 광주시 남한산성로 780번길 101","openHours":"상시","maleToilets":5,"femaleToilets":2,"disabled":false,"diaperTable":false,"emergencyBell":false,"cctv":false,"managerTel":"03180085188","source":"public","category":"public"},{"id":"202555400000100797","name":"남한산성도립공원 망월사","lat":37.477076,"lng":127.196115,"roadAddr":"경기도 광주시 남한산성로 680-22","openHours":"상시","maleToilets":5,"femaleToilets":2,"disabled":false,"diaperTable":false,"emergencyBell":false,"cctv":false,"managerTel":"03180085188","source":"public","category":"public"},{"id":"202555400000100807","name":"남한산성도립공원 하팔각정","lat":37.475402,"lng":127.179596,"roadAddr":"경기도 광주시 남한산성로 825-45","openHours":"상시","maleToilets":1,"femaleToilets":1,"disabled":false,"diaperTable":false,"emergencyBell":false,"cctv":false,"managerTel":"03180085188","source":"public","category":"public"},{"id":"202555400000100790","name":"남한산성도립공원 남문","lat":37.473284,"lng":127.182335,"roadAddr":"경기도 광주시 남한산성면 남한산성로 825-17","openHours":"상시","maleToilets":3,"femaleToilets":3,"disabled":true,"diaperTable":true,"emergencyBell":false,"cctv":false,"managerTel":"03180085188","source":"public","category":"public"},{"id":"202555400000100802","name":"남한산성도립공원 로터리소공원","lat":37.477238,"lng":127.184919,"roadAddr":"경기도 광주시 남한산성로 763-28","openHours":"상시","maleToilets":6,"femaleToilets":6,"disabled":true,"diaperTable":true,"emergencyBell":false,"cctv":false,"managerTel":"03180085188","source":"public","category":"public"},{"id":"202555400000100801","name":"남한산성도립공원 중앙주차장","lat":37.476908,"lng":127.187179,"roadAddr":"경기도 광주시 남한산성로 743-1","openHours":"상시","maleToilets":4,"femaleToilets":5,"disabled":true,"diaperTable":true,"emergencyBell":false,"cctv":false,"managerTel":"03180085188","source":"public","category":"public"},{"id":"202555400000100800","name":"남한산성도립공원 역사관","lat":37.476068,"lng":127.188534,"roadAddr":"경기도 광주시 남한산성로 731-13","openHours":"상시","maleToilets":5,"femaleToilets":6,"disabled":true,"diaperTable":true,"emergencyBell":false,"cctv":false,"managerTel":"03180085188","source":"public","category":"public"},{"id":"202555400000100808","name":"남한산성도립공원 행궁","lat":37.478108,"lng":127.181903,"roadAddr":"경기도 광주시 남한산성로 784-17","openHours":"상시","maleToilets":3,"femaleToilets":2,"disabled":true,"diaperTable":true,"emergencyBell":false,"cctv":false,"managerTel":"03180085188","source":"public","category":"public"},{"id":"202555400000100543","name":"남한산성파출소","lat":37.477741,"lng":127.186223,"roadAddr":"경기도 광주시 남한산성면 남한산성로 757","openHours":"상시","maleToilets":0,"femaleToilets":1,"disabled":false,"diaperTable":false,"emergencyBell":false,"cctv":false,"managerTel":"0317907468","source":"public","category":"public"},{"id":"202555400000100795","name":"남한산성도립공원 검복리주차장","lat":37.467017,"lng":127.203463,"roadAddr":"경기도 광주시 남한산성로 539","openHours":"상시","maleToilets":4,"femaleToilets":2,"disabled":false,"diaperTable":false,"emergencyBell":false,"cctv":false,"managerTel":"03180085188","source":"public","category":"public"},{"id":"202555400000100796","name":"남한산성도립공원 하행선주차장","lat":37.470277,"lng":127.198224,"roadAddr":"경기도 광주시 남한산성로 619-1","openHours":"상시","maleToilets":4,"femaleToilets":6,"disabled":true,"diaperTable":false,"emergencyBell":false,"cctv":false,"managerTel":"03180085188","source":"public","category":"public"}]