[{"id":"202440400000101458","name":"미사1동행정복지센터 2층","lat":37.560287,"lng":127.188778,"roadAddr":"경기도 하남시 미사강변남로 59","jibunAddr":"경기도 하남시 망월동 1071","openHours":"미개방","maleToilets":4,"femaleToilets":4,"disabled":true,"diaperTable":true,"emergencyBell":false,"cctv":true,"managerTel":"0317906611","source":"public","category":"public"},{"id":"202440400000100948","name":"미사누리2호공원","lat":37.568114,"lng":127.186391,"roadAddr":"경기도 하남시 미사강변대로226번길 79","jibunAddr":"경기도 하남시 망월동 955","openHours":"상시","maleToilets":2,"femaleToilets":4,"disabled":true,"diaperTable":true,"emergencyBell":true,"cctv":false,"managerTel":"0317905145","source":"public","category":"public"},{"id":"202440400000100947","name":"미사숲공원","lat":37.555144,"lng":127.190526,"roadAddr":"경기도 하남시 미사강변중앙로 95","jibunAddr":"경기도 하남시 풍산동 537","openHours":"상시","maleToilets":5,"femaleToilets":8,"disabled":true,"diaperTable":true,"emergencyBell":true,"cctv":false,"managerTel":"0317905145","source":"public","category":"public"},{"id":"202440400000100924","name":"꿈동산공원","lat":37.538306,"lng":127.21748,"roadAddr":"경기도 하남시 천현로 55","jibunAddr":"경기도 하남시 신장동 528-4","openHours":"상시","maleToilets":1,"femaleToilets":1,"disabled":true,"diaperTable":false,"emergencyBell":true,"cctv":false,"managerTel":"0317905145","source":"public","category":"public"},{"id":"202440400000100923","name":"새고향공원","lat":37.542284,"lng":127.218263,"roadAddr":"경기도 하남시 대청로59번길 35","jibunAddr":"경기도 하남시 신장동 527-2","openHours":"상시","maleToilets":3,"femaleToilets":1,"disabled":false,"diaperTable":false,"emergencyBell":true,"cctv":false,"managerTel":"0317905145","source":"public","category":"public"},{"id":"202440400000101354","name":"코스트코 하남점 화장실(4층)","lat":37.550429,"lng":127.193873,"roadAddr":"경기도 하남시 미사강변중앙로 40","jibunAddr":"경기도 하남시 풍산동 609-1","openHours":"정시","maleToilets":2,"femaleToilets":2,"disabled":false,"diaperTable":false,"emergencyBell":false,"cctv":false,"managerTel":"0317909400","source":"public","category":"public"},{"id":"202440400000101358","name":"코스트코 하남점 화장실(지하1층)","lat":37.550429,"lng":127.193873,"roadAddr":"경기도 하남시 미사강변중앙로 40","jibunAddr":"경기도 하남시 풍산동 609-1","openHours":"정시","maleToilets":9,"femaleToilets":14,"disabled":false,"diaperTable":true,"emergencyBell":false,"cctv":false,"managerTel":"0317909400","source":"public","category":"public"},{"id":"202440400000100925","name":"새희망공원","lat":37.53901,"lng":127.219895,"roadAddr":"경기도 하남시 더우개로 5","jibunAddr":"경기도 하남시 신장동 528-2","openHours":"상시","maleToilets":3,"femaleToilets":1,"disabled":false,"diaperTable":false,"emergencyBell":true,"cctv":false,"managerTel":"0317905145","source":"public","category":"public"},{"id":"202440400000100907","name":"하남시평생학습관 화장실(2층)","lat":37.536853,"lng":127.214225,"roadAddr":"경기도 하남시 하남대로 732","jibunAddr":"경기도 하남시 신장동 533","openHours":"정시","maleToilets":2,"femaleToilets":4,"disabled":true,"diaperTable":false,"emergencyBell":true,"cctv":false,"managerTel":"0317906009","source":"public","category":"public"},{"id":"202440400000101293","name":"세미도서관 1층","lat":37.543444,"lng":127.194092,"roadAddr":"경기도 하남시 세미로 1길 15","jibunAddr":"경기도 하남시 풍산동 635","openHours":"미개방","maleToilets":1,"femaleToilets":1,"disabled":true,"diaperTable":false,"emergencyBell":false,"cctv":false,"managerTel":"0317906804","source":"public","category":"public"},{"id":"202440400000101342","name":"덕풍근린공원 제3공영주차장 B4층","lat":37.537132,"lng":127.19844,"roadAddr":"경기도 하남시 덕풍공원로 70","jibunAddr":"경기도 하남시 덕풍동 435-202","openHours":"상시","maleToilets":4,"femaleToilets":3,"disabled":true,"diaperTable":false,"emergencyBell":true,"cctv":false,"managerTel":"0317909581","source":"public","category":"public"},{"id":"202440400000101380","name":"조정경기장 화장실(B축구장)","lat":37.553626,"lng":127.21323,"roadAddr":"경기도 하남시 미사대로 505","jibunAddr":"경기도 하남시 신장동 281","openHours":"정시","maleToilets":10,"femaleToilets":8,"disabled":true,"diaperTable":false,"emergencyBell":true,"cctv":false,"managerTel":"0317908831","source":"public","category":"public"},{"id":"202440400000100934","name":"풍산지구1호공원","lat":37.552968,"lng":127.201912,"roadAddr":"경기도 하남시 덕풍로 108","jibunAddr":"경기도 하남시 덕풍동 732","openHours":"상시","maleToilets":4,"femaleToilets":5,"disabled":true,"diaperTable":true,"emergencyBell":true,"cctv":false,"managerTel":"0317905145","source":"public","category":"public"},{"id":"202440400000101306","name":"나룰도서관 지하1층","lat":37.553377,"lng":127.208438,"roadAddr":"경기도 하남시 덕풍북로180","jibunAddr":"경기도 하남시 덕풍동 739","openHours":"미개방","maleToilets":3,"femaleToilets":2,"disabled":false,"diaperTable":false,"emergencyBell":false,"cctv":false,"managerTel":"0317906887","source":"public","category":"public"},{"id":"202440400000101185","name":"하남시 차량등록사무소(3층)","lat":37.541747,"lng":127.214359,"roadAddr":"경기도 하남시 하남대로776번길 79","jibunAddr":"경기도 하남시 덕풍동 521-3,7","openHours":"미개방","maleToilets":3,"femaleToilets":3,"disabled":false,"diaperTable":false,"emergencyBell":false,"cctv":true,"managerTel":"0317905818","source":"public","category":"public"},{"id":"202440400000101264","name":"환경기초시설공원","lat":37.546548,"lng":127.220502,"roadAddr":"경기도 하남시 미사대로 710","jibunAddr":"경기도 하남시 신장동 27","openHours":"상시","maleToilets":6,"femaleToilets":9,"disabled":true,"diaperTable":false,"emergencyBell":true,"cctv":false,"managerTel":"0317905145","source":"public","category":"public"},{"id":"202440400000100895","name":"황산주유소","lat":37.551727,"lng":127.188786,"roadAddr":"경기도 하남시 조정대로 89","jibunAddr":"경기도 하남시 풍산동 97-3","openHours":"상시","maleToilets":3,"femaleToilets":2,"disabled":false,"diaperTable":false,"emergencyBell":false,"cctv":false,"managerTel":"0317965149","source":"public","category":"public"},{"id":"202440400000101462","name":"동운주유소","lat":37.552673,"lng":127.191606,"roadAddr":"경기도 하남시 조정대로 116 (풍산동)","jibunAddr":"경기도 하남시 풍산동 84-1","openHours":"상시","maleToilets":2,"femaleToilets":1,"disabled":false,"diaperTable":false,"emergencyBell":false,"cctv":false,"managerTel":"0317945189","source":"public","category":"public"},{"id":"202440400000101305","name":"덕풍도서관 3층","lat":37.533514,"lng":127.200578,"roadAddr":"경기도 하남시 역말로 14","jibunAddr":"경기도 하남시 덕풍동 522-3","openHours":"미개방","maleToilets":2,"femaleToilets":1,"disabled":false,"diaperTable":false,"emergencyBell":false,"cctv":false,"managerTel":"0317905753","source":"public","category":"public"},{"id":"202440400000101231","name":"덕풍어린이공원","lat":37.53985,"lng":127.197255,"roadAddr":"경기도 하남시 덕풍공원로 40-1","jibunAddr":"경기도 하남시 덕풍동 361-2","openHours":"상시","maleToilets":5,"femaleToilets":2,"disabled":false,"diaperTable":false,"emergencyBell":true,"cctv":false,"managerTel":"0317905145","source":"public","category":"public"},{"id":"202440400000101321","name":"하남문화예술회관 화장실(전시동 2층)","lat":37.544754,"lng":127.206838,"roadAddr":"경기도 하남시 신평로 125","jibunAddr":"경기도 하남시 덕풍동 694","openHours":"미개방","maleToilets":3,"femaleToilets":2,"disabled":false,"diaperTable":false,"emergencyBell":false,"cctv":false,"managerTel":"0317907965","source":"public","category":"public"},{"id":"202440400000101480","name":"SK행복충전 광동충전소","lat":37.566496,"lng":127.185999,"roadAddr":"경기도 하남시 아리수로 530","jibunAddr":"경기도 하남시 망월동 575-1","openHours":"상시","maleToilets":4,"femaleToilets":2,"disabled":false,"diaperTable":false,"emergencyBell":false,"cctv":false,"managerTel":"0317929088","source":"public","category":"public"},{"id":"202440400000101171","name":"덕풍2동행정복지센터(2층)","lat":37.542279,"lng":127.198119,"roadAddr":"경기도 하남시 덕풍공원로 12","jibunAddr":"경기도 하남시 덕풍동 693","openHours":"미개방","maleToilets":3,"femaleToilets":3,"disabled":false,"diaperTable":false,"emergencyBell":false,"cctv":false,"managerTel":"0317906605","source":"public","category":"public"},{"id":"202440400000100908","name":"하남시평생학습관 화장실(1층)","lat":37.536853,"lng":127.214225,"roadAddr":"경기도 하남시 하남대로 732","jibunAddr":"경기도 하남시 신장동 533","openHours":"정시","maleToilets":2,"femaleToilets":4,"disabled":true,"diaperTable":false,"emergencyBell":true,"cctv":false,"managerTel":"0317906009","source":"public","category":"public"},{"id":"202440400000100985","name":"신장도서관 화장실(2층)","lat":37.537876,"lng":127.214339,"roadAddr":"경기도 하남시 하남대로 740","jibunAddr":"경기도 하남시 신장동 520-2","openHours":"불규칙","maleToilets":4,"femaleToilets":3,"disabled":true,"diaperTable":false,"emergencyBell":true,"cctv":false,"managerTel":"0317906945","source":"public","category":"public"},{"id":"202440400000101373","name":"조정경기장 화장실(관람동)","lat":37.553626,"lng":127.21323,"roadAddr":"경기도 하남시 미사대로 505","jibunAddr":"경기도 하남시 신장동 281","openHours":"정시","maleToilets":65,"femaleToilets":19,"disabled":true,"diaperTable":false,"emergencyBell":true,"cctv":false,"managerTel":"0317908831","source":"public","category":"public"},{"id":"202440400000100919","name":"하남문화원 화장실(1층)","lat":37.543882,"lng":127.20671,"roadAddr":"경기도 하남시 덕풍동로 12","jibunAddr":"경기도 하남시 덕풍동 285-80","openHours":"정시","maleToilets":3,"femaleToilets":3,"disabled":true,"diaperTable":false,"emergencyBell":false,"cctv":false,"managerTel":"03151821437","source":"public","category":"public"},{"id":"202440400000101013","name":"하남소방서 화장실(2층)","lat":37.539901,"lng":127.220423,"roadAddr":"경기도 하남시 대청로 76","jibunAddr":"경기도 하남시 신장동 528-1","openHours":"미개방","maleToilets":10,"femaleToilets":2,"disabled":true,"diaperTable":false,"emergencyBell":false,"cctv":false,"managerTel":"0317994221","source":"public","category":"public"},{"id":"202440400000101043","name":"덕풍근린공원 제3공영주차장 B1층","lat":37.537132,"lng":127.19844,"roadAddr":"경기도 하남시 덕풍공원로 70","jibunAddr":"경기도 하남시 덕풍동 435-202","openHours":"상시","maleToilets":4,"femaleToilets":2,"disabled":true,"diaperTable":false,"emergencyBell":true,"cctv":false,"managerTel":"0317909581","source":"public","category":"public"},{"id":"202440400000101390","name":"유니드주유소","lat":37.556605,"lng":127.207109,"roadAddr":"경기도 하남시 미사대로 556 (덕풍동)","jibunAddr":"경기도 하남시 덕풍동 834","openHours":"상시","maleToilets":2,"femaleToilets":2,"disabled":false,"diaperTable":false,"emergencyBell":false,"cctv":false,"managerTel":"0317931443","source":"public","category":"public"},{"id":"202440400000101357","name":"코스트코 하남점 화장실(1층)","lat":37.550429,"lng":127.193873,"roadAddr":"경기도 하남시 미사강변중앙로 40","jibunAddr":"경기도 하남시 풍산동 609-1","openHours":"정시","maleToilets":7,"femaleToilets":7,"disabled":true,"diaperTable":false,"emergencyBell":false,"cctv":false,"managerTel":"0317909400","source":"public","category":"public"},{"id":"202440400000101239","name":"신평어린이공원","lat":37.54406,"lng":127.213551,"roadAddr":"경기도 하남시 신장동로 55","jibunAddr":"경기도 하남시 신장동 594","openHours":"상시","maleToilets":4,"femaleToilets":5,"disabled":true,"diaperTable":false,"emergencyBell":true,"cctv":false,"managerTel":"0317905145","source":"public","category":"public"},{"id":"202440400000101386","name":"하남시종합사회복지관(2층)","lat":37.541707,"lng":127.216021,"roadAddr":"경기도 하남시 덕풍천서로 9","jibunAddr":"경기도 하남시 신장동 521-5","openHours":"미개방","maleToilets":6,"femaleToilets":2,"disabled":true,"diaperTable":false,"emergencyBell":false,"cctv":false,"managerTel":"0317902924","source":"public","category":"public"},{"id":"202440400000101181","name":"경기주유소","lat":37.540809,"lng":127.220711,"roadAddr":"경기도 하남시 대청로 73","jibunAddr":"경기도 하남시 신장동 99-30","openHours":"상시","maleToilets":3,"femaleToilets":3,"disabled":false,"diaperTable":false,"emergencyBell":true,"cctv":false,"managerTel":"0317915070","source":"public","category":"public"},{"id":"202440400000101282","name":"하남시청 종합민원실 화장실(2층)","lat":37.539346,"lng":127.214776,"roadAddr":"경기도 하남시 대청로 10","jibunAddr":"경기도 하남시 신장동 520","openHours":"미개방","maleToilets":6,"femaleToilets":3,"disabled":true,"diaperTable":false,"emergencyBell":true,"cctv":false,"managerTel":"0317906173","source":"public","category":"public"},{"id":"202440400000100906","name":"하남시평생학습관 화장실(3층)","lat":37.536853,"lng":127.214225,"roadAddr":"경기도 하남시 하남대로 732","jibunAddr":"경기도 하남시 신장동 533","openHours":"정시","maleToilets":2,"femaleToilets":4,"disabled":true,"diaperTable":false,"emergencyBell":true,"cctv":false,"managerTel":"0317906009","source":"public","category":"public"},{"id":"202440400000101281","name":"하남시청 본관 지하","lat":37.539346,"lng":127.214776,"roadAddr":"경기도 하남시 대청로 10","jibunAddr":"경기도 하남시 신장동 520","openHours":"미개방","maleToilets":16,"femaleToilets":4,"disabled":true,"diaperTable":false,"emergencyBell":false,"cctv":false,"managerTel":"0317906173","source":"public","category":"public"},{"id":"202440400000101275","name":"하남시청 별관동 4층","lat":37.539346,"lng":127.214776,"roadAddr":"경기도 하남시 대청로 10","jibunAddr":"경기도 하남시 신장동 520","openHours":"미개방","maleToilets":6,"femaleToilets":6,"disabled":true,"diaperTable":false,"emergencyBell":false,"cctv":false,"managerTel":"0317906173","source":"public","category":"public"},{"id":"202440400000101483","name":"하남시 차량등록사무소(1층)","lat":37.541747,"lng":127.214359,"roadAddr":"경기도 하남시 하남대로776번길 79","jibunAddr":"경기도 하남시 덕풍동 521-3,7","openHours":"미개방","maleToilets":3,"femaleToilets":2,"disabled":true,"diaperTable":false,"emergencyBell":true,"cctv":true,"managerTel":"0317905818","source":"public","category":"public"},{"id":"202440400000101051","name":"풍산동행정복지센터 2층","lat":37.549019,"lng":127.185091,"roadAddr":"경기도 하남시 하남대로 1037-4","jibunAddr":"경기도 하남시 풍산동 244-11","openHours":"미개방","maleToilets":3,"femaleToilets":1,"disabled":false,"diaperTable":false,"emergencyBell":false,"cctv":false,"managerTel":"0317906607","source":"public","category":"public"},{"id":"202440400000101174","name":"덕풍1동 행정복지센터 화장실(3층)","lat":37.535143,"lng":127.198449,"roadAddr":"경기도 하남시 덕풍공원로 110","jibunAddr":"경기도 하남시 덕풍동 435-205","openHours":"미개방","maleToilets":3,"femaleToilets":3,"disabled":false,"diaperTable":false,"emergencyBell":false,"cctv":true,"managerTel":"0317916604","source":"public","category":"public"},{"id":"202440400000101308","name":"나룰도서관 2층","lat":37.553377,"lng":127.208438,"roadAddr":"경기도 하남시 덕풍북로180","jibunAddr":"경기도 하남시 덕풍동 739","openHours":"미개방","maleToilets":5,"femaleToilets":5,"disabled":false,"diaperTable":false,"emergencyBell":false,"cctv":false,"managerTel":"0317906887","source":"public","category":"public"},{"id":"202440400000101075","name":"조정경기장 화장실(매점4동)","lat":37.553626,"lng":127.21323,"roadAddr":"경기도 하남시 미사대로 505","jibunAddr":"경기도 하남시 신장동 281","openHours":"정시","maleToilets":7,"femaleToilets":3,"disabled":false,"diaperTable":false,"emergencyBell":true,"cctv":false,"managerTel":"0317908831","source":"public","category":"public"},{"id":"202440400000100928","name":"꿈나라공원","lat":37.537337,"lng":127.221459,"roadAddr":"경기도 하남시 천현로 97","jibunAddr":"경기도 하남시 창우동 520-5","openHours":"상시","maleToilets":0,"femaleToilets":1,"disabled":true,"diaperTable":false,"emergencyBell":true,"cctv":false,"managerTel":"0317905145","source":"public","category":"public"},{"id":"202440400000101184","name":"하남시 차량등록사무소(2층)","lat":37.541747,"lng":127.214359,"roadAddr":"경기도 하남시 하남대로776번길 79","jibunAddr":"경기도 하남시 덕풍동 521-3,7","openHours":"미개방","maleToilets":3,"femaleToilets":3,"disabled":true,"diaperTable":false,"emergencyBell":true,"cctv":true,"managerTel":"0317905818","source":"public","category":"public"},{"id":"202440400000100964","name":"한강둔치(양필석기념비 옆)","lat":37.549453,"lng":127.218208,"roadAddr":"경기도 하남시 미사대로 685","jibunAddr":"경기도 하남시 신장동 246","openHours":"상시","maleToilets":2,"femaleToilets":2,"disabled":true,"diaperTable":true,"emergencyBell":true,"cctv":false,"managerTel":"0317905145","source":"public","category":"public"},{"id":"202440400000101192","name":"하남만남주유소/충전소","lat":37.530691,"lng":127.20695,"roadAddr":"경기도 하남시 중부고속도로 117-1 (천현동)","jibunAddr":"경기도 하남시 천현동 267","openHours":"상시","maleToilets":4,"femaleToilets":1,"disabled":false,"diaperTable":false,"emergencyBell":false,"cctv":false,"managerTel":"0317935800","source":"public","category":"public"},{"id":"202440400000101315","name":"하남셀프주유소","lat":37.5436,"lng":127.197884,"roadAddr":"경기도 하남시 신장로 211 (덕풍동)","jibunAddr":"경기도 하남시 덕풍동 345-38","openHours":"상시","maleToilets":3,"femaleToilets":1,"disabled":false,"diaperTable":false,"emergencyBell":false,"cctv":true,"managerTel":"0317935551","source":"public","category":"public"},{"id":"202440400000101288","name":"하남유니온타워 3층","lat":37.546548,"lng":127.220502,"roadAddr":"경기도 하남시 미사대로710","jibunAddr":"경기도 하남시 신장동 27","openHours":"미개방","maleToilets":2,"femaleToilets":1,"disabled":false,"diaperTable":false,"emergencyBell":false,"cctv":false,"managerTel":"0317906255","source":"public","category":"public"},{"id":"202440400000101212","name":"미사 게이트볼장","lat":37.553336,"lng":127.190478,"roadAddr":"경기도 하남시 조정대로111","jibunAddr":"경기도 하남시 풍산동 537","openHours":"상시","maleToilets":5,"femaleToilets":4,"disabled":false,"diaperTable":false,"emergencyBell":true,"cctv":false,"managerTel":"0317905116","source":"public","category":"public"},{"id":"202440400000101012","name":"하남소방서 화장실(3층)","lat":37.539901,"lng":127.220423,"roadAddr":"경기도 하남시 대청로 76","jibunAddr":"경기도 하남시 신장동 528-1","openHours":"미개방","maleToilets":7,"femaleToilets":2,"disabled":true,"diaperTable":false,"emergencyBell":false,"cctv":false,"managerTel":"0317994221","source":"public","category":"public"},{"id":"202440400000101027","name":"하남문화예술회관 화장실(대극장 1층 우측)","lat":37.544754,"lng":127.206838,"roadAddr":"경기도 하남시 신평로 125","jibunAddr":"경기도 하남시 덕풍동 694","openHours":"미개방","maleToilets":20,"femaleToilets":8,"disabled":true,"diaperTable":true,"emergencyBell":false,"cctv":false,"managerTel":"0317907965","source":"public","category":"public"},{"id":"202440400000100959","name":"덕풍제1공영주차장B3F","lat":37.536931,"lng":127.19984,"roadAddr":"경기도 하남시 덕풍공원로 80","jibunAddr":"경기도 하남시 덕풍동 435-224","openHours":"상시","maleToilets":3,"femaleToilets":2,"disabled":false,"diaperTable":false,"emergencyBell":true,"cctv":false,"managerTel":"0317905145","source":"public","category":"public"},{"id":"202440400000100978","name":"하남시청 본관 3층","lat":37.539346,"lng":127.214776,"roadAddr":"경기도 하남시 대청로 10","jibunAddr":"경기도 하남시 신장동 520","openHours":"미개방","maleToilets":10,"femaleToilets":4,"disabled":true,"diaperTable":false,"emergencyBell":false,"cctv":false,"managerTel":"0317906173","source":"public","category":"public"},{"id":"202440400000101304","name":"덕풍도서관 2층","lat":37.533514,"lng":127.200578,"roadAddr":"경기도 하남시 역말로 14","jibunAddr":"경기도 하남시 덕풍동 522-3","openHours":"미개방","maleToilets":3,"femaleToilets":3,"disabled":false,"diaperTable":false,"emergencyBell":false,"cctv":true,"managerTel":"0317905753","source":"public","category":"public"},{"id":"202440400000101270","name":"꿈나무공원","lat":37.535583,"lng":127.213052,"roadAddr":"경기도 하남시 신장로48번길 30","jibunAddr":"경기도 하남시 천현동 615","openHours":"상시","maleToilets":2,"femaleToilets":3,"disabled":true,"diaperTable":false,"emergencyBell":true,"cctv":false,"managerTel":"0317905146","source":"public","category":"public"},{"id":"202440400000101052","name":"풍산동행정복지센터 3층","lat":37.549019,"lng":127.185091,"roadAddr":"경기도 하남시 하남대로 1037-4","jibunAddr":"경기도 하남시 풍산동 244-11","openHours":"미개방","maleToilets":3,"femaleToilets":1,"disabled":false,"diaperTable":false,"emergencyBell":false,"cctv":false,"managerTel":"0317906607","source":"public","category":"public"},{"id":"202440400000101455","name":"미사2동 행정복지센터 2층","lat":37.567183,"lng":127.186068,"roadAddr":"경기도 하남시 아리수로 531 2층","jibunAddr":"경기도 하남시 망월동 981","openHours":"미개방","maleToilets":4,"femaleToilets":4,"disabled":true,"diaperTable":true,"emergencyBell":false,"cctv":false,"managerTel":"0317906612","source":"public","category":"public"},{"id":"202440400000101000","name":"디지털도서관 1층","lat":37.563075,"lng":127.19701,"roadAddr":"경기도 하남시 미사강변한강로 290-2","jibunAddr":"경기도 하남시 망월동 1140","openHours":"미개방","maleToilets":5,"femaleToilets":3,"disabled":true,"diaperTable":true,"emergencyBell":true,"cctv":false,"managerTel":"0317905175","source":"public","category":"public"},{"id":"202440400000101099","name":"신장전통시장상인회 주차장(1F)","lat":37.537887,"lng":127.207028,"roadAddr":"경기도 하남시 신장1로 3번길 42","jibunAddr":"경기도 하남시 신장동 429-1","openHours":"상시","maleToilets":5,"femaleToilets":3,"disabled":false,"diaperTable":false,"emergencyBell":false,"cctv":false,"managerTel":"0317944626","source":"public","category":"public"},{"id":"202440400000101098","name":"신정프라자(1F)","lat":37.54266,"lng":127.204293,"roadAddr":"경기도 하남시 하남대로 843","jibunAddr":"경기도 하남시 덕풍동 321-2","openHours":"상시","maleToilets":7,"femaleToilets":4,"disabled":false,"diaperTable":false,"emergencyBell":false,"cctv":false,"managerTel":"0317941094","source":"public","category":"public"},{"id":"202440400000101459","name":"미사1동행정복지센터 3층","lat":37.560287,"lng":127.188778,"roadAddr":"경기도 하남시 미사강변남로 59","jibunAddr":"경기도 하남시 망월동 1071","openHours":"미개방","maleToilets":6,"femaleToilets":6,"disabled":true,"diaperTable":true,"emergencyBell":false,"cctv":true,"managerTel":"0317906611","source":"public","category":"public"},{"id":"202440400000101233","name":"풍산지구2호공원","lat":37.550367,"lng":127.201209,"roadAddr":"경기도 하남시 덕풍서로 21","jibunAddr":"경기도 하남시 덕풍동 776","openHours":"상시","maleToilets":4,"femaleToilets":5,"disabled":true,"diaperTable":false,"emergencyBell":true,"cctv":false,"managerTel":"0317905145","source":"public","category":"public"},{"id":"202440400000101154","name":"미사2동 행정복지센터 1층","lat":37.567183,"lng":127.186068,"roadAddr":"경기도 하남시 아리수로 531 1층","jibunAddr":"경기도 하남시 망월동 981","openHours":"미개방","maleToilets":4,"femaleToilets":4,"disabled":true,"diaperTable":true,"emergencyBell":true,"cctv":false,"managerTel":"0317906612","source":"public","category":"public"},{"id":"202440400000101203","name":"하남시평생학습관 화장실(4층)","lat":37.536853,"lng":127.214225,"roadAddr":"경기도 하남시 하남대로 732","jibunAddr":"경기도 하남시 신장동 533","openHours":"정시","maleToilets":0,"femaleToilets":4,"disabled":false,"diaperTable":false,"emergencyBell":true,"cctv":false,"managerTel":"0317906009","source":"public","category":"public"},{"id":"202440400000100965","name":"미사뚝방산책로","lat":37.56766,"lng":127.211602,"roadAddr":"경기도 하남시 한강남자전거길 4752","jibunAddr":"경기도 하남시 미사동 518-19","openHours":"상시","maleToilets":3,"femaleToilets":3,"disabled":false,"diaperTable":false,"emergencyBell":true,"cctv":false,"managerTel":"0317905145","source":"public","category":"public"},{"id":"202440400000101273","name":"하남시청 별관동 2층","lat":37.539346,"lng":127.214776,"roadAddr":"경기도 하남시 대청로 10","jibunAddr":"경기도 하남시 신장동 520","openHours":"미개방","maleToilets":7,"femaleToilets":8,"disabled":true,"diaperTable":false,"emergencyBell":true,"cctv":false,"managerTel":"0317906173","source":"public","category":"public"},{"id":"202440400000101055","name":"코스트코 하남점 화장실(3층)","lat":37.550429,"lng":127.193873,"roadAddr":"경기도 하남시 미사강변중앙로 40","jibunAddr":"경기도 하남시 풍산동 609-1","openHours":"정시","maleToilets":2,"femaleToilets":2,"disabled":false,"diaperTable":false,"emergencyBell":false,"cctv":false,"managerTel":"0317909400","source":"public","category":"public"},{"id":"202440400000101157","name":"미사1동행정복지센터 1층","lat":37.560287,"lng":127.188778,"roadAddr":"경기도 하남시 미사강변남로 59","jibunAddr":"경기도 하남시 망월동 1071","openHours":"미개방","maleToilets":4,"femaleToilets":4,"disabled":true,"diaperTable":true,"emergencyBell":false,"cctv":true,"managerTel":"0317906611","source":"public","category":"public"},{"id":"202440400000100904","name":"하남이마트 화장실(1층)","lat":37.552757,"lng":127.20537,"roadAddr":"경기도 하남시 덕풍서로 70","jibunAddr":"경기도 하남시 덕풍동 736","openHours":"정시","maleToilets":6,"femaleToilets":7,"disabled":true,"diaperTable":true,"emergencyBell":true,"cctv":false,"managerTel":"0315241234","source":"public","category":"public"},{"id":"202440400000101160","name":"리치플러스 하남센터(1F)","lat":37.551435,"lng":127.207944,"roadAddr":"경기도 하남시 덕풍동로 111-15","jibunAddr":"경기도 하남시 덕풍동 744-1","openHours":"상시","maleToilets":4,"femaleToilets":2,"disabled":false,"diaperTable":false,"emergencyBell":false,"cctv":false,"managerTel":"0317935023","source":"public","category":"public"},{"id":"202440400000100903","name":"하남이마트 화장실(2층)","lat":37.552757,"lng":127.20537,"roadAddr":"경기도 하남시 덕풍서로 70","jibunAddr":"경기도 하남시 덕풍동 736","openHours":"정시","maleToilets":6,"femaleToilets":5,"disabled":true,"diaperTable":false,"emergencyBell":true,"cctv":false,"managerTel":"0315241234","source":"public","category":"public"},{"id":"202440400000101456","name":"미사2동 행정복지센터 3층","lat":37.567183,"lng":127.186068,"roadAddr":"경기도 하남시 아리수로 531 3층","jibunAddr":"경기도 하남시 망월동 981","openHours":"미개방","maleToilets":4,"femaleToilets":4,"disabled":false,"diaperTable":true,"emergencyBell":false,"cctv":false,"managerTel":"0317906612","source":"public","category":"public"},{"id":"202440400000101151","name":"보건소 화장실(1층)","lat":37.539346,"lng":127.214776,"roadAddr":"경기도 하남시 대청로 10","jibunAddr":"경기도 하남시 신장동 520","openHours":"정시","maleToilets":4,"femaleToilets":3,"disabled":true,"diaperTable":true,"emergencyBell":true,"cctv":false,"managerTel":"0317906555","source":"public","category":"public"},{"id":"202440400000101053","name":"코스트코 하남점 화장실(5층)","lat":37.550429,"lng":127.193873,"roadAddr":"경기도 하남시 미사강변중앙로 40","jibunAddr":"경기도 하남시 풍산동 609-1","openHours":"정시","maleToilets":1,"femaleToilets":1,"disabled":false,"diaperTable":false,"emergencyBell":false,"cctv":false,"managerTel":"0317909400","source":"public","category":"public"},{"id":"202440400000100932","name":"한솔리치빌공원","lat":37.535197,"lng":127.195882,"roadAddr":"경기도 하남시 덕산로 67","jibunAddr":"경기도 하남시 덕풍동 680","openHours":"상시","maleToilets":2,"femaleToilets":1,"disabled":true,"diaperTable":false,"emergencyBell":true,"cctv":false,"managerTel":"0317905145","source":"public","category":"public"},{"id":"202440400000101033","name":"하남종합운동장 화장실(안내소)","lat":37.5657,"lng":127.193906,"roadAddr":"경기도 하남시 아리수로 600","jibunAddr":"경기도 하남시 망월동 200","openHours":"상시","maleToilets":8,"femaleToilets":4,"disabled":true,"diaperTable":false,"emergencyBell":false,"cctv":false,"managerTel":"0317902000","source":"public","category":"public"},{"id":"202440400000101318","name":"미사보건센터3층","lat":37.567639,"lng":127.185541,"roadAddr":"경기도 하남시 미사강변대로 200","jibunAddr":"경기도 하남시 망월동 980","openHours":"미개방","maleToilets":2,"femaleToilets":3,"disabled":true,"diaperTable":true,"emergencyBell":true,"cctv":false,"managerTel":"0317906486","source":"public","category":"public"},{"id":"202440400000100974","name":"하남시청 별관동 3층","lat":37.539346,"lng":127.214776,"roadAddr":"경기도 하남시 대청로 10","jibunAddr":"경기도 하남시 신장동 520","openHours":"미개방","maleToilets":6,"femaleToilets":6,"disabled":true,"diaperTable":false,"emergencyBell":false,"cctv":false,"managerTel":"0317906173","source":"public","category":"public"},{"id":"202440400000100952","name":"세미근린공원","lat":37.545588,"lng":127.195013,"roadAddr":"경기도 하남시 하남대로 939","jibunAddr":"경기도 하남시 풍산동 623","openHours":"상시","maleToilets":4,"femaleToilets":3,"disabled":true,"diaperTable":true,"emergencyBell":true,"cctv":false,"managerTel":"0317905145","source":"public","category":"public"},{"id":"202440400000101280","name":"하남시청 본관 1층","lat":37.539346,"lng":127.214776,"roadAddr":"경기도 하남시 대청로 10","jibunAddr":"경기도 하남시 신장동 520","openHours":"미개방","maleToilets":8,"femaleToilets":5,"disabled":true,"diaperTable":true,"emergencyBell":true,"cctv":false,"managerTel":"0317906173","source":"public","category":"public"},{"id":"202440400000101302","name":"디지털도서관 3층","lat":37.563075,"lng":127.19701,"roadAddr":"경기도 하남시 미사강변한강로 290-2","jibunAddr":"경기도 하남시 망월동 1140","openHours":"미개방","maleToilets":5,"femaleToilets":3,"disabled":true,"diaperTable":true,"emergencyBell":true,"cctv":false,"managerTel":"0317905175","source":"public","category":"public"},{"id":"202440400000101401","name":"신장2동 행정복지센터 화장실(1층)","lat":37.54169,"lng":127.213922,"roadAddr":"경기도 하남시 대청로21번길 32","jibunAddr":"경기도 하남시 신장동 521-1","openHours":"미개방","maleToilets":6,"femaleToilets":4,"disabled":true,"diaperTable":true,"emergencyBell":false,"cctv":true,"managerTel":"0317906603","source":"public","category":"public"},{"id":"202440400000101172","name":"덕풍2동행정복지센터(3층)","lat":37.542279,"lng":127.198119,"roadAddr":"경기도 하남시 덕풍공원로 12","jibunAddr":"경기도 하남시 덕풍동 693","openHours":"미개방","maleToilets":1,"femaleToilets":2,"disabled":true,"diaperTable":false,"emergencyBell":false,"cctv":false,"managerTel":"0317906605","source":"public","category":"public"},{"id":"202440400000100898","name":"하남홈플러스 화장실(지하2층)","lat":37.537996,"lng":127.212631,"roadAddr":"경기도 하남시 하남대로 747","jibunAddr":"경기도 하남시 신장동 570","openHours":"정시","maleToilets":4,"femaleToilets":4,"disabled":true,"diaperTable":false,"emergencyBell":false,"cctv":false,"managerTel":"0317777000","source":"public","category":"public"},{"id":"202440400000101356","name":"코스트코 하남점 화장실(2층)","lat":37.550429,"lng":127.193873,"roadAddr":"경기도 하남시 미사강변중앙로 40","jibunAddr":"경기도 하남시 풍산동 609-1","openHours":"정시","maleToilets":3,"femaleToilets":3,"disabled":false,"diaperTable":false,"emergencyBell":false,"cctv":false,"managerTel":"0317909400","source":"public","category":"public"},{"id":"202440400000101034","name":"하남종합운동장 화장실(본부석1층)","lat":37.5657,"lng":127.193906,"roadAddr":"경기도 하남시 아리수로 600","jibunAddr":"경기도 하남시 망월동 200","openHours":"상시","maleToilets":3,"femaleToilets":3,"disabled":true,"diaperTable":false,"emergencyBell":false,"cctv":false,"managerTel":"0317902000","source":"public","category":"public"},{"id":"202440400000101287","name":"하남유니온타워 1층","lat":37.546548,"lng":127.220502,"roadAddr":"경기도 하남시 미사대로710","jibunAddr":"경기도 하남시 신장동 27","openHours":"미개방","maleToilets":7,"femaleToilets":4,"disabled":true,"diaperTable":true,"emergencyBell":false,"cctv":false,"managerTel":"0317906255","source":"public","category":"public"},{"id":"202440400000101450","name":"보건소 화장실(2층)","lat":37.539346,"lng":127.214776,"roadAddr":"경기도 하남시 대청로 10","jibunAddr":"경기도 하남시 신장동 520","openHours":"정시","maleToilets":4,"femaleToilets":3,"disabled":false,"diaperTable":false,"emergencyBell":false,"cctv":false,"managerTel":"0317906555","source":"public","category":"public"},{"id":"202440400000101330","name":"하남역사박물관 화장실(1층)","lat":37.54546,"lng":127.206084,"roadAddr":"경기도 하남시 덕풍동로 30","jibunAddr":"경기도 하남시 덕풍동 694-1","openHours":"미개방","maleToilets":5,"femaleToilets":5,"disabled":false,"diaperTable":true,"emergencyBell":false,"cctv":false,"managerTel":"0317907965","source":"public","category":"public"},{"id":"202440400000100989","name":"일가도서관 1층","lat":37.558602,"lng":127.183339,"roadAddr":"경기도 하남시 미사강변남로 10","jibunAddr":"경기도 하남시 풍산동 168-3","openHours":"미개방","maleToilets":2,"femaleToilets":2,"disabled":true,"diaperTable":false,"emergencyBell":true,"cctv":false,"managerTel":"0317905175","source":"public","category":"public"},{"id":"202440400000101276","name":"하남시청 별관동 5층","lat":37.539346,"lng":127.214776,"roadAddr":"경기도 하남시 대청로 10","jibunAddr":"경기도 하남시 신장동 520","openHours":"미개방","maleToilets":5,"femaleToilets":7,"disabled":true,"diaperTable":false,"emergencyBell":false,"cctv":false,"managerTel":"0317906173","source":"public","category":"public"},{"id":"202440400000101377","name":"조정경기장 화장실(매점1동)","lat":37.553626,"lng":127.21323,"roadAddr":"경기도 하남시 미사대로 505","jibunAddr":"경기도 하남시 신장동 281","openHours":"정시","maleToilets":14,"femaleToilets":14,"disabled":true,"diaperTable":false,"emergencyBell":true,"cctv":false,"managerTel":"0317908831","source":"public","category":"public"},{"id":"202440400000101296","name":"미사도서관 1층","lat":37.567618,"lng":127.187303,"roadAddr":"경기도 하남시 아리수로 545","jibunAddr":"경기도 하남시 망월동 955","openHours":"미개방","maleToilets":6,"femaleToilets":7,"disabled":true,"diaperTable":true,"emergencyBell":true,"cctv":false,"managerTel":"0317905175","source":"public","category":"public"},{"id":"202440400000101215","name":"하남문화원 화장실(3층)","lat":37.543882,"lng":127.20671,"roadAddr":"경기도 하남시 덕풍동로 12","jibunAddr":"경기도 하남시 덕풍동 285-80","openHours":"정시","maleToilets":3,"femaleToilets":3,"disabled":false,"diaperTable":false,"emergencyBell":false,"cctv":false,"managerTel":"03151821437","source":"public","category":"public"},{"id":"202440400000101169","name":"덕풍3동 행정복지센터 3층","lat":37.552512,"lng":127.204786,"roadAddr":"경기도 하남시 덕풍서로 66","jibunAddr":"경기도 하남시 덕풍동 737","openHours":"미개방","maleToilets":6,"femaleToilets":3,"disabled":false,"diaperTable":false,"emergencyBell":false,"cctv":false,"managerTel":"0317906606","source":"public","category":"public"},{"id":"202440400000101036","name":"하남종합운동장 화장실(다목적체육관)","lat":37.5657,"lng":127.193906,"roadAddr":"경기도 하남시 아리수로 600","jibunAddr":"경기도 하남시 망월동 200","openHours":"상시","maleToilets":22,"femaleToilets":22,"disabled":true,"diaperTable":false,"emergencyBell":false,"cctv":false,"managerTel":"0317902000","source":"public","category":"public"},{"id":"202440400000100983","name":"하남시청 종합민원실 화장실(1층)","lat":37.539346,"lng":127.214776,"roadAddr":"경기도 하남시 대청로 10","jibunAddr":"경기도 하남시 신장동 520","openHours":"미개방","maleToilets":6,"femaleToilets":4,"disabled":false,"diaperTable":false,"emergencyBell":false,"cctv":false,"managerTel":"0317906173","source":"public","category":"public"},{"id":"202440400000101325","name":"하남문화예술회관 화장실(대극장 2층)","lat":37.544754,"lng":127.206838,"roadAddr":"경기도 하남시 신평로 125","jibunAddr":"경기도 하남시 덕풍동 694","openHours":"미개방","maleToilets":16,"femaleToilets":12,"disabled":true,"diaperTable":false,"emergencyBell":false,"cctv":false,"managerTel":"0317907965","source":"public","category":"public"},{"id":"202440400000101084","name":"하남시종합사회복지관(4층)","lat":37.541707,"lng":127.216021,"roadAddr":"경기도 하남시 덕풍천서로 9","jibunAddr":"경기도 하남시 신장동 521-5","openHours":"미개방","maleToilets":6,"femaleToilets":2,"disabled":true,"diaperTable":false,"emergencyBell":false,"cctv":false,"managerTel":"0317902924","source":"public","category":"public"},{"id":"202440400000101032","name":"하남종합운동장 화장실(테니스장)","lat":37.5657,"lng":127.193906,"roadAddr":"경기도 하남시 아리수로 600","jibunAddr":"경기도 하남시 망월동 200","openHours":"상시","maleToilets":5,"femaleToilets":3,"disabled":true,"diaperTable":false,"emergencyBell":false,"cctv":false,"managerTel":"0317902000","source":"public","category":"public"},{"id":"202440400000101023","name":"하남문화예술회관 화장실(상가동)","lat":37.544754,"lng":127.206838,"roadAddr":"경기도 하남시 신평로 125","jibunAddr":"경기도 하남시 덕풍동 694","openHours":"미개방","maleToilets":4,"femaleToilets":3,"disabled":true,"diaperTable":false,"emergencyBell":false,"cctv":false,"managerTel":"0317907965","source":"public","category":"public"},{"id":"202440400000101167","name":"덕풍3동 행정복지센터 1층","lat":37.552512,"lng":127.204786,"roadAddr":"경기도 하남시 덕풍서로 66","jibunAddr":"경기도 하남시 덕풍동 737","openHours":"미개방","maleToilets":4,"femaleToilets":3,"disabled":true,"diaperTable":true,"emergencyBell":false,"cctv":false,"managerTel":"0317906606","source":"public","category":"public"},{"id":"202440400000101049","name":"풍산주유소","lat":37.547155,"lng":127.19307,"roadAddr":"경기도 하남시 하남대로 956","jibunAddr":"경기도 하남시 풍산동 318-2","openHours":"상시","maleToilets":4,"femaleToilets":2,"disabled":false,"diaperTable":false,"emergencyBell":false,"cctv":false,"managerTel":"0317952100","source":"public","category":"public"},{"id":"202440400000101367","name":"천현플러스주유소","lat":37.531163,"lng":127.201101,"roadAddr":"경기도 하남시 대성로 239 (천현동)","jibunAddr":"경기도 하남시 천현동 290-1","openHours":"상시","maleToilets":1,"femaleToilets":1,"disabled":false,"diaperTable":false,"emergencyBell":false,"cctv":false,"managerTel":"0317955144","source":"public","category":"public"},{"id":"202440400000101016","name":"미사보건센터1층","lat":37.567639,"lng":127.185541,"roadAddr":"경기도 하남시 미사강변대로 200","jibunAddr":"경기도 하남시 망월동 980","openHours":"미개방","maleToilets":3,"femaleToilets":3,"disabled":true,"diaperTable":true,"emergencyBell":true,"cctv":false,"managerTel":"0317906486","source":"public","category":"public"},{"id":"202440400000101309","name":"나룰도서관 3층","lat":37.553377,"lng":127.208438,"roadAddr":"경기도 하남시 덕풍북로180","jibunAddr":"경기도 하남시 덕풍동 739","openHours":"미개방","maleToilets":5,"femaleToilets":5,"disabled":false,"diaperTable":false,"emergencyBell":false,"cctv":false,"managerTel":"0317906887","source":"public","category":"public"},{"id":"202440400000101284","name":"신장도서관 화장실(1층)","lat":37.537876,"lng":127.214339,"roadAddr":"경기도 하남시 하남대로 740","jibunAddr":"경기도 하남시 신장동 520-2","openHours":"불규칙","maleToilets":4,"femaleToilets":3,"disabled":true,"diaperTable":true,"emergencyBell":true,"cctv":false,"managerTel":"0317906945","source":"public","category":"public"},{"id":"202440400000101096","name":"씨앤에스유통(주)구도일주유소 풍산신도시","lat":37.550496,"lng":127.20816,"roadAddr":"경기도 하남시 덕풍동로 101 (덕풍동)","jibunAddr":"경기도 하남시 덕풍동 793","openHours":"상시","maleToilets":3,"femaleToilets":1,"disabled":false,"diaperTable":false,"emergencyBell":false,"cctv":false,"managerTel":"0317965105","source":"public","category":"public"},{"id":"202440400000101104","name":"신장1동 행정복지센터 화장실(1층)","lat":37.538798,"lng":127.209592,"roadAddr":"경기도 하남시 신장1로27번길 13","jibunAddr":"경기도 하남시 신장동 446-17","openHours":"미개방","maleToilets":3,"femaleToilets":2,"disabled":true,"diaperTable":false,"emergencyBell":false,"cctv":true,"managerTel":"0317906602","source":"public","category":"public"},{"id":"202440400000100972","name":"하남시청 별관동 1층","lat":37.539346,"lng":127.214776,"roadAddr":"경기도 하남시 대청로 10","jibunAddr":"경기도 하남시 신장동 520","openHours":"미개방","maleToilets":6,"femaleToilets":6,"disabled":true,"diaperTable":false,"emergencyBell":true,"cctv":false,"managerTel":"0317906173","source":"public","category":"public"},{"id":"202440400000101238","name":"덕풍근린공원","lat":37.5345,"lng":127.198821,"roadAddr":"경기도 하남시 덕풍공원로 116","jibunAddr":"경기도 하남시 덕풍동 435-202","openHours":"상시","maleToilets":4,"femaleToilets":5,"disabled":true,"diaperTable":false,"emergencyBell":true,"cctv":true,"managerTel":"0317905145","source":"public","category":"public"},{"id":"202440400000100900","name":"하남창우동 우체국 화장실","lat":37.539936,"lng":127.221158,"roadAddr":"경기도 하남시 대청로 80","jibunAddr":"경기도 하남시 창우동 520-1","openHours":"정시","maleToilets":2,"femaleToilets":2,"disabled":false,"diaperTable":false,"emergencyBell":false,"cctv":false,"managerTel":"0317912006","source":"public","category":"public"},{"id":"202440400000100960","name":"덕풍제2공영주차장1F","lat":37.536094,"lng":127.199397,"roadAddr":"경기도 하남시 덕풍공원로 100","jibunAddr":"경기도 하남시 덕풍동 435-208","openHours":"상시","maleToilets":2,"femaleToilets":1,"disabled":false,"diaperTable":false,"emergencyBell":true,"cctv":false,"managerTel":"0317905145","source":"public","category":"public"},{"id":"202440400000101029","name":"하남역사박물관 화장실(2층)","lat":37.54546,"lng":127.206084,"roadAddr":"경기도 하남시 덕풍동로 30","jibunAddr":"경기도 하남시 덕풍동 694-1","openHours":"미개방","maleToilets":5,"femaleToilets":5,"disabled":true,"diaperTable":false,"emergencyBell":false,"cctv":false,"managerTel":"0317907965","source":"public","category":"public"},{"id":"202440400000101311","name":"하남수산물시장 E4동(1F)","lat":37.548781,"lng":127.184788,"roadAddr":"경기도 하남시 하남대로 1043-17","jibunAddr":"경기도 하남시 풍산동 218-55","openHours":"상시","maleToilets":5,"femaleToilets":2,"disabled":false,"diaperTable":false,"emergencyBell":false,"cctv":false,"source":"public","category":"public"},{"id":"202440400000101228","name":"새싹공원","lat":37.542717,"lng":127.212751,"roadAddr":"경기도 하남시 하남대로802번길 85","jibunAddr":"경기도 하남시 신장동 560-1","openHours":"상시","maleToilets":2,"femaleToilets":1,"disabled":false,"diaperTable":false,"emergencyBell":true,"cctv":false,"managerTel":"0317905145","source":"public","category":"public"},{"id":"202440400000101244","name":"미사호수공원","lat":37.563095,"lng":127.186843,"roadAddr":"경기도 하남시 미사강변대로 150","jibunAddr":"경기도 하남시 망월동 737-1","openHours":"상시","maleToilets":5,"femaleToilets":8,"disabled":true,"diaperTable":true,"emergencyBell":true,"cctv":false,"managerTel":"0317905145","source":"public","category":"public"},{"id":"202440400000101294","name":"세미도서관 2층","lat":37.543444,"lng":127.194092,"roadAddr":"경기도 하남시 세미로 1길 15","jibunAddr":"경기도 하남시 풍산동 635","openHours":"미개방","maleToilets":2,"femaleToilets":2,"disabled":false,"diaperTable":false,"emergencyBell":false,"cctv":false,"managerTel":"0317906804","source":"public","category":"public"},{"id":"202440400000100937","name":"풍산지구4호공원","lat":37.546007,"lng":127.205797,"roadAddr":"경기도 하남시 덕풍동로 36","jibunAddr":"경기도 하남시 덕풍동 824","openHours":"상시","maleToilets":5,"femaleToilets":5,"disabled":true,"diaperTable":true,"emergencyBell":true,"cctv":false,"managerTel":"0317905145","source":"public","category":"public"},{"id":"202440400000101071","name":"조정경기장 화장실(메인 주차장)","lat":37.553626,"lng":127.21323,"roadAddr":"경기도 하남시 미사대로 505","jibunAddr":"경기도 하남시 신장동 281","openHours":"정시","maleToilets":11,"femaleToilets":6,"disabled":true,"diaperTable":false,"emergencyBell":true,"cctv":false,"managerTel":"0317908831","source":"public","category":"public"},{"id":"202440400000101299","name":"미사도서관 4층","lat":37.567618,"lng":127.187303,"roadAddr":"경기도 하남시 아리수로 545","jibunAddr":"경기도 하남시 망월동 955","openHours":"미개방","maleToilets":6,"femaleToilets":7,"disabled":true,"diaperTable":true,"emergencyBell":true,"cctv":false,"managerTel":"0317905175","source":"public","category":"public"},{"id":"202440400000101100","name":"신장2동 행정복지센터 화장실(2층)","lat":37.54169,"lng":127.213922,"roadAddr":"경기도 하남시 대청로21번길 32","jibunAddr":"경기도 하남시 신장동 521-1","openHours":"미개방","maleToilets":6,"femaleToilets":3,"disabled":false,"diaperTable":false,"emergencyBell":false,"cctv":false,"managerTel":"0317906603","source":"public","category":"public"},{"id":"202440400000101345","name":"미사파출소 화장실","lat":37.567569,"lng":127.189863,"roadAddr":"경기도 하남시 아리수로 567","jibunAddr":"경기도 하남시 망월동 952-1","openHours":"미개방","maleToilets":2,"femaleToilets":1,"disabled":true,"diaperTable":false,"emergencyBell":false,"cctv":false,"managerTel":"0317940112","source":"public","category":"public"},{"id":"202440400000101465","name":"덕풍주유소","lat":37.54198,"lng":127.205707,"roadAddr":"경기도 하남시 하남대로 829 (덕풍동)","jibunAddr":"경기도 하남시 덕풍동 318-29","openHours":"상시","maleToilets":3,"femaleToilets":1,"disabled":false,"diaperTable":false,"emergencyBell":false,"cctv":false,"managerTel":"0317926711","source":"public","category":"public"},{"id":"202440400000101164","name":"동부주유소","lat":37.536404,"lng":127.208017,"roadAddr":"경기도 하남시 신장로 85","jibunAddr":"경기도 하남시 신장동 434-2","openHours":"상시","maleToilets":2,"femaleToilets":1,"disabled":false,"diaperTable":false,"emergencyBell":false,"cctv":false,"managerTel":"0317922456","source":"public","category":"public"},{"id":"202440400000101314","name":"하남소방서 화장실(1층)","lat":37.539901,"lng":127.220423,"roadAddr":"경기도 하남시 대청로 76","jibunAddr":"경기도 하남시 신장동 528-1","openHours":"미개방","maleToilets":9,"femaleToilets":0,"disabled":true,"diaperTable":false,"emergencyBell":false,"cctv":false,"managerTel":"0317994221","source":"public","category":"public"},{"id":"202440400000101344","name":"수리골공영주차장 B2층","lat":37.545393,"lng":127.198507,"roadAddr":"경기도 하남시 신장로228번길5","jibunAddr":"경기도 하남시 덕풍동 336-5","openHours":"상시","maleToilets":3,"femaleToilets":3,"disabled":true,"diaperTable":false,"emergencyBell":true,"cctv":false,"managerTel":"0317909581","source":"public","category":"public"},{"id":"202440400000100998","name":"미사도서관 3층","lat":37.567618,"lng":127.187303,"roadAddr":"경기도 하남시 아리수로 545","jibunAddr":"경기도 하남시 망월동 955","openHours":"미개방","maleToilets":6,"femaleToilets":7,"disabled":true,"diaperTable":true,"emergencyBell":true,"cctv":false,"managerTel":"0317905175","source":"public","category":"public"},{"id":"202440400000101079","name":"조정경기장 화장실(관리동)","lat":37.553626,"lng":127.21323,"roadAddr":"경기도 하남시 미사대로 505","jibunAddr":"경기도 하남시 신장동 281","openHours":"정시","maleToilets":13,"femaleToilets":5,"disabled":true,"diaperTable":true,"emergencyBell":true,"cctv":false,"managerTel":"0317908831","source":"public","category":"public"},{"id":"202440400000101041","name":"덕풍제2공영주차장 B3층","lat":37.536094,"lng":127.199397,"roadAddr":"경기도 하남시 덕풍공원로 100","jibunAddr":"경기도 하남시 덕풍동 435-208","openHours":"상시","maleToilets":2,"femaleToilets":1,"disabled":true,"diaperTable":false,"emergencyBell":true,"cctv":false,"managerTel":"0317909581","source":"public","category":"public"},{"id":"202440400000100913","name":"덕풍동 체육시설","lat":37.533674,"lng":127.193893,"roadAddr":"경기도 하남시 이성로 12-66","jibunAddr":"경기도 하남시 덕풍동 598-1","openHours":"상시","maleToilets":3,"femaleToilets":2,"disabled":true,"diaperTable":false,"emergencyBell":false,"cctv":true,"managerTel":"0317905940","source":"public","category":"public"},{"id":"202440400000101307","name":"나룰도서관 1층","lat":37.553377,"lng":127.208438,"roadAddr":"경기도 하남시 덕풍북로180","jibunAddr":"경기도 하남시 덕풍동 739","openHours":"미개방","maleToilets":5,"femaleToilets":5,"disabled":true,"diaperTable":true,"emergencyBell":false,"cctv":false,"managerTel":"0317906887","source":"public","category":"public"},{"id":"202440400000101378","name":"조정경기장 화장실(운영동)","lat":37.553626,"lng":127.21323,"roadAddr":"경기도 하남시 미사대로 505","jibunAddr":"경기도 하남시 신장동 281","openHours":"정시","maleToilets":31,"femaleToilets":18,"disabled":true,"diaperTable":false,"emergencyBell":true,"cctv":false,"managerTel":"0317908831","source":"public","category":"public"},{"id":"202440400000101199","name":"하남지식산업센터(그린존②)","lat":37.553526,"lng":127.194669,"roadAddr":"경기도 하남시 조정대로 150","jibunAddr":"경기도 하남시 덕풍동 762","openHours":"상시","maleToilets":4,"femaleToilets":2,"disabled":false,"diaperTable":false,"emergencyBell":false,"cctv":false,"managerTel":"0317904113","source":"public","category":"public"},{"id":"202440400000101475","name":"덕풍1동 행정복지센터 화장실(2층)","lat":37.535143,"lng":127.198449,"roadAddr":"경기도 하남시 덕풍공원로 110","jibunAddr":"경기도 하남시 덕풍동 435-205","openHours":"미개방","maleToilets":3,"femaleToilets":3,"disabled":false,"diaperTable":false,"emergencyBell":false,"cctv":true,"managerTel":"0317916604","source":"public","category":"public"},{"id":"202440400000101218","name":"미사호수공원(미사1동행정복지센터인근)","lat":37.56118,"lng":127.188764,"roadAddr":"경기도 하남시 미사강변대로 120","openHours":"상시","maleToilets":2,"femaleToilets":3,"disabled":true,"diaperTable":true,"emergencyBell":true,"cctv":false,"managerTel":"0317905145","source":"public","category":"public"},{"id":"202440400000101026","name":"하남문화예술회관 화장실(대극장 1층 좌측)","lat":37.544754,"lng":127.206838,"roadAddr":"경기도 하남시 신평로 125","jibunAddr":"경기도 하남시 덕풍동 694","openHours":"미개방","maleToilets":3,"femaleToilets":2,"disabled":true,"diaperTable":true,"emergencyBell":false,"cctv":false,"managerTel":"0317907965","source":"public","category":"public"},{"id":"202440400000101074","name":"조정경기장 화장실(매점5동)","lat":37.553626,"lng":127.21323,"roadAddr":"경기도 하남시 미사대로 505","jibunAddr":"경기도 하남시 신장동 281","openHours":"정시","maleToilets":14,"femaleToilets":14,"disabled":true,"diaperTable":false,"emergencyBell":true,"cctv":false,"managerTel":"0317908831","source":"public","category":"public"},{"id":"202440400000100977","name":"하남시청 본관 4층","lat":37.539346,"lng":127.214776,"roadAddr":"경기도 하남시 대청로 10","jibunAddr":"경기도 하남시 신장동 520","openHours":"미개방","maleToilets":9,"femaleToilets":5,"disabled":true,"diaperTable":false,"emergencyBell":false,"cctv":false,"managerTel":"0317906173","source":"public","category":"public"},{"id":"202440400000101324","name":"하남문화예술회관 화장실(소극장)","lat":37.544754,"lng":127.206838,"roadAddr":"경기도 하남시 신평로 125","jibunAddr":"경기도 하남시 덕풍동 694","openHours":"미개방","maleToilets":6,"femaleToilets":4,"disabled":true,"diaperTable":true,"emergencyBell":false,"cctv":false,"managerTel":"0317907965","source":"public","category":"public"},{"id":"202440400000101003","name":"덕풍도서관 1층","lat":37.533514,"lng":127.200578,"roadAddr":"경기도 하남시 역말로 14","jibunAddr":"경기도 하남시 덕풍동 522-3","openHours":"미개방","maleToilets":0,"femaleToilets":1,"disabled":true,"diaperTable":false,"emergencyBell":true,"cctv":true,"managerTel":"0317905753","source":"public","category":"public"},{"id":"202440400000100921","name":"신장 근린제1호공원","lat":37.539082,"lng":127.213309,"roadAddr":"경기도 하남시 하남대로  756","jibunAddr":"경기도 하남시 신장동 520-2","openHours":"상시","maleToilets":4,"femaleToilets":5,"disabled":true,"diaperTable":false,"emergencyBell":true,"cctv":false,"managerTel":"0317905145","source":"public","category":"public"},{"id":"202440400000101350","name":"풍산동행정복지센터 1층","lat":37.549019,"lng":127.185091,"roadAddr":"경기도 하남시 하남대로 1037-4","jibunAddr":"경기도 하남시 풍산동 244-11","openHours":"미개방","maleToilets":2,"femaleToilets":1,"disabled":true,"diaperTable":false,"emergencyBell":false,"cctv":false,"managerTel":"0317906607","source":"public","category":"public"},{"id":"202440400000101301","name":"디지털도서관 2층","lat":37.563075,"lng":127.19701,"roadAddr":"경기도 하남시 미사강변한강로 290-2","jibunAddr":"경기도 하남시 망월동 1140","openHours":"미개방","maleToilets":4,"femaleToilets":3,"disabled":true,"diaperTable":true,"emergencyBell":true,"cctv":false,"managerTel":"0317905175","source":"public","category":"public"},{"id":"202440400000101466","name":"덕풍전통시장 공영주차장(1F)","lat":37.541834,"lng":127.203552,"roadAddr":"경기도 하남시 신장로 154번길 57","jibunAddr":"경기도 하남시 덕풍동 326-9","openHours":"상시","maleToilets":3,"femaleToilets":2,"disabled":true,"diaperTable":false,"emergencyBell":false,"cctv":false,"managerTel":"0317943753","source":"public","category":"public"},{"id":"202440400000101286","name":"신장도서관 화장실(3층)","lat":37.537876,"lng":127.214339,"roadAddr":"경기도 하남시 하남대로 740","jibunAddr":"경기도 하남시 신장동 520-2","openHours":"불규칙","maleToilets":5,"femaleToilets":3,"disabled":false,"diaperTable":false,"emergencyBell":false,"cctv":false,"managerTel":"0317906945","source":"public","category":"public"},{"id":"202440400000101387","name":"하남시종합사회복지관(1층)","lat":37.541707,"lng":127.216021,"roadAddr":"경기도 하남시 덕풍천서로 9","jibunAddr":"경기도 하남시 신장동 521-5","openHours":"미개방","maleToilets":6,"femaleToilets":2,"disabled":true,"diaperTable":false,"emergencyBell":false,"cctv":false,"managerTel":"0317902924","source":"public","category":"public"},{"id":"202440400000100936","name":"풍산지구3호공원","lat":37.553808,"lng":127.206757,"roadAddr":"경기도 하남시 덕풍북로 164","jibunAddr":"경기도 하남시 덕풍동 739","openHours":"상시","maleToilets":4,"femaleToilets":5,"disabled":true,"diaperTable":true,"emergencyBell":true,"cctv":false,"managerTel":"0317905145","source":"public","category":"public"},{"id":"202440400000101385","name":"하남시종합사회복지관(3층)","lat":37.541707,"lng":127.216021,"roadAddr":"경기도 하남시 덕풍천서로 9","jibunAddr":"경기도 하남시 신장동 521-5","openHours":"미개방","maleToilets":6,"femaleToilets":2,"disabled":true,"diaperTable":false,"emergencyBell":false,"cctv":false,"managerTel":"0317902924","source":"public","category":"public"},{"id":"202440400000101194","name":"한강유역환경청 화장실","lat":37.569887,"lng":127.195462,"roadAddr":"경기도 하남시 미사강변한강로 229","jibunAddr":"경기도 하남시 망월동 231","openHours":"정시","maleToilets":5,"femaleToilets":2,"disabled":true,"diaperTable":false,"emergencyBell":false,"cctv":false,"managerTel":"0317902420","source":"public","category":"public"},{"id":"202440400000101319","name":"미사보건센터4층","lat":37.567639,"lng":127.185541,"roadAddr":"경기도 하남시 미사강변대로 200","jibunAddr":"경기도 하남시 망월동 980","openHours":"미개방","maleToilets":2,"femaleToilets":3,"disabled":true,"diaperTable":true,"emergencyBell":true,"cctv":false,"managerTel":"0317906486","source":"public","category":"public"},{"id":"202440400000101035","name":"하남종합운동장 화장실(본부석2층)","lat":37.5657,"lng":127.193906,"roadAddr":"경기도 하남시 아리수로 600","jibunAddr":"경기도 하남시 망월동 200","openHours":"상시","maleToilets":14,"femaleToilets":3,"disabled":true,"diaperTable":false,"emergencyBell":false,"cctv":false,"managerTel":"0317902000","source":"public","category":"public"},{"id":"202440400000101279","name":"하남시청 본관 2층","lat":37.539346,"lng":127.214776,"roadAddr":"경기도 하남시 대청로 10","jibunAddr":"경기도 하남시 신장동 520","openHours":"미개방","maleToilets":10,"femaleToilets":4,"disabled":true,"diaperTable":false,"emergencyBell":false,"cctv":false,"managerTel":"0317906173","source":"public","category":"public"},{"id":"202440400000101072","name":"조정경기장 화장실(보트동)","lat":37.553626,"lng":127.21323,"roadAddr":"경기도 하남시 미사대로 505","jibunAddr":"경기도 하남시 신장동 281","openHours":"정시","maleToilets":22,"femaleToilets":2,"disabled":true,"diaperTable":false,"emergencyBell":true,"cctv":false,"managerTel":"0317908831","source":"public","category":"public"},{"id":"202440400000101081","name":"(주)한경에너지 베스트원주유소","lat":37.539627,"lng":127.210143,"roadAddr":"경기도 하남시 하남대로 781 (신장동)","jibunAddr":"경기도 하남시 신장동 408-1","openHours":"상시","maleToilets":4,"femaleToilets":1,"disabled":false,"diaperTable":false,"emergencyBell":false,"cctv":false,"managerTel":"0317925133","source":"public","category":"public"},{"id":"202440400000101088","name":"하남시종합사회복지관(별관)","lat":37.541707,"lng":127.216021,"roadAddr":"경기도 하남시 덕풍천서로 9","jibunAddr":"경기도 하남시 신장동 521-5","openHours":"미개방","maleToilets":2,"femaleToilets":1,"disabled":true,"diaperTable":false,"emergencyBell":false,"cctv":false,"managerTel":"0317902924","source":"public","category":"public"},{"id":"202440400000101022","name":"하남문화예술회관 화장실(전시동 1층)","lat":37.544754,"lng":127.206838,"roadAddr":"경기도 하남시 신평로 125","jibunAddr":"경기도 하남시 덕풍동 694","openHours":"미개방","maleToilets":3,"femaleToilets":2,"disabled":false,"diaperTable":false,"emergencyBell":false,"cctv":false,"managerTel":"0317907965","source":"public","category":"public"},{"id":"202440400000100918","name":"하남문화원 화장실(2층)","lat":37.543882,"lng":127.20671,"roadAddr":"경기도 하남시 덕풍동로 12","jibunAddr":"경기도 하남시 덕풍동 285-80","openHours":"정시","maleToilets":3,"femaleToilets":3,"disabled":false,"diaperTable":false,"emergencyBell":false,"cctv":false,"managerTel":"03151821437","source":"public","category":"public"},{"id":"202440400000101083","name":"하남시종합사회복지관(유아시설)","lat":37.541707,"lng":127.216021,"roadAddr":"경기도 하남시 덕풍천서로 9","jibunAddr":"경기도 하남시 신장동 521-5","openHours":"미개방","maleToilets":0,"femaleToilets":0,"disabled":false,"diaperTable":false,"emergencyBell":false,"cctv":false,"managerTel":"0317902924","source":"public","category":"public"},{"id":"202440400000101482","name":"하남시청소년수련관","lat":37.553336,"lng":127.190478,"roadAddr":"경기도 하남시 조정대로 111","jibunAddr":"경기도 하남시 풍산동 537","openHours":"미개방","maleToilets":24,"femaleToilets":30,"disabled":true,"diaperTable":false,"emergencyBell":false,"cctv":false,"managerTel":"0317605800","source":"public","category":"public"},{"id":"202440400000101076","name":"조정경기장 화장실(매점3동)","lat":37.553626,"lng":127.21323,"roadAddr":"경기도 하남시 미사대로 505","jibunAddr":"경기도 하남시 신장동 281","openHours":"정시","maleToilets":7,"femaleToilets":3,"disabled":false,"diaperTable":false,"emergencyBell":true,"cctv":false,"managerTel":"0317908831","source":"public","category":"public"},{"id":"202440400000101153","name":"미사강변블루상가(1F)","lat":37.554661,"lng":127.18653,"roadAddr":"경기도 하남시 미사강변대로 52","jibunAddr":"경기도 하남시 풍산동 522","openHours":"정시","maleToilets":3,"femaleToilets":2,"disabled":true,"diaperTable":false,"emergencyBell":false,"cctv":false,"managerTel":"0317927638","source":"public","category":"public"},{"id":"202440400000101168","name":"덕풍3동 행정복지센터 2층","lat":37.552512,"lng":127.204786,"roadAddr":"경기도 하남시 덕풍서로 66","jibunAddr":"경기도 하남시 덕풍동 737","openHours":"미개방","maleToilets":6,"femaleToilets":3,"disabled":false,"diaperTable":false,"emergencyBell":false,"cctv":false,"managerTel":"0317906606","source":"public","category":"public"},{"id":"202440400000101170","name":"덕풍2동행정복지센터(1층)","lat":37.542279,"lng":127.198119,"roadAddr":"경기도 하남시 덕풍공원로 12","jibunAddr":"경기도 하남시 덕풍동 693","openHours":"미개방","maleToilets":3,"femaleToilets":3,"disabled":true,"diaperTable":false,"emergencyBell":false,"cctv":false,"managerTel":"0317906605","source":"public","category":"public"},{"id":"202440400000100912","name":"덕풍동 다목적체육관","lat":37.543013,"lng":127.202369,"roadAddr":"경기도 하남시 하남대로861번길 13","jibunAddr":"경기도 하남시 덕풍동 335-8","openHours":"상시","maleToilets":3,"femaleToilets":2,"disabled":false,"diaperTable":false,"emergencyBell":true,"cctv":false,"managerTel":"0317905116","source":"public","category":"public"},{"id":"202440400000101195","name":"하남홈플러스 화장실(지하3층)","lat":37.537996,"lng":127.212631,"roadAddr":"경기도 하남시 하남대로 747","jibunAddr":"경기도 하남시 신장동 570","openHours":"정시","maleToilets":4,"femaleToilets":4,"disabled":true,"diaperTable":false,"emergencyBell":false,"cctv":false,"managerTel":"0317777000","source":"public","category":"public"},{"id":"202440400000101317","name":"미사보건센터2층","lat":37.567639,"lng":127.185541,"roadAddr":"경기도 하남시 미사강변대로 200","jibunAddr":"경기도 하남시 망월동 980","openHours":"미개방","maleToilets":2,"femaleToilets":3,"disabled":true,"diaperTable":true,"emergencyBell":true,"cctv":false,"managerTel":"0317906486","source":"public","category":"public"},{"id":"202440400000100931","name":"한마음공원","lat":37.541652,"lng":127.209751,"roadAddr":"경기도 하남시 하남대로802번길 30","jibunAddr":"경기도 하남시 신장동 562-1","openHours":"상시","maleToilets":2,"femaleToilets":1,"disabled":false,"diaperTable":false,"emergencyBell":true,"cctv":false,"managerTel":"0317905145","source":"public","category":"public"},{"id":"202440400000101173","name":"덕풍2동행정복지센터(4층)","lat":37.542279,"lng":127.198119,"roadAddr":"경기도 하남시 덕풍공원로 12","jibunAddr":"경기도 하남시 덕풍동 693","openHours":"미개방","maleToilets":2,"femaleToilets":1,"disabled":true,"diaperTable":false,"emergencyBell":false,"cctv":false,"managerTel":"0317906605","source":"public","category":"public"},{"id":"202440400000101402","name":"신장1동 행정복지센터 화장실(3층)","lat":37.538798,"lng":127.209592,"roadAddr":"경기도 하남시 신장1로27번길 13","jibunAddr":"경기도 하남시 신장동 446-17","openHours":"미개방","maleToilets":2,"femaleToilets":0,"disabled":false,"diaperTable":false,"emergencyBell":false,"cctv":false,"managerTel":"0317906602","source":"public","category":"public"},{"id":"202440400000101103","name":"신장1동 행정복지센터 화장실(2층)","lat":37.538798,"lng":127.209592,"roadAddr":"경기도 하남시 신장1로27번길 13","jibunAddr":"경기도 하남시 신장동 446-17","openHours":"미개방","maleToilets":4,"femaleToilets":2,"disabled":false,"diaperTable":false,"emergencyBell":false,"cctv":false,"managerTel":"0317906602","source":"public","category":"public"},{"id":"202440400000101197","name":"하남홈플러스 화장실(지하1층)","lat":37.537996,"lng":127.212631,"roadAddr":"경기도 하남시 하남대로 747","jibunAddr":"경기도 하남시 신장동 570","openHours":"정시","maleToilets":4,"femaleToilets":4,"disabled":true,"diaperTable":false,"emergencyBell":false,"cctv":false,"managerTel":"0317777000","source":"public","category":"public"},{"id":"202440400000101320","name":"하남문화예술회관 화장실(전시동3층)","lat":37.544754,"lng":127.206838,"roadAddr":"경기도 하남시 신평로 125","jibunAddr":"경기도 하남시 덕풍동 694","openHours":"미개방","maleToilets":3,"femaleToilets":2,"disabled":false,"diaperTable":false,"emergencyBell":false,"cctv":false,"managerTel":"0317907965","source":"public","category":"public"},{"id":"202440400000101297","name":"미사도서관 2층","lat":37.567618,"lng":127.187303,"roadAddr":"경기도 하남시 아리수로 545","jibunAddr":"경기도 하남시 망월동 955","openHours":"미개방","maleToilets":6,"femaleToilets":7,"disabled":true,"diaperTable":true,"emergencyBell":true,"cctv":false,"managerTel":"0317905175","source":"public","category":"public"},{"id":"202440400000101010","name":"하남수산물시장 A3동(1F)","lat":37.547579,"lng":127.184881,"roadAddr":"경기도 하남시 하남대로 1043-39","jibunAddr":"경기도 하남시 풍산동 243-32","openHours":"상시","maleToilets":4,"femaleToilets":2,"disabled":false,"diaperTable":false,"emergencyBell":false,"cctv":false,"source":"public","category":"public"},{"id":"202440400000100995","name":"세미도서관 3층","lat":37.543444,"lng":127.194092,"roadAddr":"경기도 하남시 세미로 1길 15","jibunAddr":"경기도 하남시 풍산동 635","openHours":"미개방","maleToilets":2,"femaleToilets":2,"disabled":false,"diaperTable":false,"emergencyBell":false,"cctv":false,"managerTel":"0317906804","source":"public","category":"public"},{"id":"202440400000100945","name":"국제자매도시공원","lat":37.544489,"lng":127.221318,"roadAddr":"경기도 하남시 하남유니온로 100","jibunAddr":"경기도 하남시 신장동 608","openHours":"상시","maleToilets":4,"femaleToilets":5,"disabled":true,"diaperTable":false,"emergencyBell":true,"cctv":false,"managerTel":"0317905145","source":"public","category":"public"},{"id":"202440400000100944","name":"덕풍수변공원","lat":37.544426,"lng":127.21766,"roadAddr":"경기도 하남시 덕풍천동로 40","jibunAddr":"경기도 하남시 신장동 600-1","openHours":"상시","maleToilets":3,"femaleToilets":3,"disabled":true,"diaperTable":false,"emergencyBell":true,"cctv":false,"managerTel":"0317905145","source":"public","category":"public"},{"id":"202440400000101028","name":"하남역사박물관 화장실(3층)","lat":37.54546,"lng":127.206084,"roadAddr":"경기도 하남시 덕풍동로 30","jibunAddr":"경기도 하남시 덕풍동 694-1","openHours":"미개방","maleToilets":5,"femaleToilets":5,"disabled":true,"diaperTable":false,"emergencyBell":false,"cctv":false,"managerTel":"0317907965","source":"public","category":"public"},{"id":"202440400000101176","name":"덕풍1동 행정복지센터 화장실(1층)","lat":37.535143,"lng":127.198449,"roadAddr":"경기도 하남시 덕풍공원로 110","jibunAddr":"경기도 하남시 덕풍동 435-205","openHours":"미개방","maleToilets":3,"femaleToilets":4,"disabled":true,"diaperTable":true,"emergencyBell":false,"cctv":true,"managerTel":"0317916604","source":"public","category":"public"},{"id":"202440400000101200","name":"하남이마트 화장실(4층)","lat":37.552757,"lng":127.20537,"roadAddr":"경기도 하남시 덕풍서로 70","jibunAddr":"경기도 하남시 덕풍동 736","openHours":"정시","maleToilets":7,"femaleToilets":7,"disabled":true,"diaperTable":true,"emergencyBell":true,"cctv":false,"managerTel":"0315241234","source":"public","category":"public"}]