[{"id":"202439900000101472","name":"와부 운동장 화장실","lat":37.594765,"lng":127.232223,"jibunAddr":"경기도 남양주시 월문리 1103-14","openHours":"상시","maleToilets":7,"femaleToilets":2,"disabled":false,"diaperTable":false,"emergencyBell":false,"cctv":false,"managerTel":"0315908045","source":"public","category":"public"},{"id":"202439900000101471","name":"덕소4리 게이트볼장(체육공원)","lat":37.587046,"lng":127.223064,"jibunAddr":"경기도 남양주시 덕소리 103-4","openHours":"상시","maleToilets":2,"femaleToilets":2,"disabled":false,"diaperTable":false,"emergencyBell":false,"cctv":false,"managerTel":"0315908045","source":"public","category":"public"},{"id":"202439900000101469","name":"월문리 생활체육시설 화장실","lat":37.590183,"lng":127.225707,"jibunAddr":"경기도 남양주시 월문리 1281-2","openHours":"상시","maleToilets":4,"femaleToilets":4,"disabled":true,"diaperTable":true,"emergencyBell":true,"cctv":false,"managerTel":"0315908045","source":"public","category":"public"},{"id":"202439900000101374","name":"동성빌딩(민간개방화장실)","lat":37.577936,"lng":127.225717,"roadAddr":"경기도 남양주시 덕소로 269","jibunAddr":"경기도 남양주시 와부읍 도곡리 1058-3","openHours":"상시","maleToilets":3,"femaleToilets":2,"disabled":true,"diaperTable":false,"emergencyBell":false,"cctv":false,"managerTel":"0310000002","source":"public","category":"public"},{"id":"202439900000101470","name":"도곡1리게이트볼장(체육시설)","lat":37.590044,"lng":127.242038,"jibunAddr":"경기도 남양주시 도곡리 82","openHours":"상시","maleToilets":1,"femaleToilets":1,"disabled":false,"diaperTable":false,"emergencyBell":false,"cctv":false,"managerTel":"0315908045","source":"public","category":"public"},{"id":"202439900000101388","name":"도심역 1층 화장실","lat":37.579643,"lng":127.222658,"roadAddr":"경기도 남양주시 와부읍 덕소로 237","jibunAddr":"경기도 남양주시 와부읍 도곡리 1024-2","openHours":"04:00~24:00","maleToilets":11,"femaleToilets":11,"disabled":true,"diaperTable":false,"emergencyBell":true,"cctv":true,"managerTel":"0315218675","source":"public","category":"public"},{"id":"202439900000101511","name":"도곡근린공원[도곡-2]","lat":37.578138,"lng":127.22204,"roadAddr":"경기도 남양주시 와부읍 덕소로 270 (도곡리 1012)","openHours":"상시","maleToilets":2,"femaleToilets":2,"disabled":true,"diaperTable":false,"emergencyBell":true,"cctv":true,"managerTel":"0315904738","source":"public","category":"public"}]