[{"id":"202540600000100206","name":"스타프라자","lat":37.725542,"lng":126.717749,"roadAddr":"경기도 파주시 청석로 266","jibunAddr":"경기도 파주시 동패동 1695-4","openHours":"상시","maleToilets":2,"femaleToilets":1,"disabled":false,"diaperTable":false,"emergencyBell":false,"cctv":false,"managerTel":"0319419491","source":"public","category":"public"},{"id":"202540600000100324","name":"운정5동행정복지센터 민원동","lat":37.720273,"lng":126.710801,"roadAddr":"경기도 파주시 돌단풍길 34","jibunAddr":"경기도 파주시 문발동 602-6","openHours":"(평일)09:00∼18:00","maleToilets":5,"femaleToilets":3,"disabled":false,"diaperTable":false,"emergencyBell":false,"cctv":false,"managerTel":"0318207172","source":"public","category":"public"},{"id":"202540600000100327","name":"교하배수지(심학산 둘레길)","lat":37.705763,"lng":126.716484,"jibunAddr":"경기도 파주시 동패동   산 239-8","openHours":"상시","maleToilets":4,"femaleToilets":4,"disabled":false,"diaperTable":false,"emergencyBell":false,"cctv":false,"managerTel":"0319500711","source":"public","category":"public"},{"id":"202540600000100347","name":"아이비 타워","lat":37.726173,"lng":126.718242,"roadAddr":"경기도 파주시 파주로 266","jibunAddr":"경기도 파주시 동패동 1695-1","openHours":"상시","maleToilets":3,"femaleToilets":1,"disabled":false,"diaperTable":false,"emergencyBell":false,"cctv":false,"managerTel":"0319492573","source":"public","category":"public"},{"id":"202540600000100299","name":"교하중앙공원","lat":37.723934,"lng":126.717003,"roadAddr":"경기도 파주시 책향기로 410","jibunAddr":"경기도 파주시 동패동 1692","openHours":"상시","maleToilets":7,"femaleToilets":7,"disabled":true,"diaperTable":false,"emergencyBell":false,"cctv":true,"managerTel":"0319408701","source":"public","category":"public"},{"id":"202540600000100212","name":"미소시티 1층","lat":37.725837,"lng":126.717737,"roadAddr":"경기도 파주시 청석로 268","jibunAddr":"경기도 파주시 동패동 1695-3","openHours":"상시","maleToilets":4,"femaleToilets":1,"disabled":false,"diaperTable":false,"emergencyBell":false,"cctv":false,"source":"public","category":"public"},{"id":"202540600000100217","name":"뚱갈프라자","lat":37.728974,"lng":126.735968,"roadAddr":"경기도 파주시 청암로17번길 37","jibunAddr":"경기도 파주시 목동동 931","openHours":"상시","maleToilets":2,"femaleToilets":2,"disabled":false,"diaperTable":false,"emergencyBell":false,"cctv":false,"source":"public","category":"public"},{"id":"202540600000100343","name":"미소시티","lat":37.725584,"lng":126.718287,"roadAddr":"경기도 파주시 청석로 264","jibunAddr":"경기도 파주시 동패동 1696-1","openHours":"상시","maleToilets":4,"femaleToilets":1,"disabled":false,"diaperTable":false,"emergencyBell":false,"cctv":false,"source":"public","category":"public"},{"id":"202540600000100360","name":"토우프라자","lat":37.724136,"lng":126.711202,"roadAddr":"경기도 파주시 숲속노을로 265","jibunAddr":"경기도 파주시 문발동 562-2","openHours":"상시","maleToilets":3,"femaleToilets":1,"disabled":false,"diaperTable":false,"emergencyBell":false,"cctv":false,"source":"public","category":"public"},{"id":"202540600000100306","name":"문발공원","lat":37.720455,"lng":126.704923,"roadAddr":"경기도 파주시 유채꽃길 22","jibunAddr":"경기도 파주시 문발동 592-4","openHours":"상시(동절기 폐쇄)","maleToilets":2,"femaleToilets":1,"disabled":true,"diaperTable":false,"emergencyBell":false,"cctv":true,"managerTel":"0319408701","source":"public","category":"public"},{"id":"202540600000100366","name":"혜인프라자","lat":37.728337,"lng":126.733431,"roadAddr":"경기도 파주시 교하로 79","jibunAddr":"경기도 파주시 목동동 947-1","openHours":"상시","maleToilets":2,"femaleToilets":1,"disabled":true,"diaperTable":false,"emergencyBell":false,"cctv":false,"source":"public","category":"public"},{"id":"202540600000100201","name":"웰스피아","lat":37.724571,"lng":126.718178,"roadAddr":"경기도 파주시 책향기로 419","jibunAddr":"경기도 파주시 동패동 1694-3","openHours":"상시","maleToilets":4,"femaleToilets":2,"disabled":false,"diaperTable":false,"emergencyBell":false,"cctv":false,"managerTel":"0319428870","source":"public","category":"public"},{"id":"202540600000100309","name":"짚풀공원","lat":37.731214,"lng":126.733046,"jibunAddr":"경기도 파주시 목동동   921","openHours":"상시","maleToilets":5,"femaleToilets":7,"disabled":true,"diaperTable":false,"emergencyBell":false,"cctv":true,"managerTel":"0319408694","source":"public","category":"public"},{"id":"202540600000100253","name":"교하도서관","lat":37.72332,"lng":126.712302,"roadAddr":"경기도 파주시 숲속노을로 256","jibunAddr":"경기도 파주시 동패동 1692","openHours":"(평일)09:00~22:00+(주말)09:00~18:00","maleToilets":15,"femaleToilets":15,"disabled":true,"diaperTable":false,"emergencyBell":false,"cctv":true,"managerTel":"0319405176","source":"public","category":"public"},{"id":"202540600000100207","name":"센타프라자1","lat":37.726145,"lng":126.717804,"roadAddr":"경기도 파주시 청석로 272","jibunAddr":"경기도 파주시 동패동 1695-2","openHours":"상시","maleToilets":50,"femaleToilets":30,"disabled":true,"diaperTable":false,"emergencyBell":false,"cctv":false,"managerTel":"0319493238","source":"public","category":"public"},{"id":"202540600000100333","name":"고산프라자","lat":37.724662,"lng":126.711075,"roadAddr":"경기도 파주시 숲속노을로 271","jibunAddr":"경기도 파주시 문발동 561-3","openHours":"상시","maleToilets":3,"femaleToilets":1,"disabled":false,"diaperTable":false,"emergencyBell":false,"cctv":false,"source":"public","category":"public"},{"id":"202540600000100271","name":"산내공원","lat":37.721301,"lng":126.734558,"jibunAddr":"경기도 파주시 목동동   1144","openHours":"상시","maleToilets":5,"femaleToilets":7,"disabled":true,"diaperTable":false,"emergencyBell":false,"cctv":true,"managerTel":"0319408701","source":"public","category":"public"},{"id":"202540600000100205","name":"아이비타워","lat":37.726173,"lng":126.718242,"roadAddr":"경기도 파주시 파주로 266","jibunAddr":"경기도 파주시 동패동 1695-1","openHours":"상시","maleToilets":3,"femaleToilets":1,"disabled":false,"diaperTable":false,"emergencyBell":false,"cctv":false,"managerTel":"0319492573","source":"public","category":"public"},{"id":"202540600000100336","name":"교하일번가","lat":37.724708,"lng":126.71776,"roadAddr":"경기도 파주시 청석로 256","jibunAddr":"경기도 파주시 동패동 1694-2","openHours":"상시","maleToilets":4,"femaleToilets":2,"disabled":false,"diaperTable":false,"emergencyBell":false,"cctv":true,"managerTel":"0319579759","source":"public","category":"public"},{"id":"202540600000100188","name":"트리플메디칼타워","lat":37.725103,"lng":126.717738,"roadAddr":"경기도 파주시 청석로 260","jibunAddr":"경기도 파주시 동패동 1694-1","openHours":"상시","maleToilets":5,"femaleToilets":2,"disabled":false,"diaperTable":false,"emergencyBell":false,"cctv":false,"managerTel":"0319433013","source":"public","category":"public"},{"id":"202540600000100318","name":"물푸레도서관","lat":37.73402,"lng":126.720016,"roadAddr":"경기도 파주시 청석로 360","jibunAddr":"경기도 파주시 다율동 981","openHours":"(화~일)09:00~18:00","maleToilets":5,"femaleToilets":4,"disabled":true,"diaperTable":false,"emergencyBell":false,"cctv":true,"managerTel":"07044238853","source":"public","category":"public"},{"id":"202540600000100329","name":"MD프라자","lat":37.728846,"lng":126.733602,"roadAddr":"경기도 파주시 청암로17번길 67","jibunAddr":"경기도 파주시 목동동 949","openHours":"상시","maleToilets":4,"femaleToilets":2,"disabled":true,"diaperTable":false,"emergencyBell":false,"cctv":false,"source":"public","category":"public"},{"id":"202540600000100319","name":"교하청소년문화의집 화장실","lat":37.72395,"lng":126.715436,"roadAddr":"경기도 파주시 책향기로 396","jibunAddr":"경기도 파주시 동패동 1691","openHours":"(평일)10:00~21:00+(주말)09:00~18:00","maleToilets":12,"femaleToilets":9,"disabled":true,"diaperTable":false,"emergencyBell":false,"cctv":true,"managerTel":"0315405222","source":"public","category":"public"},{"id":"202540600000100354","name":"이지타운","lat":37.725161,"lng":126.718306,"roadAddr":"경기도 파주시 청석로 262","jibunAddr":"경기도 파주시 동패동 1696-3","openHours":"상시","maleToilets":3,"femaleToilets":2,"disabled":false,"diaperTable":false,"emergencyBell":false,"cctv":false,"source":"public","category":"public"},{"id":"202540600000100331","name":"거목프라자","lat":37.725584,"lng":126.718287,"roadAddr":"경기도 파주시 청석로 264","jibunAddr":"경기도 파주시 동패동 1696-1","openHours":"상시","maleToilets":2,"femaleToilets":2,"disabled":false,"diaperTable":false,"emergencyBell":false,"cctv":false,"source":"public","category":"public"}]