[{"id":"202639400000100008","name":"벽제천 화장실","lat":37.696644,"lng":126.900884,"roadAddr":"경기도 고양시 덕양구 호국로1595번길 32-32 (대자동)","jibunAddr":"경기도 고양시 덕양구 대자동 21-2","openHours":"상시","maleToilets":3,"femaleToilets":2,"disabled":true,"diaperTable":false,"emergencyBell":false,"cctv":false,"source":"public","category":"public"},{"id":"202539400000101179","name":"신원도서관 화장실","lat":37.666381,"lng":126.886358,"roadAddr":"경기도 고양시 덕양구 신원2로 24,","jibunAddr":"경기도 고양시 덕양구 신원동 607,","openHours":"(3~10월)07:00~23:00+(11~2월)08:00~23:00+(휴관일)월요일","maleToilets":18,"femaleToilets":19,"disabled":true,"diaperTable":true,"emergencyBell":true,"cctv":false,"managerTel":"03180759333","source":"public","category":"public"},{"id":"202539400000101004","name":"호평프라자","lat":37.662745,"lng":126.889556,"roadAddr":"경기도 고양시 덕양구 권율대로 886,","jibunAddr":"경기도 고양시 덕양구 신원동 626,","openHours":"상시","maleToilets":3,"femaleToilets":3,"disabled":true,"diaperTable":true,"emergencyBell":false,"cctv":true,"managerTel":"03180755244","source":"public","category":"public"},{"id":"202539400000100941","name":"필리핀참전비","lat":37.688501,"lng":126.873417,"roadAddr":"경기도 고양시 덕양구 대양로 5,","jibunAddr":"경기도 고양시 덕양구 관산동 154-7,","openHours":"상시","maleToilets":7,"femaleToilets":4,"disabled":true,"diaperTable":true,"emergencyBell":true,"cctv":true,"managerTel":"03180755244","source":"public","category":"public"},{"id":"202539400000101029","name":"고양동 행정복지센터","lat":37.703353,"lng":126.903723,"roadAddr":"경기도 고양시 덕양구 벽제관로 5 , 고양동 행정복지센터","jibunAddr":"경기도 고양시 덕양구 고양동 195-1, 고양동 행정복지센터","openHours":"09:00~18:00","maleToilets":7,"femaleToilets":3,"disabled":true,"diaperTable":false,"emergencyBell":true,"cctv":true,"managerTel":"03180755801","source":"public","category":"public"},{"id":"202539400000100643","name":"고양동종합복지회관","lat":37.702517,"lng":126.901197,"roadAddr":"경기도 고양시 덕양구 혜음로19-11,","jibunAddr":"경기도 고양시 덕양구 고양동233-2,","openHours":"06:00!23:00","maleToilets":9,"femaleToilets":12,"disabled":true,"diaperTable":false,"emergencyBell":false,"cctv":true,"managerTel":"0319692811","source":"public","category":"public"},{"id":"202539400000101005","name":"플렌테이션","lat":37.682207,"lng":126.882685,"roadAddr":"경기도 고양시 덕양구 통일로493번안길 103-41,","jibunAddr":"경기도 고양시 덕양구 신원동 307,","openHours":"9:00-18:00","maleToilets":3,"femaleToilets":3,"disabled":false,"diaperTable":false,"emergencyBell":false,"cctv":true,"managerTel":"03180755244","source":"public","category":"public"},{"id":"202539400000100901","name":"선유동체육시설","lat":37.674404,"lng":126.909495,"roadAddr":"경기도 고양시 덕양구 선유길 160-68,","jibunAddr":"경기도 고양시 덕양구 선유동 520-7,","openHours":"09:00-22:00","maleToilets":3,"femaleToilets":1,"disabled":true,"diaperTable":false,"emergencyBell":true,"cctv":false,"managerTel":"0319702175","source":"public","category":"public"},{"id":"202539400000101037","name":"원신동 행정복지센터","lat":37.677396,"lng":126.875855,"roadAddr":"경기도 고양시 덕양구 호국로1261, 원신동 행정복지센터","jibunAddr":"경기도 고양시 덕양구 호국로 1261 (신원동, 원신동주민센터), 원신동 행정복지센터","openHours":"09:00~18:00","maleToilets":8,"femaleToilets":4,"disabled":false,"diaperTable":false,"emergencyBell":false,"cctv":false,"managerTel":"03180755673","source":"public","category":"public"},{"id":"202539400000100878","name":"고양동마을공작소","lat":37.703521,"lng":126.900879,"roadAddr":"경기도 고양시 덕양구 혜음로 29-18,","jibunAddr":"경기도 고양시 덕양구 고양동 233-1,","openHours":"미운영","maleToilets":2,"femaleToilets":2,"disabled":false,"diaperTable":true,"emergencyBell":true,"cctv":false,"managerTel":"0319716655","source":"public","category":"public"}]