[{"id":"202540600000100363","name":"한길북하우스","lat":37.789261,"lng":126.697938,"roadAddr":"경기도 파주시 탄현면 헤이리마을길 59-6","jibunAddr":"경기도 파주시 탄현면 법흥리 1652-136","openHours":"11:00~20:00","maleToilets":2,"femaleToilets":1,"disabled":true,"diaperTable":false,"emergencyBell":false,"cctv":true,"managerTel":"0319496300","source":"public","category":"public"},{"id":"202540600000100224","name":"The Step(헤이리문화지구) A동","lat":37.791407,"lng":126.696249,"roadAddr":"경기도 파주시 탄현면 헤이리마을길 93-75","jibunAddr":"경기도 파주시 탄현면 법흥리 1652-37","openHours":"상시","maleToilets":11,"femaleToilets":6,"disabled":false,"diaperTable":false,"emergencyBell":false,"cctv":false,"managerTel":"0319464839","source":"public","category":"public"},{"id":"202540600000100367","name":"홍삼사우나","lat":37.77389,"lng":126.717179,"roadAddr":"경기도 파주시 탄현면 장릉로 5","jibunAddr":"경기도 파주시 탄현면 갈현리 654-8","openHours":"상시","maleToilets":12,"femaleToilets":6,"disabled":false,"diaperTable":false,"emergencyBell":false,"cctv":false,"managerTel":"0223789338","source":"public","category":"public"},{"id":"202540600000100229","name":"The Step(헤이리문화지구) B동","lat":37.791407,"lng":126.696249,"roadAddr":"경기도 파주시 탄현면 헤이리마을길 93-75","jibunAddr":"경기도 파주시 탄현면 법흥리 1652-37","openHours":"상시","maleToilets":11,"femaleToilets":6,"disabled":false,"diaperTable":false,"emergencyBell":false,"cctv":false,"managerTel":"0319464839","source":"public","category":"public"},{"id":"202540600000100308","name":"풍뎅이공원2(성락)","lat":37.7732,"lng":126.701242,"roadAddr":"경기도 파주시 탄현면 풍뎅이길 65","openHours":"상시(동절기 폐쇄)","maleToilets":6,"femaleToilets":3,"disabled":true,"diaperTable":false,"emergencyBell":false,"cctv":true,"managerTel":"0319405381","source":"public","category":"public"},{"id":"202540600000100344","name":"법흥리주차빌딩(정동빌딩)","lat":37.774718,"lng":126.702042,"roadAddr":"경기도 파주시 탄현면 하늘소로 102","jibunAddr":"경기도 파주시 탄현면 법흥리 1724","openHours":"상시","maleToilets":12,"femaleToilets":5,"disabled":false,"diaperTable":false,"emergencyBell":false,"cctv":false,"source":"public","category":"public"},{"id":"202540600000100307","name":"통일동산(1) 근린공원(풍뎅이공원1)","lat":37.776155,"lng":126.70431,"roadAddr":"경기도 파주시 탄현면 풍뎅이길 199","openHours":"상시(동절기 폐쇄)","maleToilets":5,"femaleToilets":4,"disabled":true,"diaperTable":false,"emergencyBell":true,"cctv":true,"managerTel":"0319405381","source":"public","category":"public"},{"id":"202540600000100230","name":"신성여객 화장실","lat":37.772967,"lng":126.733691,"roadAddr":"경기도 파주시 장터고개길 10","jibunAddr":"경기도 파주시 맥금동 110-9","openHours":"상시","maleToilets":5,"femaleToilets":2,"disabled":false,"diaperTable":false,"emergencyBell":false,"cctv":false,"managerTel":"0319496040","source":"public","category":"public"},{"id":"202540600000100356","name":"정동빌딩","lat":37.774718,"lng":126.702042,"roadAddr":"경기도 파주시 탄현면 하늘소로 102","jibunAddr":"경기도 파주시 탄현면 법흥리 1724","openHours":"상시","maleToilets":12,"femaleToilets":6,"disabled":false,"diaperTable":false,"emergencyBell":false,"cctv":false,"managerTel":"0319578588","source":"public","category":"public"},{"id":"202540600000100364","name":"헤이리중앙공원","lat":37.7888,"lng":126.698717,"roadAddr":"경기도 파주시 탄현면 헤이리마을길 66","jibunAddr":"경기도 파주시 탄현면 법흥리 1652-242","openHours":"상시","maleToilets":4,"femaleToilets":5,"disabled":true,"diaperTable":false,"emergencyBell":false,"cctv":true,"source":"public","category":"public"}]