[{"id":"202540600000100292","name":"마장근린공원-6(버스회차로)","lat":37.774275,"lng":126.922395,"jibunAddr":"경기도 파주시 광탄면 기산리  466-3","openHours":"24시간+(동절기)09:00~17:30","maleToilets":4,"femaleToilets":3,"disabled":false,"diaperTable":false,"emergencyBell":false,"cctv":false,"managerTel":"0319404736","source":"public","category":"public"},{"id":"202540600000100290","name":"마장근린공원-4(제5주차장)","lat":37.772246,"lng":126.926953,"jibunAddr":"경기도 파주시 광탄면 기산리  산 150-15","openHours":"24시간+(동절기)09:00~17:30","maleToilets":3,"femaleToilets":3,"disabled":false,"diaperTable":false,"emergencyBell":false,"cctv":false,"managerTel":"0319404736","source":"public","category":"public"},{"id":"202540600000100288","name":"마장근린공원-2(전망대)","lat":37.773054,"lng":126.927833,"roadAddr":"경기도 파주시 광탄면 기산로 313","jibunAddr":"경기도 파주시 광탄면 기산리 산 150-17","openHours":"24시간+(동절기)09:00~17:30","maleToilets":5,"femaleToilets":4,"disabled":false,"diaperTable":false,"emergencyBell":false,"cctv":false,"managerTel":"0319404736","source":"public","category":"public"},{"id":"202540600000100293","name":"마장근린공원-7(제4주차장)","lat":37.770665,"lng":126.92545,"jibunAddr":"경기도 파주시 광탄면 기산리 산150-33","openHours":"24시간+(동절기)09:00~17:30","maleToilets":3,"femaleToilets":3,"disabled":true,"diaperTable":false,"emergencyBell":false,"cctv":false,"managerTel":"0319404736","source":"public","category":"public"},{"id":"202540600000100291","name":"마장근린공원-5(제7주차장)","lat":37.773752,"lng":126.921427,"jibunAddr":"경기도 파주시 광탄면 기산리  467-3","openHours":"24시간+(동절기)09:00~17:30","maleToilets":2,"femaleToilets":2,"disabled":false,"diaperTable":false,"emergencyBell":false,"cctv":true,"managerTel":"0319404736","source":"public","category":"public"},{"id":"202540600000100287","name":"마장근린공원-1(관리동)","lat":37.773054,"lng":126.927833,"roadAddr":"경기도 파주시 광탄면 기산로 313","jibunAddr":"경기도 파주시 광탄면 기산리 산 150-17","openHours":"08:00~18:00","maleToilets":7,"femaleToilets":7,"disabled":true,"diaperTable":false,"emergencyBell":false,"cctv":false,"managerTel":"0319404736","source":"public","category":"public"},{"id":"202540600000100289","name":"마장근린공원-3(제2주차장)","lat":37.772246,"lng":126.926953,"jibunAddr":"경기도 파주시 광탄면 기산리  산 150-15","openHours":"24시간+(동절기)09:00~17:30","maleToilets":6,"femaleToilets":6,"disabled":false,"diaperTable":false,"emergencyBell":false,"cctv":false,"managerTel":"0319404736","source":"public","category":"public"},{"id":"202455900000101237","name":"마장호수 공중화장실","lat":37.77721,"lng":126.935903,"roadAddr":"경기도 양주시 백석읍 기산로 423-7 (기산리)","openHours":"상시","maleToilets":4,"femaleToilets":4,"disabled":true,"diaperTable":false,"emergencyBell":true,"cctv":true,"managerTel":"0318289881","source":"public","category":"public"}]