[{"id":"202439900000101279","name":"진접푸른숲도서관 지상2층","lat":37.715689,"lng":127.192922,"roadAddr":"경기도 남양주시 진접읍 해밀예당2로 35","jibunAddr":"경기도 남양주시 진접읍 금곡리 1077","openHours":"09:00~22:00","maleToilets":4,"femaleToilets":5,"disabled":true,"diaperTable":true,"emergencyBell":true,"cctv":false,"managerTel":"0315905325","source":"public","category":"public"},{"id":"202439900000101488","name":"광릉 재래시장[부평-4]","lat":37.743515,"lng":127.199124,"jibunAddr":"경기도 남양주시 진접읍 부평리 517-15","openHours":"상시","maleToilets":3,"femaleToilets":3,"disabled":false,"diaperTable":false,"emergencyBell":true,"cctv":true,"managerTel":"0315900000","source":"public","category":"public"},{"id":"202439900000101481","name":"진접읍사무소 1층","lat":37.726328,"lng":127.189863,"roadAddr":"경기도 남양주시 진접읍 금강로 1509-26 (장현리, 진접읍사무소)","openHours":"09:00~21:00","maleToilets":7,"femaleToilets":10,"disabled":true,"diaperTable":false,"emergencyBell":false,"cctv":false,"managerTel":"0315904836","source":"public","category":"public"},{"id":"202439900000101220","name":"부평생태습지[부평-5]","lat":37.744808,"lng":127.196187,"jibunAddr":"경기도 남양주시 진접읍 부평리 507-2","openHours":"상시","maleToilets":3,"femaleToilets":3,"disabled":false,"diaperTable":false,"emergencyBell":true,"cctv":true,"managerTel":"0315901392","source":"public","category":"public"},{"id":"202439900000101482","name":"진접읍사무소 2층","lat":37.726328,"lng":127.189863,"roadAddr":"경기도 남양주시 진접읍 금강로 1509-26 (장현리, 진접읍사무소)","openHours":"09:00~21:00","maleToilets":11,"femaleToilets":10,"disabled":true,"diaperTable":false,"emergencyBell":false,"cctv":false,"managerTel":"0315904836","source":"public","category":"public"},{"id":"202439900000101484","name":"진접읍주민자치센터 1층","lat":37.725886,"lng":127.189584,"roadAddr":"경기도 남양주시 진접읍 금강로 1509-23 (장현리)","openHours":"09:00~18:00","maleToilets":3,"femaleToilets":7,"disabled":true,"diaperTable":false,"emergencyBell":false,"cctv":false,"managerTel":"0315716231","source":"public","category":"public"},{"id":"202439900000101446","name":"진접체육문화센터 3층","lat":37.727116,"lng":127.18971,"roadAddr":"경기도 남양주시 진접읍 금강로 1509-24 (장현리, 진접체육문화센터)","openHours":"06:00~22:00","maleToilets":6,"femaleToilets":5,"disabled":true,"diaperTable":false,"emergencyBell":false,"cctv":false,"managerTel":"0315601351","source":"public","category":"public"},{"id":"202439900000101342","name":"봉선사[부평-2]","lat":37.7473,"lng":127.18758,"jibunAddr":"경기도 남양주시 진접읍 부평리 258-47","openHours":"상시","maleToilets":5,"femaleToilets":4,"disabled":true,"diaperTable":true,"emergencyBell":true,"cctv":true,"managerTel":"0315902848","source":"public","category":"public"},{"id":"202439900000101406","name":"장현공원[장현-7]","lat":37.715878,"lng":127.185167,"jibunAddr":"경기도 남양주시 진접읍 장현리 300-2","openHours":"상시","maleToilets":4,"femaleToilets":4,"disabled":true,"diaperTable":false,"emergencyBell":false,"cctv":true,"managerTel":"0315908633","source":"public","category":"public"},{"id":"202439900000101274","name":"진접도서관 지상2층","lat":37.729603,"lng":127.194198,"roadAddr":"경기도 남양주시 진접읍 금강로 1554-11","jibunAddr":"경기도 남양주시 진접읍 장현리 46","openHours":"09:00~22:00","maleToilets":5,"femaleToilets":5,"disabled":true,"diaperTable":false,"emergencyBell":true,"cctv":false,"managerTel":"0315905302","source":"public","category":"public"},{"id":"202439900000101276","name":"진접도서관 지상4층","lat":37.729603,"lng":127.194198,"roadAddr":"경기도 남양주시 진접읍 금강로 1554-11","jibunAddr":"경기도 남양주시 진접읍 장현리 46","openHours":"09:00~22:00","maleToilets":5,"femaleToilets":5,"disabled":true,"diaperTable":false,"emergencyBell":true,"cctv":false,"managerTel":"0315905302","source":"public","category":"public"},{"id":"202439900000101275","name":"진접도서관 지상3층","lat":37.729603,"lng":127.194198,"roadAddr":"경기도 남양주시 진접읍 금강로 1554-11","jibunAddr":"경기도 남양주시 진접읍 장현리 46","openHours":"09:00~22:00","maleToilets":5,"femaleToilets":5,"disabled":true,"diaperTable":false,"emergencyBell":true,"cctv":false,"managerTel":"0315905302","source":"public","category":"public"},{"id":"202439900000101462","name":"진접역 지하 1층 화장실","lat":37.719608,"lng":127.203254,"roadAddr":"경기도 남양주시 진접읍 경복대로 지하244","jibunAddr":"경기도 남양주시 진접읍 금곡리 1044-9","openHours":"(평일)05:00~익일01:00+(주말)05:00~00:00","maleToilets":10,"femaleToilets":1,"disabled":true,"diaperTable":true,"emergencyBell":true,"cctv":true,"managerTel":"0315601415","source":"public","category":"public"},{"id":"202439900000101357","name":"부평 재래시장[부평-4]","lat":37.743515,"lng":127.199124,"jibunAddr":"경기도 남양주시 진접읍 부평리 517-15","openHours":"상시","maleToilets":3,"femaleToilets":3,"disabled":false,"diaperTable":false,"emergencyBell":true,"cctv":true,"managerTel":"0315900000","source":"public","category":"public"},{"id":"202439900000101483","name":"진접읍사무소 3층","lat":37.726328,"lng":127.189863,"roadAddr":"경기도 남양주시 진접읍 금강로 1509-26 (장현리, 진접읍사무소)","openHours":"09:00~21:00","maleToilets":9,"femaleToilets":6,"disabled":true,"diaperTable":false,"emergencyBell":false,"cctv":false,"managerTel":"0315904836","source":"public","category":"public"},{"id":"202439900000101485","name":"진접읍주민자치센터 2층","lat":37.725886,"lng":127.189584,"roadAddr":"경기도 남양주시 진접읍 금강로 1509-23 (장현리)","openHours":"09:00~18:00","maleToilets":3,"femaleToilets":7,"disabled":true,"diaperTable":false,"emergencyBell":false,"cctv":false,"managerTel":"0315716231","source":"public","category":"public"},{"id":"202439900000101487","name":"진접읍주민자치센터 4층","lat":37.725886,"lng":127.189584,"roadAddr":"경기도 남양주시 진접읍 금강로 1509-23 (장현리)","openHours":"09:00~18:00","maleToilets":3,"femaleToilets":7,"disabled":true,"diaperTable":true,"emergencyBell":true,"cctv":false,"managerTel":"0315716231","source":"public","category":"public"},{"id":"202439900000101272","name":"진접도서관 지하1층","lat":37.729603,"lng":127.194198,"roadAddr":"경기도 남양주시 진접읍 금강로 1554-11","jibunAddr":"경기도 남양주시 진접읍 장현리 46","openHours":"09:00~22:00","maleToilets":5,"femaleToilets":5,"disabled":true,"diaperTable":false,"emergencyBell":true,"cctv":false,"managerTel":"0315905302","source":"public","category":"public"},{"id":"202439900000101461","name":"오남역 지하1층 화장실","lat":37.705224,"lng":127.191107,"roadAddr":"경기도 남양주시 오남읍 진건오남로 지하929","jibunAddr":"경기도 남양주시 오남읍 양지리 676-4","openHours":"(평일)05:00~익일01:00+(주말)05:00~00:00","maleToilets":9,"femaleToilets":11,"disabled":true,"diaperTable":true,"emergencyBell":true,"cctv":true,"managerTel":"0315601415","source":"public","category":"public"},{"id":"202439900000101445","name":"진접체육문화센터 1층~3층","lat":37.727116,"lng":127.18971,"roadAddr":"경기도 남양주시 진접읍 금강로 1509-24 진접체육문화센터","openHours":"06:00~22:00","maleToilets":18,"femaleToilets":15,"disabled":true,"diaperTable":false,"emergencyBell":false,"cctv":false,"managerTel":"0315601281","source":"public","category":"public"},{"id":"202439900000101447","name":"진접체육문화센터 2층","lat":37.727116,"lng":127.18971,"roadAddr":"경기도 남양주시 진접읍 금강로 1509-24 (장현리, 진접체육문화센터)","openHours":"06:00~22:00","maleToilets":6,"femaleToilets":5,"disabled":true,"diaperTable":false,"emergencyBell":false,"cctv":false,"managerTel":"0315601351","source":"public","category":"public"},{"id":"202439900000101273","name":"진접도서관 지상1층","lat":37.729603,"lng":127.194198,"roadAddr":"경기도 남양주시 진접읍 금강로 1554-11","jibunAddr":"경기도 남양주시 진접읍 장현리 46","openHours":"09:00~22:00","maleToilets":5,"femaleToilets":5,"disabled":true,"diaperTable":false,"emergencyBell":true,"cctv":false,"managerTel":"0315905302","source":"public","category":"public"},{"id":"202439900000101278","name":"진접푸른숲도서관 지상1층","lat":37.715689,"lng":127.192922,"roadAddr":"경기도 남양주시 진접읍 해밀예당2로 35","jibunAddr":"경기도 남양주시 진접읍 금곡리 1077","openHours":"09:00~22:00","maleToilets":4,"femaleToilets":5,"disabled":true,"diaperTable":true,"emergencyBell":true,"cctv":false,"managerTel":"0315905325","source":"public","category":"public"},{"id":"202439900000101448","name":"진접체육문화센터 1층","lat":37.727116,"lng":127.18971,"roadAddr":"경기도 남양주시 진접읍 금강로 1509-24 (장현리, 진접체육문화센터)","openHours":"06:00~22:00","maleToilets":6,"femaleToilets":5,"disabled":true,"diaperTable":false,"emergencyBell":false,"cctv":false,"managerTel":"0315601351","source":"public","category":"public"},{"id":"202439900000101341","name":"궁안약수터[장현-1]","lat":37.728561,"lng":127.185912,"jibunAddr":"경기도 남양주시 진접읍 장현리 산25-13","openHours":"상시","maleToilets":5,"femaleToilets":3,"disabled":false,"diaperTable":false,"emergencyBell":true,"cctv":true,"managerTel":"0315902848","source":"public","category":"public"},{"id":"202439900000101486","name":"진접읍주민자치센터 3층","lat":37.725886,"lng":127.189584,"roadAddr":"경기도 남양주시 진접읍 금강로 1509-23 (장현리)","openHours":"09:00~18:00","maleToilets":3,"femaleToilets":7,"disabled":true,"diaperTable":false,"emergencyBell":false,"cctv":false,"managerTel":"0315716231","source":"public","category":"public"},{"id":"202439900000101536","name":"장승다담공원[장현-5]","lat":37.729998,"lng":127.194405,"jibunAddr":"경기도 남양주시 진접읍 장현리 46","openHours":"상시","maleToilets":7,"femaleToilets":8,"disabled":true,"diaperTable":true,"emergencyBell":true,"cctv":true,"managerTel":"0315908369","source":"public","category":"public"},{"id":"202439900000101555","name":"경관광장[장현-8]","lat":37.722113,"lng":127.191105,"jibunAddr":"경기도 남양주시 진접읍 장현리 240","openHours":"상시","maleToilets":4,"femaleToilets":4,"disabled":true,"diaperTable":false,"emergencyBell":false,"cctv":true,"managerTel":"0315908770","source":"public","category":"public"},{"id":"202439900000101545","name":"장현재래시장[장현-6]","lat":37.718568,"lng":127.183587,"jibunAddr":"경기도 남양주시 진접읍 장현리 352-24","openHours":"상시","maleToilets":4,"femaleToilets":3,"disabled":false,"diaperTable":false,"emergencyBell":true,"cctv":true,"managerTel":"0315902848","source":"public","category":"public"},{"id":"202439900000101557","name":"진접역 환승주차장[진접금곡-1]","lat":37.721162,"lng":127.208028,"jibunAddr":"경기도 남양주시 진접읍 금곡리 1118","openHours":"상시","maleToilets":4,"femaleToilets":4,"disabled":true,"diaperTable":true,"emergencyBell":true,"cctv":false,"managerTel":"0315900000","source":"public","category":"public"},{"id":"202439900000101325","name":"남양주진접119안전센터","lat":37.725564,"lng":127.189732,"roadAddr":"경기도 남양주시 진접읍 금강로 1509-25","jibunAddr":"경기도 남양주시 진접읍 장현리 68-49","openHours":"09:00~18:00","maleToilets":5,"femaleToilets":2,"disabled":false,"diaperTable":false,"emergencyBell":false,"cctv":false,"managerTel":"0315900523","source":"public","category":"public"},{"id":"202439900000101277","name":"진접푸른숲도서관 지하1층","lat":37.715689,"lng":127.192922,"roadAddr":"경기도 남양주시 진접읍 해밀예당2로 35","jibunAddr":"경기도 남양주시 진접읍 금곡리 1077","openHours":"09:00~22:00","maleToilets":3,"femaleToilets":2,"disabled":false,"diaperTable":true,"emergencyBell":true,"cctv":false,"managerTel":"0315905325","source":"public","category":"public"},{"id":"202439900000101280","name":"진접푸른숲도서관 지상3층","lat":37.715689,"lng":127.192922,"roadAddr":"경기도 남양주시 진접읍 해밀예당2로 35","jibunAddr":"경기도 남양주시 진접읍 금곡리 1077","openHours":"09:00~22:00","maleToilets":4,"femaleToilets":5,"disabled":true,"diaperTable":true,"emergencyBell":true,"cctv":false,"managerTel":"0315905325","source":"public","category":"public"}]