[{"id":"202438200000100165","name":"자금동주민센터 1층","lat":37.750314,"lng":127.058153,"roadAddr":"경기도 의정부시 거북로 13 (금오동, 자금동주민센터)","openHours":"정시","maleToilets":3,"femaleToilets":2,"disabled":false,"diaperTable":false,"emergencyBell":false,"cctv":false,"source":"public","category":"public"},{"id":"202438200000100066","name":"경기북부지방경찰청 정문 위경소","lat":37.756845,"lng":127.069601,"roadAddr":"경기도 의정부시 금오로23번길 22-49 (금오동, 경기도북부지방경찰청)","openHours":"상시","maleToilets":1,"femaleToilets":0,"disabled":false,"diaperTable":false,"emergencyBell":false,"cctv":false,"source":"public","category":"public"},{"id":"202438200000100298","name":"은하주유소","lat":37.760259,"lng":127.08704,"roadAddr":"경기도 의정부시 호국로 1696 (자일동)","openHours":"상시","maleToilets":2,"femaleToilets":1,"disabled":false,"diaperTable":false,"emergencyBell":false,"cctv":false,"source":"public","category":"public"},{"id":"202438200000100166","name":"자금동주민센터 2층","lat":37.750314,"lng":127.058153,"roadAddr":"경기도 의정부시 거북로 13 (금오동, 자금동주민센터)","openHours":"정시","maleToilets":4,"femaleToilets":2,"disabled":false,"diaperTable":false,"emergencyBell":false,"cctv":false,"source":"public","category":"public"},{"id":"202438200000100291","name":"금오주유소","lat":37.754616,"lng":127.076443,"roadAddr":"경기도 의정부시 호국로 1582 (금오동)","openHours":"상시","maleToilets":2,"femaleToilets":1,"disabled":false,"diaperTable":false,"emergencyBell":false,"cctv":false,"source":"public","category":"public"},{"id":"202438200000100208","name":"천보산 약수터(금오동)","lat":37.764715,"lng":127.074464,"roadAddr":"경기도 의정부시 금오동 산23-1","jibunAddr":"경기도 의정부시 금오동 산23-1","openHours":"상시","maleToilets":1,"femaleToilets":2,"disabled":false,"diaperTable":false,"emergencyBell":false,"cctv":true,"source":"public","category":"public"},{"id":"202438200000100089","name":"의정부면허시험장 별관 1층","lat":37.759398,"lng":127.078035,"roadAddr":"경기도 의정부시 금오로109번길 55 (금오동, 의정부운전면허시험장)","openHours":"정시","maleToilets":7,"femaleToilets":4,"disabled":true,"diaperTable":false,"emergencyBell":false,"cctv":false,"source":"public","category":"public"},{"id":"202438200000100090","name":"의정부면허시험장 본관 1층 여자화장실","lat":37.759398,"lng":127.078035,"roadAddr":"경기도 의정부시 금오로109번길 55 (금오동, 의정부운전면허시험장)","openHours":"정시","maleToilets":0,"femaleToilets":4,"disabled":false,"diaperTable":false,"emergencyBell":false,"cctv":false,"source":"public","category":"public"},{"id":"202438200000100091","name":"의정부면허시험장 본관 2층 남자화장실","lat":37.759398,"lng":127.078035,"roadAddr":"경기도 의정부시 금오로109번길 55 (금오동, 의정부운전면허시험장)","openHours":"정시","maleToilets":9,"femaleToilets":0,"disabled":false,"diaperTable":false,"emergencyBell":false,"cctv":false,"source":"public","category":"public"},{"id":"202638200000100010","name":"신곡동 제1공영주차장","lat":37.749661,"lng":127.070531,"jibunAddr":"경기도 의정부시 신곡동 762-4","openHours":"상시","maleToilets":3,"femaleToilets":4,"disabled":true,"diaperTable":false,"emergencyBell":true,"cctv":false,"source":"public","category":"public"},{"id":"202638200000100020","name":"자일풋살장화장실","lat":37.760531,"lng":127.087406,"roadAddr":"경기도 의정부시 호국로 1698 (자일동)","jibunAddr":"경기도 의정부시 자일동 314-1","openHours":"정시","maleToilets":2,"femaleToilets":1,"disabled":false,"diaperTable":false,"emergencyBell":true,"cctv":false,"source":"public","category":"public"},{"id":"202438200000100249","name":"호호당 화장실(효자역)","lat":37.754079,"lng":127.07772,"roadAddr":"경기도 의정부시 부용로 159-39 (신곡동)","jibunAddr":"경기도 의정부시 신곡동 10-1","openHours":"상시","maleToilets":5,"femaleToilets":5,"disabled":false,"diaperTable":false,"emergencyBell":true,"cctv":true,"source":"public","category":"public"},{"id":"202438200000100092","name":"의정부면허시험장 본관 3층","lat":37.759398,"lng":127.078035,"roadAddr":"경기도 의정부시 금오로109번길 55 (금오동, 의정부운전면허시험장)","openHours":"정시","maleToilets":5,"femaleToilets":2,"disabled":false,"diaperTable":false,"emergencyBell":false,"cctv":false,"source":"public","category":"public"},{"id":"202638200000100002","name":"창조마트","lat":37.749511,"lng":127.059592,"roadAddr":"경기도 의정부시 호국로 1419 (금오동)","jibunAddr":"경기도 의정부시 금오동 335-3","openHours":"정시","maleToilets":2,"femaleToilets":2,"disabled":false,"diaperTable":false,"emergencyBell":false,"cctv":false,"source":"public","category":"public"},{"id":"202438200000100217","name":"천보근린공원","lat":37.751075,"lng":127.064394,"roadAddr":"경기도 의정부시 새말로 38 (금오동)","openHours":"상시","maleToilets":2,"femaleToilets":2,"disabled":true,"diaperTable":false,"emergencyBell":true,"cctv":true,"source":"public","category":"public"},{"id":"202438200000100167","name":"자금동주민센터 3층","lat":37.750314,"lng":127.058153,"roadAddr":"경기도 의정부시 거북로 13 (금오동, 자금동주민센터)","openHours":"정시","maleToilets":4,"femaleToilets":2,"disabled":false,"diaperTable":false,"emergencyBell":false,"cctv":false,"source":"public","category":"public"},{"id":"202438200000100079","name":"금오119안전센터","lat":37.749376,"lng":127.061276,"roadAddr":"경기도 의정부시 호국로 1434-14 (금오동, 파발119안전센터)","openHours":"상시","maleToilets":4,"femaleToilets":1,"disabled":true,"diaperTable":false,"emergencyBell":false,"cctv":false,"source":"public","category":"public"},{"id":"202438200000100292","name":"금오충전소","lat":37.756556,"lng":127.080045,"roadAddr":"경기도 의정부시 호국로 1620 (금오동)","openHours":"상시","maleToilets":4,"femaleToilets":2,"disabled":false,"diaperTable":false,"emergencyBell":false,"cctv":false,"source":"public","category":"public"},{"id":"202638200000100018","name":"천보탁구장 화장실","lat":37.755518,"lng":127.067851,"roadAddr":"경기도 의정부시 금오로23번길 28 (금오동)","jibunAddr":"경기도 의정부시 금오동 482","openHours":"정시","maleToilets":3,"femaleToilets":2,"disabled":true,"diaperTable":false,"emergencyBell":true,"cctv":false,"source":"public","category":"public"},{"id":"202455900000101525","name":"중랑천변 선형공원","lat":37.773262,"lng":127.047075,"jibunAddr":"경기도 양주시 마전동 268-14","openHours":"상시","maleToilets":2,"femaleToilets":1,"disabled":true,"diaperTable":false,"emergencyBell":true,"cctv":false,"managerTel":"0318289777","source":"public","category":"public"},{"id":"202455900000101128","name":"고읍문화공원","lat":37.790764,"lng":127.085336,"jibunAddr":"경기도 양주시 광사동 697","openHours":"상시","maleToilets":2,"femaleToilets":1,"disabled":false,"diaperTable":false,"emergencyBell":true,"cctv":false,"managerTel":"0318289777","source":"public","category":"public"},{"id":"202455900000101359","name":"양주1동우체국 화장실","lat":37.782909,"lng":127.049091,"roadAddr":"경기도 양주시 부흥로 1565 (마전동)","openHours":"정시","maleToilets":2,"femaleToilets":2,"disabled":true,"diaperTable":false,"emergencyBell":true,"cctv":false,"managerTel":"0318400004","source":"public","category":"public"},{"id":"202455900000101413","name":"양주청소년문화의집 화장실","lat":37.791689,"lng":127.084748,"roadAddr":"경기도 양주시 고읍남로 205 (광사동)","openHours":"정시","maleToilets":11,"femaleToilets":8,"disabled":true,"diaperTable":false,"emergencyBell":false,"cctv":false,"managerTel":"03180824163","source":"public","category":"public"},{"id":"202455900000101124","name":"고읍 나리근린공원","lat":37.785799,"lng":127.081834,"roadAddr":"경기도 양주시 광사로 131-66 (광사동)","openHours":"상시","maleToilets":4,"femaleToilets":3,"disabled":true,"diaperTable":false,"emergencyBell":true,"cctv":true,"managerTel":"0318289777","source":"public","category":"public"},{"id":"202455900000101130","name":"고읍제2근린공원 공중화장실(원형광장동)","lat":37.791689,"lng":127.084748,"roadAddr":"경기도 양주시 고읍남로 205(광사동)","openHours":"상시","maleToilets":2,"femaleToilets":3,"disabled":true,"diaperTable":false,"emergencyBell":true,"cctv":true,"managerTel":"0318289777","source":"public","category":"public"},{"id":"202455900000101365","name":"양주국민체육센터 1층 화장실","lat":37.788535,"lng":127.083853,"roadAddr":"경기도 양주시 고읍남로 172 (광사동)","openHours":"정시","maleToilets":1,"femaleToilets":2,"disabled":true,"diaperTable":true,"emergencyBell":true,"cctv":false,"managerTel":"0318289872","source":"public","category":"public"},{"id":"202455900000101367","name":"양주국민체육센터 수영장 화장실","lat":37.788535,"lng":127.083853,"roadAddr":"경기도 양주시 고읍남로 172 (광사동)","openHours":"정시","maleToilets":1,"femaleToilets":2,"disabled":true,"diaperTable":false,"emergencyBell":true,"cctv":false,"managerTel":"0318289872","source":"public","category":"public"},{"id":"202455900000101131","name":"고읍제4근린공원 공중화장실","lat":37.792892,"lng":127.077487,"roadAddr":"경기도 양주시 고읍남로 46(광사동)","openHours":"상시","maleToilets":7,"femaleToilets":5,"disabled":true,"diaperTable":false,"emergencyBell":true,"cctv":true,"managerTel":"0318289777","source":"public","category":"public"},{"id":"202455900000101158","name":"나리공원 파크골프장 화장실","lat":37.785799,"lng":127.081834,"roadAddr":"경기도 양주시 광사로 131-66 (광사동)","openHours":"정시","maleToilets":2,"femaleToilets":2,"disabled":true,"diaperTable":false,"emergencyBell":false,"cctv":false,"managerTel":"03180825647","source":"public","category":"public"},{"id":"202455900000101366","name":"양주국민체육센터 3층화장실","lat":37.788535,"lng":127.083853,"roadAddr":"경기도 양주시 고읍남로 172 (광사동)","openHours":"정시","maleToilets":1,"femaleToilets":2,"disabled":true,"diaperTable":false,"emergencyBell":true,"cctv":false,"managerTel":"0318289872","source":"public","category":"public"},{"id":"202455900000101523","name":"주내파출소 화장실","lat":37.779144,"lng":127.051342,"roadAddr":"경기도 양주시 부흥로 1613 (마전동)","openHours":"정시","maleToilets":2,"femaleToilets":1,"disabled":true,"diaperTable":true,"emergencyBell":false,"cctv":false,"managerTel":"0318699323","source":"public","category":"public"},{"id":"202455900000101127","name":"고읍도서관 화장실","lat":37.792048,"lng":127.084459,"roadAddr":"경기도 양주시 고읍남로 207 (광사동)","openHours":"정시","maleToilets":5,"femaleToilets":4,"disabled":true,"diaperTable":false,"emergencyBell":false,"cctv":true,"managerTel":"03180827442","source":"public","category":"public"}]