[{"id":"202438200000100247","name":"시민공원","lat":37.747605,"lng":127.051434,"roadAddr":"경기도 의정부시 호국로1345번길 68 (의정부동)","openHours":"상시","maleToilets":2,"femaleToilets":2,"disabled":false,"diaperTable":false,"emergencyBell":true,"cctv":true,"source":"public","category":"public"},{"id":"202438200000100251","name":"장암동막골 무지개화장실","lat":37.720372,"lng":127.061848,"roadAddr":"경기도 의정부시 회룡로192번길 177 (장암동)","openHours":"상시","maleToilets":4,"femaleToilets":2,"disabled":false,"diaperTable":false,"emergencyBell":true,"cctv":true,"source":"public","category":"public"},{"id":"202438200000100227","name":"만가대 약수터","lat":37.717227,"lng":127.080586,"roadAddr":"경기도 의정부시 용현동 산61","jibunAddr":"경기도 의정부시 용현동 산61","openHours":"상시","maleToilets":2,"femaleToilets":1,"disabled":false,"diaperTable":false,"emergencyBell":false,"cctv":true,"source":"public","category":"public"},{"id":"202438200000100122","name":"의정부시 도시농업기술과 본관 2층","lat":37.728561,"lng":127.077131,"roadAddr":"경기도 의정부시 시민로416번길 113 (용현동, 의정부시도시농업과)","openHours":"정시","maleToilets":5,"femaleToilets":3,"disabled":false,"diaperTable":false,"emergencyBell":false,"cctv":false,"source":"public","category":"public"},{"id":"202438200000100210","name":"하늘마루(신곡배수지) 화장실","lat":37.732081,"lng":127.060661,"roadAddr":"경기도 의정부시 동일로506번길 26-36 (신곡동)","jibunAddr":"경기도 의정부시 신곡동 산 63-1","openHours":"상시","maleToilets":5,"femaleToilets":6,"disabled":true,"diaperTable":true,"emergencyBell":true,"cctv":true,"source":"public","category":"public"},{"id":"202438200000100145","name":"신곡2동주민센터 별관","lat":37.743618,"lng":127.057906,"roadAddr":"경기도 의정부시 추동로23번길 7 (신곡동, 신곡2동주민센터)","openHours":"정시","maleToilets":3,"femaleToilets":2,"disabled":true,"diaperTable":false,"emergencyBell":false,"cctv":false,"source":"public","category":"public"},{"id":"202438200000100170","name":"장암동주민센터 3층","lat":37.726409,"lng":127.054265,"roadAddr":"경기도 의정부시 장곡로250번길 23 (장암동, 장암동주민센터)","openHours":"정시","maleToilets":2,"femaleToilets":1,"disabled":false,"diaperTable":false,"emergencyBell":false,"cctv":false,"source":"public","category":"public"},{"id":"202438200000100108","name":"의정부과학도서관 2층","lat":37.744728,"lng":127.069135,"roadAddr":"경기도 의정부시 추동로124번길 52 (신곡동, 의정부과학도서관)","openHours":"정시","maleToilets":11,"femaleToilets":9,"disabled":true,"diaperTable":true,"emergencyBell":true,"cctv":true,"source":"public","category":"public"},{"id":"202438200000100143","name":"신곡1동 행정복지센터 2층","lat":37.733098,"lng":127.056225,"roadAddr":"경기도 의정부시 신곡로 71, 신곡1동주민센터 (신곡동)","jibunAddr":"경기도 의정부시 신곡동 702-2 신곡1동주민센터","openHours":"정시","maleToilets":2,"femaleToilets":2,"disabled":false,"diaperTable":false,"emergencyBell":false,"cctv":false,"source":"public","category":"public"},{"id":"202438200000100299","name":"이케이에너지㈜ 바다주유소","lat":37.735716,"lng":127.075169,"roadAddr":"경기도 의정부시 시민로 367 (용현동)","openHours":"상시","maleToilets":4,"femaleToilets":2,"disabled":false,"diaperTable":false,"emergencyBell":false,"cctv":false,"source":"public","category":"public"},{"id":"202438200000100078","name":"중부지방고용노동청의정부지청 3층","lat":37.744236,"lng":127.084164,"roadAddr":"경기도 의정부시 충의로 143 (용현동, 중부지방고용노동청의정부지청)","openHours":"정시","maleToilets":5,"femaleToilets":4,"disabled":true,"diaperTable":false,"emergencyBell":false,"cctv":false,"source":"public","category":"public"},{"id":"202438200000100293","name":"미래주유소","lat":37.732314,"lng":127.059036,"roadAddr":"경기도 의정부시 동일로 492 (신곡동)","openHours":"정시","maleToilets":4,"femaleToilets":1,"disabled":false,"diaperTable":false,"emergencyBell":false,"cctv":false,"source":"public","category":"public"},{"id":"202438200000100102","name":"경기도의정부교육지원청","lat":37.74592,"lng":127.046934,"roadAddr":"경기도 의정부시 가능로136번길 29 (의정부동, 의정부교육지원청)","openHours":"정시","maleToilets":52,"femaleToilets":33,"disabled":true,"diaperTable":true,"emergencyBell":false,"cctv":false,"source":"public","category":"public"},{"id":"202438200000100132","name":"송산1동주민센터 2층","lat":37.731153,"lng":127.086817,"roadAddr":"경기도 의정부시 민락로 13 (용현동, 송산1동주민센터)","openHours":"정시","maleToilets":4,"femaleToilets":2,"disabled":true,"diaperTable":false,"emergencyBell":false,"cctv":false,"source":"public","category":"public"},{"id":"202438200000100294","name":"현대오일뱅크서울주유소","lat":37.736626,"lng":127.066057,"roadAddr":"경기도 의정부시 시민로 284 (신곡동)","openHours":"상시","maleToilets":4,"femaleToilets":2,"disabled":false,"diaperTable":false,"emergencyBell":false,"cctv":false,"source":"public","category":"public"},{"id":"202438200000100107","name":"의정부과학도서관 1층","lat":37.744728,"lng":127.069135,"roadAddr":"경기도 의정부시 추동로124번길 52 (신곡동, 의정부과학도서관)","openHours":"정시","maleToilets":12,"femaleToilets":8,"disabled":true,"diaperTable":true,"emergencyBell":true,"cctv":true,"source":"public","category":"public"},{"id":"202438200000100281","name":"의정부터미널","lat":37.745212,"lng":127.055078,"roadAddr":"경기도 의정부시 동일로 640 (금오동)","openHours":"상시","maleToilets":17,"femaleToilets":13,"disabled":true,"diaperTable":false,"emergencyBell":false,"cctv":false,"source":"public","category":"public"},{"id":"202438200000100265","name":"대성산업㈜ 의정부충전소","lat":37.730681,"lng":127.047697,"roadAddr":"경기도 의정부시 평화로 433 (의정부동)","openHours":"상시","maleToilets":4,"femaleToilets":2,"disabled":false,"diaperTable":false,"emergencyBell":false,"cctv":false,"source":"public","category":"public"},{"id":"202438200000100162","name":"의정부입체공영주차장","lat":37.74243,"lng":127.048663,"roadAddr":"경기도 의정부시 평화로562번길 29 (의정부동)","openHours":"정시","maleToilets":4,"femaleToilets":2,"disabled":false,"diaperTable":false,"emergencyBell":false,"cctv":true,"source":"public","category":"public"},{"id":"202438200000100284","name":"하나프라자","lat":37.724562,"lng":127.045961,"roadAddr":"경기도 의정부시 외미로 95 (호원동)","openHours":"상시","maleToilets":9,"femaleToilets":4,"disabled":true,"diaperTable":false,"emergencyBell":false,"cctv":false,"source":"public","category":"public"},{"id":"202438200000100083","name":"신곡지구대","lat":37.733311,"lng":127.049322,"roadAddr":"경기도 의정부시 경의로 119 (의정부동, 신곡지구대)","openHours":"상시","maleToilets":5,"femaleToilets":1,"disabled":false,"diaperTable":false,"emergencyBell":false,"cctv":true,"source":"public","category":"public"},{"id":"202438200000100157","name":"추동배드민턴장","lat":37.737972,"lng":127.061973,"roadAddr":"경기도 의정부시 능곡로26번길 28-40 (신곡동, 추동배드민턴장)","openHours":"상시","maleToilets":6,"femaleToilets":4,"disabled":true,"diaperTable":false,"emergencyBell":true,"cctv":false,"source":"public","category":"public"},{"id":"202438200000100172","name":"호원1동주민센터 1층","lat":37.711992,"lng":127.048759,"roadAddr":"경기도 의정부시 평화로230번길 12-9 (호원동, 호원1동주민센터)","openHours":"정시","maleToilets":4,"femaleToilets":3,"disabled":true,"diaperTable":true,"emergencyBell":false,"cctv":false,"source":"public","category":"public"},{"id":"202438200000100110","name":"의정부과학도서관 지하1층","lat":37.744728,"lng":127.069135,"roadAddr":"경기도 의정부시 추동로124번길 52 (신곡동, 의정부과학도서관)","openHours":"정시","maleToilets":11,"femaleToilets":9,"disabled":true,"diaperTable":true,"emergencyBell":true,"cctv":false,"source":"public","category":"public"},{"id":"202438200000100287","name":"베스트프라자","lat":37.74112,"lng":127.050646,"roadAddr":"경기도 의정부시 태평로99번길 17 (의정부동)","openHours":"상시","maleToilets":2,"femaleToilets":2,"disabled":false,"diaperTable":false,"emergencyBell":false,"cctv":false,"source":"public","category":"public"},{"id":"202438200000100131","name":"송산1동주민센터 1층","lat":37.731153,"lng":127.086817,"roadAddr":"경기도 의정부시 민락로 13 (용현동, 송산1동주민센터)","openHours":"정시","maleToilets":4,"femaleToilets":2,"disabled":true,"diaperTable":false,"emergencyBell":false,"cctv":true,"source":"public","category":"public"},{"id":"202438200000100278","name":"의정부 청과야채시장","lat":37.738344,"lng":127.052686,"roadAddr":"경기도 의정부시 호국로1346번길 145 (의정부동)","openHours":"상시","maleToilets":6,"femaleToilets":4,"disabled":false,"diaperTable":false,"emergencyBell":false,"cctv":false,"source":"public","category":"public"},{"id":"202438200000100173","name":"호원1동주민센터 2층","lat":37.711992,"lng":127.048759,"roadAddr":"경기도 의정부시 평화로230번길 12-9 (호원동, 호원1동주민센터)","openHours":"정시","maleToilets":3,"femaleToilets":2,"disabled":false,"diaperTable":false,"emergencyBell":false,"cctv":false,"source":"public","category":"public"},{"id":"202438200000100266","name":"GS칼텍스 호원주유소","lat":37.720422,"lng":127.047212,"roadAddr":"경기도 의정부시 평화로 317 (호원동)","openHours":"상시","maleToilets":3,"femaleToilets":2,"disabled":false,"diaperTable":false,"emergencyBell":false,"cctv":false,"source":"public","category":"public"},{"id":"202438200000100207","name":"추동웰빙공원","lat":37.742997,"lng":127.065734,"roadAddr":"경기도 의정부시 금신로257번길 40 (신곡동)","openHours":"상시","maleToilets":5,"femaleToilets":5,"disabled":true,"diaperTable":true,"emergencyBell":true,"cctv":true,"source":"public","category":"public"},{"id":"202438200000100289","name":"지동관","lat":37.740074,"lng":127.048162,"roadAddr":"경기도 의정부시 호국로1298번길 78 (의정부동, 지동관)","openHours":"정시","maleToilets":5,"femaleToilets":3,"disabled":false,"diaperTable":false,"emergencyBell":false,"cctv":false,"source":"public","category":"public"},{"id":"202438200000100221","name":"둔배미힐링화장실","lat":37.728045,"lng":127.070016,"roadAddr":"경기도 의정부시 둔배미남길 11 (신곡동)","jibunAddr":"경기도 의정부시 신곡동 211-7","openHours":"상시","maleToilets":0,"femaleToilets":0,"disabled":true,"diaperTable":false,"emergencyBell":true,"cctv":true,"source":"public","category":"public"},{"id":"202438200000100263","name":"의정부엘피지충전소","lat":37.72587,"lng":127.064683,"roadAddr":"경기도 의정부시 금신로 54 (신곡동)","openHours":"상시","maleToilets":2,"femaleToilets":1,"disabled":false,"diaperTable":false,"emergencyBell":false,"cctv":false,"source":"public","category":"public"},{"id":"202438200000100222","name":"발곡도레미 공중화장실","lat":37.727963,"lng":127.054015,"roadAddr":"경기도 의정부시 음악정원길 32, 발곡 도레미 공중화장실 (신곡동)","jibunAddr":"경기도 의정부시 신곡동 724-1 발곡 도레미 공중화장실","openHours":"상시","maleToilets":3,"femaleToilets":3,"disabled":false,"diaperTable":true,"emergencyBell":true,"cctv":true,"source":"public","category":"public"},{"id":"202438200000100153","name":"의정부1동주민센터 3층","lat":37.732282,"lng":127.049138,"roadAddr":"경기도 의정부시 경의로 120, 의정부1동 주민센터 (의정부동)","jibunAddr":"경기도 의정부시 의정부동 371 의정부1동 주민센터","openHours":"정시","maleToilets":4,"femaleToilets":2,"disabled":false,"diaperTable":false,"emergencyBell":true,"cctv":false,"source":"public","category":"public"},{"id":"202438200000100257","name":"의정부농협 중앙지점","lat":37.741942,"lng":127.049963,"roadAddr":"경기도 의정부시 행복로 37 (의정부동)","openHours":"상시","maleToilets":3,"femaleToilets":2,"disabled":false,"diaperTable":false,"emergencyBell":false,"cctv":false,"source":"public","category":"public"},{"id":"202438200000100229","name":"시민정원","lat":37.738283,"lng":127.047457,"roadAddr":"경기도 의정부시 의정부동 142-1","jibunAddr":"경기도 의정부시 의정부동 161-16","openHours":"상시","maleToilets":2,"femaleToilets":1,"disabled":false,"diaperTable":false,"emergencyBell":true,"cctv":true,"source":"public","category":"public"},{"id":"202438200000100080","name":"금오지구대","lat":37.747628,"lng":127.066418,"roadAddr":"경기도 의정부시 추동로108번길 1 (신곡동, 금오지구대)","openHours":"상시","maleToilets":2,"femaleToilets":1,"disabled":true,"diaperTable":false,"emergencyBell":false,"cctv":true,"source":"public","category":"public"},{"id":"202438200000100237","name":"부용천 땅콩화장실","lat":37.744523,"lng":127.05605,"roadAddr":"경기도 의정부시 장곡로 463 (신곡동)","openHours":"상시","maleToilets":2,"femaleToilets":2,"disabled":true,"diaperTable":false,"emergencyBell":true,"cctv":true,"source":"public","category":"public"},{"id":"202438200000100264","name":"대성산업 직영 의정부주유소","lat":37.733842,"lng":127.048236,"roadAddr":"경기도 의정부시 평화로 468 (의정부동)","openHours":"상시","maleToilets":2,"femaleToilets":2,"disabled":false,"diaperTable":false,"emergencyBell":false,"cctv":false,"source":"public","category":"public"},{"id":"202438200000100290","name":"흥산에너지주유소","lat":37.728993,"lng":127.063671,"roadAddr":"경기도 의정부시 금신로 91 (신곡동)","openHours":"상시","maleToilets":4,"femaleToilets":2,"disabled":false,"diaperTable":false,"emergencyBell":false,"cctv":false,"source":"public","category":"public"},{"id":"202438200000100160","name":"의정부 지하공영주차장","lat":37.741588,"lng":127.048212,"roadAddr":"경기도 의정부시 평화로552번길 17 (의정부동)","openHours":"상시","maleToilets":5,"femaleToilets":2,"disabled":true,"diaperTable":false,"emergencyBell":false,"cctv":true,"source":"public","category":"public"},{"id":"202438200000100077","name":"중부지방고용노동청의정부지청 2층","lat":37.744236,"lng":127.084164,"roadAddr":"경기도 의정부시 충의로 143 (용현동, 중부지방고용노동청의정부지청)","openHours":"정시","maleToilets":6,"femaleToilets":3,"disabled":true,"diaperTable":false,"emergencyBell":false,"cctv":false,"source":"public","category":"public"},{"id":"202438200000100152","name":"의정부1동주민센터 2층","lat":37.746449,"lng":127.047618,"roadAddr":"경기도 의정부시 가능로152번길 14 (의정부동, 의정부1동주민센터)","openHours":"정시","maleToilets":4,"femaleToilets":2,"disabled":false,"diaperTable":false,"emergencyBell":true,"cctv":false,"source":"public","category":"public"},{"id":"202438200000100133","name":"송산1동주민센터 3층","lat":37.731153,"lng":127.086817,"roadAddr":"경기도 의정부시 민락로 13 (용현동, 송산1동주민센터)","openHours":"정시","maleToilets":4,"femaleToilets":2,"disabled":true,"diaperTable":false,"emergencyBell":false,"cctv":false,"source":"public","category":"public"},{"id":"202638200000100009","name":"동오마을 공영주차장","lat":37.743575,"lng":127.057041,"roadAddr":"경기도 의정부시 추동로19번길 13 (신곡동)","jibunAddr":"경기도 의정부시 신곡동 674","openHours":"상시","maleToilets":2,"femaleToilets":3,"disabled":true,"diaperTable":false,"emergencyBell":true,"cctv":false,"source":"public","category":"public"},{"id":"202438200000100286","name":"맥도날드 의정부역점","lat":37.739983,"lng":127.048506,"roadAddr":"경기도 의정부시 행복로 11 (의정부동)","openHours":"상시","maleToilets":3,"femaleToilets":3,"disabled":false,"diaperTable":false,"emergencyBell":false,"cctv":false,"source":"public","category":"public"},{"id":"202438200000100238","name":"중랑천 장암동 135-48 화장실","lat":37.711356,"lng":127.051351,"roadAddr":"경기도 의정부시 장암동 135-48","jibunAddr":"경기도 의정부시 장암동 135-48","openHours":"상시","maleToilets":2,"femaleToilets":3,"disabled":true,"diaperTable":true,"emergencyBell":true,"cctv":true,"source":"public","category":"public"},{"id":"202438200000100285","name":"고산떡갈비","lat":37.742311,"lng":127.047794,"roadAddr":"경기도 의정부시 평화로562번길 13 (의정부동)","openHours":"상시","maleToilets":2,"femaleToilets":2,"disabled":false,"diaperTable":false,"emergencyBell":false,"cctv":false,"source":"public","category":"public"},{"id":"202438200000100300","name":"훼미리제2주유소","lat":37.707477,"lng":127.057604,"roadAddr":"경기도 의정부시 동일로 207 (장암동)","openHours":"상시","maleToilets":3,"femaleToilets":2,"disabled":false,"diaperTable":false,"emergencyBell":false,"cctv":false,"source":"public","category":"public"},{"id":"202438200000100262","name":"씨앤에스에너지㈜ 장암IC주유소","lat":37.724018,"lng":127.063123,"roadAddr":"경기도 의정부시 금신로 30 (신곡동)","openHours":"상시","maleToilets":4,"femaleToilets":2,"disabled":false,"diaperTable":false,"emergencyBell":false,"cctv":false,"source":"public","category":"public"},{"id":"202438200000100146","name":"송산노인종합복지관","lat":37.738889,"lng":127.088758,"roadAddr":"경기도 의정부시 용민로 99 (민락동, 송산노인복지회관)","openHours":"정시","maleToilets":15,"femaleToilets":9,"disabled":true,"diaperTable":false,"emergencyBell":false,"cctv":false,"source":"public","category":"public"},{"id":"202438200000100236","name":"행복갤러리 공중화장실","lat":37.722478,"lng":127.051688,"roadAddr":"경기도 의정부시 장곡로 147, 의정부자원회수시설 (장암동)","jibunAddr":"경기도 의정부시 장암동 44-5 의정부자원회수시설","openHours":"상시","maleToilets":3,"femaleToilets":3,"disabled":true,"diaperTable":false,"emergencyBell":true,"cctv":true,"source":"public","category":"public"},{"id":"202438200000100098","name":"회룡역","lat":37.724008,"lng":127.047317,"roadAddr":"경기도 의정부시 평화로 363 (호원동, 회룡역)","openHours":"상시","maleToilets":24,"femaleToilets":25,"disabled":true,"diaperTable":false,"emergencyBell":false,"cctv":false,"source":"public","category":"public"},{"id":"202438200000100269","name":"송산주유소","lat":37.740206,"lng":127.086628,"roadAddr":"경기도 의정부시 충의로 94 (용현동)","openHours":"상시","maleToilets":2,"femaleToilets":2,"disabled":true,"diaperTable":false,"emergencyBell":false,"cctv":false,"source":"public","category":"public"},{"id":"202438200000100120","name":"의정부시 도시농업기술과 교육관 1층","lat":37.728561,"lng":127.077131,"roadAddr":"경기도 의정부시 시민로416번길 113 (용현동, 의정부시도시농업과)","openHours":"정시","maleToilets":0,"femaleToilets":0,"disabled":true,"diaperTable":false,"emergencyBell":false,"cctv":false,"source":"public","category":"public"},{"id":"202638200000100005","name":"금신비움터","lat":37.747193,"lng":127.058401,"jibunAddr":"경기도 의정부시 금오동 357-9","openHours":"상시","maleToilets":2,"femaleToilets":2,"disabled":false,"diaperTable":false,"emergencyBell":true,"cctv":true,"source":"public","category":"public"},{"id":"202638200000100003","name":"중앙빌딩","lat":37.728666,"lng":127.061486,"roadAddr":"경기도 의정부시 동일로454번길 33 (신곡동)","jibunAddr":"경기도 의정부시 신곡동 313-9","openHours":"상시","maleToilets":2,"femaleToilets":1,"disabled":false,"diaperTable":false,"emergencyBell":false,"cctv":false,"source":"public","category":"public"},{"id":"202638200000100006","name":"발곡공원화장실","lat":37.733242,"lng":127.063781,"roadAddr":"경기도 의정부시 시민로254번길 67 (신곡동)","jibunAddr":"경기도 의정부시 신곡동 산 51-16","openHours":"상시","maleToilets":2,"femaleToilets":1,"disabled":true,"diaperTable":false,"emergencyBell":true,"cctv":true,"source":"public","category":"public"},{"id":"202438200000100174","name":"호원1동주민센터 3층","lat":37.711992,"lng":127.048759,"roadAddr":"경기도 의정부시 평화로230번길 12-9 (호원동, 호원1동주민센터)","openHours":"정시","maleToilets":4,"femaleToilets":2,"disabled":false,"diaperTable":false,"emergencyBell":false,"cctv":false,"source":"public","category":"public"},{"id":"202638200000100021","name":"의정부시스포츠센터","lat":37.713433,"lng":127.051421,"roadAddr":"경기도 의정부시 장곡로 101, 의정부시스포츠센터 (장암동)","jibunAddr":"경기도 의정부시 장암동 78-2 의정부시스포츠센터","openHours":"정시","maleToilets":12,"femaleToilets":8,"disabled":true,"diaperTable":true,"emergencyBell":true,"cctv":false,"source":"public","category":"public"},{"id":"202438200000100144","name":"신곡2동주민센터","lat":37.743618,"lng":127.057906,"roadAddr":"경기도 의정부시 추동로23번길 7 (신곡동, 신곡2동주민센터)","openHours":"정시","maleToilets":6,"femaleToilets":6,"disabled":true,"diaperTable":false,"emergencyBell":false,"cctv":false,"source":"public","category":"public"},{"id":"202438200000100225","name":"다리목공원","lat":37.738889,"lng":127.088758,"roadAddr":"경기도 의정부시 용민로 99, 송산노인복지회관 (민락동)","jibunAddr":"경기도 의정부시 민락동 736-2 송산노인복지회관","openHours":"상시","maleToilets":1,"femaleToilets":1,"disabled":true,"diaperTable":false,"emergencyBell":true,"cctv":true,"source":"public","category":"public"},{"id":"202438200000100168","name":"장암동주민센터 1층","lat":37.726409,"lng":127.054265,"roadAddr":"경기도 의정부시 장곡로250번길 23 (장암동, 장암동주민센터)","openHours":"정시","maleToilets":2,"femaleToilets":1,"disabled":true,"diaperTable":false,"emergencyBell":false,"cctv":false,"source":"public","category":"public"},{"id":"202438200000100109","name":"의정부과학도서관 3층","lat":37.744728,"lng":127.069135,"roadAddr":"경기도 의정부시 추동로124번길 52 (신곡동, 의정부과학도서관)","openHours":"정시","maleToilets":12,"femaleToilets":8,"disabled":true,"diaperTable":true,"emergencyBell":true,"cctv":true,"source":"public","category":"public"},{"id":"202438200000100121","name":"의정부시 도시농업기술과 본관 1층","lat":37.728561,"lng":127.077131,"roadAddr":"경기도 의정부시 시민로416번길 113 (용현동, 의정부시도시농업과)","openHours":"정시","maleToilets":5,"femaleToilets":3,"disabled":true,"diaperTable":false,"emergencyBell":false,"cctv":false,"source":"public","category":"public"},{"id":"202438200000100261","name":"민락셀프주유소","lat":37.739695,"lng":127.086034,"roadAddr":"경기도 의정부시 충의로 91 (용현동)","openHours":"상시","maleToilets":3,"femaleToilets":1,"disabled":true,"diaperTable":false,"emergencyBell":false,"cctv":false,"source":"public","category":"public"},{"id":"202438200000100277","name":"갑오빌딩","lat":37.742711,"lng":127.061819,"roadAddr":"경기도 의정부시 능곡로 56 (신곡동)","openHours":"상시","maleToilets":9,"femaleToilets":3,"disabled":false,"diaperTable":false,"emergencyBell":false,"cctv":false,"source":"public","category":"public"},{"id":"202438200000100231","name":"신의청결쉼터","lat":37.734833,"lng":127.053487,"roadAddr":"경기도 의정부시 시민로160번길 55 (의정부동)","jibunAddr":"경기도 의정부시 의정부동 38-61","openHours":"상시","maleToilets":1,"femaleToilets":2,"disabled":true,"diaperTable":true,"emergencyBell":true,"cctv":true,"source":"public","category":"public"},{"id":"202438200000100076","name":"중부지방고용노동청의정부지청 1층","lat":37.744236,"lng":127.084164,"roadAddr":"경기도 의정부시 충의로 143 (용현동, 중부지방고용노동청의정부지청)","openHours":"정시","maleToilets":7,"femaleToilets":3,"disabled":false,"diaperTable":false,"emergencyBell":false,"cctv":true,"source":"public","category":"public"},{"id":"202438200000100081","name":"송산119안전센터","lat":37.739796,"lng":127.086543,"roadAddr":"경기도 의정부시 충의로 90 (용현동, 송산119안전센터)","openHours":"정시","maleToilets":4,"femaleToilets":1,"disabled":false,"diaperTable":false,"emergencyBell":false,"cctv":false,"source":"public","category":"public"},{"id":"202438200000100093","name":"호원119안전센터","lat":37.720799,"lng":127.048184,"roadAddr":"경기도 의정부시 평화로322번길 7 (호원동, 호원119안전센터)","openHours":"정시","maleToilets":3,"femaleToilets":0,"disabled":false,"diaperTable":false,"emergencyBell":false,"cctv":false,"source":"public","category":"public"},{"id":"202438200000100282","name":"럭키할인마트","lat":37.713358,"lng":127.047998,"roadAddr":"경기도 의정부시 평화로 238 (호원동)","openHours":"상시","maleToilets":4,"femaleToilets":3,"disabled":false,"diaperTable":false,"emergencyBell":false,"cctv":false,"source":"public","category":"public"},{"id":"202438200000100248","name":"양지공원","lat":37.742899,"lng":127.053719,"roadAddr":"경기도 의정부시 호국로1346번길 41 (의정부동)","openHours":"상시","maleToilets":6,"femaleToilets":7,"disabled":true,"diaperTable":true,"emergencyBell":true,"cctv":true,"source":"public","category":"public"},{"id":"202438200000100096","name":"망월사역","lat":37.710598,"lng":127.047328,"roadAddr":"경기도 의정부시 평화로 221 (호원동, 망월사역)","openHours":"상시","maleToilets":16,"femaleToilets":14,"disabled":true,"diaperTable":true,"emergencyBell":true,"cctv":false,"source":"public","category":"public"},{"id":"202438200000100169","name":"장암동주민센터 2층","lat":37.726409,"lng":127.054265,"roadAddr":"경기도 의정부시 장곡로250번길 23 (장암동, 장암동주민센터)","openHours":"정시","maleToilets":2,"femaleToilets":1,"disabled":false,"diaperTable":false,"emergencyBell":false,"cctv":false,"source":"public","category":"public"},{"id":"202438200000100260","name":"구도일주유소","lat":37.736568,"lng":127.058369,"roadAddr":"경기도 의정부시 시민로 213 (신곡동)","openHours":"상시","maleToilets":4,"femaleToilets":2,"disabled":false,"diaperTable":false,"emergencyBell":false,"cctv":false,"source":"public","category":"public"},{"id":"202438200000100223","name":"추동근린공원내(효자봉)","lat":37.74367,"lng":127.07281,"roadAddr":"경기도 의정부시 신곡동 산20-7","jibunAddr":"경기도 의정부시 신곡동 산20-7","openHours":"상시","maleToilets":2,"femaleToilets":1,"disabled":false,"diaperTable":false,"emergencyBell":false,"cctv":true,"source":"public","category":"public"},{"id":"202438200000100219","name":"곤제근린공원","lat":37.746741,"lng":127.084909,"roadAddr":"경기도 의정부시 송현로 123 (낙양동)","openHours":"상시","maleToilets":5,"femaleToilets":5,"disabled":true,"diaperTable":true,"emergencyBell":true,"cctv":true,"source":"public","category":"public"},{"id":"202438200000100151","name":"의정부1동주민센터 1층","lat":37.746449,"lng":127.047618,"roadAddr":"경기도 의정부시 가능로152번길 14 (의정부동, 의정부1동주민센터)","openHours":"정시","maleToilets":3,"femaleToilets":2,"disabled":true,"diaperTable":false,"emergencyBell":true,"cctv":true,"source":"public","category":"public"},{"id":"202638200000100013","name":"송산배수지테니스장","lat":37.747519,"lng":127.076639,"roadAddr":"경기도 의정부시 부용로214번길 51 (신곡동)","jibunAddr":"경기도 의정부시 신곡동 53-464","openHours":"상시","maleToilets":5,"femaleToilets":2,"disabled":true,"diaperTable":false,"emergencyBell":true,"cctv":false,"source":"public","category":"public"},{"id":"202638200000100016","name":"신곡실내배드민턴장","lat":37.742997,"lng":127.065734,"roadAddr":"경기도 의정부시 금신로257번길 40 (신곡동)","jibunAddr":"경기도 의정부시 신곡동 128","openHours":"정시","maleToilets":6,"femaleToilets":7,"disabled":true,"diaperTable":false,"emergencyBell":true,"cctv":false,"source":"public","category":"public"},{"id":"202638200000100017","name":"추동배드민턴장 화장실","lat":37.740034,"lng":127.061722,"roadAddr":"경기도 의정부시 능곡로26번길 28-40, 추동배드민턴장 (신곡동)","jibunAddr":"경기도 의정부시 신곡동 472-5 추동배드민턴장","openHours":"정시","maleToilets":3,"femaleToilets":4,"disabled":true,"diaperTable":false,"emergencyBell":false,"cctv":false,"source":"public","category":"public"},{"id":"202438200000100142","name":"신곡1동 행정복지센터 1층","lat":37.731571,"lng":127.056792,"roadAddr":"경기도 의정부시 발곡로 17 (신곡동, 신곡1동행정복지센터)","openHours":"정시","maleToilets":3,"femaleToilets":2,"disabled":true,"diaperTable":false,"emergencyBell":false,"cctv":false,"source":"public","category":"public"},{"id":"202438200000100243","name":"역전근린공원 공중화장실","lat":37.739813,"lng":127.047116,"roadAddr":"경기도 의정부시 평화로 535 (의정부동)","openHours":"상시","maleToilets":4,"femaleToilets":3,"disabled":true,"diaperTable":true,"emergencyBell":true,"cctv":true,"source":"public","category":"public"}]