[{"id":"202430600000100244","name":"청남공원","lat":37.619348,"lng":127.11108,"roadAddr":"서울특별시 중랑구 신내동256-16","openHours":"상시","maleToilets":2,"femaleToilets":2,"disabled":false,"diaperTable":true,"emergencyBell":true,"cctv":false,"managerTel":"0220942357","source":"public","category":"public"},{"id":"202431000000100653","name":"복지공릉충전소","lat":37.638936,"lng":127.109652,"roadAddr":"서울특별시 노원구 화랑로 826 (공릉동)","openHours":"정시","maleToilets":4,"femaleToilets":2,"disabled":false,"diaperTable":false,"emergencyBell":false,"cctv":false,"managerTel":"0232962903","source":"public","category":"public"},{"id":"202431000000100875","name":"육사야구장 화장실","lat":37.628969,"lng":127.097845,"roadAddr":"서울특별시 태릉로 682","jibunAddr":"서울특별시 노원구 공릉동 25-5","openHours":"정시","maleToilets":2,"femaleToilets":1,"disabled":false,"diaperTable":false,"emergencyBell":false,"cctv":true,"source":"public","category":"public"},{"id":"202431000000100742","name":"학도암 중","lat":37.652847,"lng":127.091497,"jibunAddr":"서울특별시 노원구 중계동 산 102","openHours":"상시","maleToilets":1,"femaleToilets":1,"disabled":false,"diaperTable":false,"emergencyBell":true,"cctv":true,"source":"public","category":"public"},{"id":"202431000000100657","name":"삼육주유소","lat":37.638605,"lng":127.109024,"roadAddr":"서울특별시 노원구 화랑로 822 (공릉동)","openHours":"정시","maleToilets":3,"femaleToilets":1,"disabled":false,"diaperTable":false,"emergencyBell":false,"cctv":false,"managerTel":"029493677","source":"public","category":"public"},{"id":"202431000000100743","name":"학도암 상","lat":37.652847,"lng":127.091497,"jibunAddr":"서울특별시 노원구 중계동 산 102","openHours":"상시","maleToilets":1,"femaleToilets":1,"disabled":false,"diaperTable":false,"emergencyBell":true,"cctv":true,"source":"public","category":"public"},{"id":"202431000000100796","name":"은혜사 앞","lat":37.644112,"lng":127.090463,"jibunAddr":"서울특별시 노원구 중계동 12-1","openHours":"상시","maleToilets":1,"femaleToilets":1,"disabled":false,"diaperTable":false,"emergencyBell":true,"cctv":false,"managerTel":"0221163815","source":"public","category":"public"},{"id":"202339800000100026","name":"갈매중앙공원","lat":37.631111,"lng":127.118567,"roadAddr":"경기도 구리시 산마루로 41(갈매동)","jibunAddr":"경기도 구리시 갈매동 578","openHours":"상시","maleToilets":4,"femaleToilets":5,"disabled":true,"diaperTable":false,"emergencyBell":true,"cctv":false,"source":"public","category":"public"},{"id":"202339800000100027","name":"도당공원","lat":37.625921,"lng":127.11744,"roadAddr":"경기도 구리시 갈매순환로 64(갈매동)","jibunAddr":"경기도 구리시 갈매동 661","openHours":"상시","maleToilets":3,"femaleToilets":6,"disabled":true,"diaperTable":false,"emergencyBell":true,"cctv":false,"source":"public","category":"public"},{"id":"202339800000100017","name":"갈매동 경춘선 선하부지 체육시설 화장실","lat":37.637359,"lng":127.115369,"roadAddr":"경기도 구리시 경춘북로 265","jibunAddr":"경기도 구리시 갈매동 243-2","openHours":"상시","maleToilets":3,"femaleToilets":3,"disabled":false,"diaperTable":false,"emergencyBell":false,"cctv":false,"managerTel":"0315502148","source":"public","category":"public"},{"id":"202339800000100037","name":"갈매수질복원센터","lat":37.6397,"lng":127.127693,"roadAddr":"경기도 구리시 갈매중앙로 206","jibunAddr":"경기도 구리시 갈매동 543-1","openHours":"상시","maleToilets":6,"femaleToilets":2,"disabled":true,"diaperTable":false,"emergencyBell":false,"cctv":false,"source":"public","category":"public"},{"id":"202339800000100002","name":"갈매동 행정복지센터","lat":37.631128,"lng":127.116554,"roadAddr":"경기도 구리시 산마루로 24 신성타워 5층","jibunAddr":"경기도 구리시 갈매동 608-2","openHours":"정시","maleToilets":4,"femaleToilets":2,"disabled":false,"diaperTable":false,"emergencyBell":false,"cctv":false,"source":"public","category":"public"},{"id":"202339800000100023","name":"갈매역사 화장실(1층)","lat":37.633977,"lng":127.114708,"roadAddr":"경기도 구리시 경춘북로 229","jibunAddr":"경기도 구리시 갈매동 502-39","openHours":"정시","maleToilets":11,"femaleToilets":11,"disabled":true,"diaperTable":true,"emergencyBell":true,"cctv":false,"managerTel":"0315287736","source":"public","category":"public"},{"id":"202439900000101518","name":"별내배드민턴장 [별내-2]","lat":37.660096,"lng":127.123425,"jibunAddr":"경기도 남양주시 별내동 908","openHours":"상시","maleToilets":5,"femaleToilets":3,"disabled":true,"diaperTable":false,"emergencyBell":true,"cctv":true,"managerTel":"0315908676","source":"public","category":"public"},{"id":"202439900000101320","name":"별빛도서관 지상2층","lat":37.650938,"lng":127.120327,"roadAddr":"경기도 남양주시 별내중앙로 102","jibunAddr":"경기도 남양주시 별내동 1062","openHours":"정시","maleToilets":4,"femaleToilets":5,"disabled":true,"diaperTable":false,"emergencyBell":false,"cctv":false,"managerTel":"0315905342","source":"public","category":"public"},{"id":"202439900000101319","name":"별빛도서관 지상1층","lat":37.650938,"lng":127.120327,"roadAddr":"경기도 남양주시 별내중앙로 102","jibunAddr":"경기도 남양주시 별내동 1062","openHours":"정시","maleToilets":6,"femaleToilets":7,"disabled":true,"diaperTable":false,"emergencyBell":false,"cctv":false,"managerTel":"0315905342","source":"public","category":"public"},{"id":"202439900000101322","name":"별빛도서관 지상4층","lat":37.650938,"lng":127.120327,"roadAddr":"경기도 남양주시 별내중앙로 102","jibunAddr":"경기도 남양주시 별내동 1062","openHours":"정시","maleToilets":5,"femaleToilets":6,"disabled":true,"diaperTable":false,"emergencyBell":false,"cctv":false,"managerTel":"0315905342","source":"public","category":"public"},{"id":"202439900000101515","name":"별내동7 무궁화공원[별내-7]","lat":37.651597,"lng":127.119797,"roadAddr":"경기도 남양주시 별내중앙로 112","jibunAddr":"경기도 남양주시 별내동 1062","openHours":"상시","maleToilets":6,"femaleToilets":6,"disabled":true,"diaperTable":false,"emergencyBell":true,"cctv":true,"managerTel":"0315908676","source":"public","category":"public"},{"id":"202439900000101321","name":"별빛도서관 지상3층","lat":37.650938,"lng":127.120327,"roadAddr":"경기도 남양주시 별내중앙로 102","jibunAddr":"경기도 남양주시 별내동 1062","openHours":"정시","maleToilets":5,"femaleToilets":6,"disabled":true,"diaperTable":false,"emergencyBell":false,"cctv":false,"managerTel":"0315905342","source":"public","category":"public"},{"id":"202439900000101350","name":"불암사 주차장[별내-9]","lat":37.658874,"lng":127.100659,"roadAddr":"경기도 남양주시 불암산로 190(별내동)","jibunAddr":"경기도 남양주시 별내동 797","openHours":"상시","maleToilets":3,"femaleToilets":3,"disabled":true,"diaperTable":false,"emergencyBell":false,"cctv":true,"managerTel":"0315902848","source":"public","category":"public"},{"id":"202439900000101434","name":"별내커뮤니티센터 지상1층","lat":37.654934,"lng":127.127036,"roadAddr":"경기도 남양주시 순화궁로 313(별내동)","jibunAddr":"경기도 남양주시 별내동 938","openHours":"정시","maleToilets":5,"femaleToilets":4,"disabled":true,"diaperTable":false,"emergencyBell":false,"cctv":true,"managerTel":"0315601460","source":"public","category":"public"},{"id":"202439900000101435","name":"별내커뮤니티센터 지상2층","lat":37.654934,"lng":127.127036,"roadAddr":"경기도 남양주시 순화궁로 313(별내동)","jibunAddr":"경기도 남양주시 별내동 938","openHours":"정시","maleToilets":4,"femaleToilets":4,"disabled":true,"diaperTable":false,"emergencyBell":false,"cctv":true,"managerTel":"0315601460","source":"public","category":"public"},{"id":"202439900000101318","name":"별빛도서관 지하1층","lat":37.650938,"lng":127.120327,"roadAddr":"경기도 남양주시 별내중앙로 102","jibunAddr":"경기도 남양주시 별내동 1062","openHours":"정시","maleToilets":0,"femaleToilets":0,"disabled":false,"diaperTable":false,"emergencyBell":false,"cctv":false,"managerTel":"0315905342","source":"public","category":"public"},{"id":"202439900000101514","name":"상하수도센터[별내-8]","lat":37.647231,"lng":127.127673,"roadAddr":"경기도 남양주시 별내2로 88","jibunAddr":"경기도 남양주시 별내동 927","openHours":"상시","maleToilets":6,"femaleToilets":6,"disabled":true,"diaperTable":false,"emergencyBell":false,"cctv":true,"managerTel":"0315908676","source":"public","category":"public"},{"id":"202439900000101391","name":"별내역","lat":37.642344,"lng":127.127425,"roadAddr":"경기도 남양주시 경춘북로 375(별내동 182-5)","openHours":"정시","maleToilets":12,"femaleToilets":12,"disabled":true,"diaperTable":false,"emergencyBell":true,"cctv":false,"managerTel":"15447788","source":"public","category":"public"},{"id":"202439900000101520","name":"화접초등학교 옆 별내동 3[별내-3]","lat":37.65406,"lng":127.115769,"jibunAddr":"경기도 남양주시 별내동 1074","openHours":"상시","maleToilets":3,"femaleToilets":3,"disabled":true,"diaperTable":false,"emergencyBell":false,"cctv":true,"managerTel":"0315908676","source":"public","category":"public"},{"id":"202439900000101521","name":"별내역사문화공원[별내-5]","lat":37.657304,"lng":127.121783,"roadAddr":"경기도 남양주시 별내3로 217","jibunAddr":"경기도 남양주시 별내동 293-5","openHours":"상시","maleToilets":6,"femaleToilets":6,"disabled":true,"diaperTable":false,"emergencyBell":true,"cctv":true,"managerTel":"0315908676","source":"public","category":"public"},{"id":"202439900000101506","name":"별가람초등학교 근처[별내-4]","lat":37.656703,"lng":127.123598,"jibunAddr":"경기도 남양주시 별내동 928","openHours":"상시","maleToilets":4,"femaleToilets":3,"disabled":true,"diaperTable":false,"emergencyBell":true,"cctv":true,"managerTel":"0315908676","source":"public","category":"public"},{"id":"202439900000101433","name":"별내커뮤니티센터 지하1층","lat":37.654934,"lng":127.127036,"roadAddr":"경기도 남양주시 순화궁로 313(별내동)","jibunAddr":"경기도 남양주시 별내동 938","openHours":"정시","maleToilets":4,"femaleToilets":2,"disabled":true,"diaperTable":false,"emergencyBell":false,"cctv":true,"managerTel":"0315601460","source":"public","category":"public"},{"id":"202439900000101329","name":"남양주 별내119안전센터","lat":37.646123,"lng":127.129806,"roadAddr":"경기도 남양주시 송산로 41 (신청사)","jibunAddr":"경기도 남양주시 별내동 980","openHours":"정시","maleToilets":2,"femaleToilets":2,"disabled":false,"diaperTable":false,"emergencyBell":false,"cctv":false,"managerTel":"0315900563","source":"public","category":"public"},{"id":"202439900000101524","name":"별내 어린이공원 5호[별내-10]","lat":37.660619,"lng":127.126811,"jibunAddr":"경기도 남양주시 별내동 904","openHours":"상시","maleToilets":3,"femaleToilets":3,"disabled":true,"diaperTable":false,"emergencyBell":true,"cctv":false,"managerTel":"0315908347","source":"public","category":"public"},{"id":"202439900000101517","name":"파크골프장[별내-6]","lat":37.660336,"lng":127.121127,"jibunAddr":"경기도 남양주시 별내동 910번지","openHours":"상시","maleToilets":6,"femaleToilets":6,"disabled":true,"diaperTable":false,"emergencyBell":false,"cctv":true,"managerTel":"0315908676","source":"public","category":"public"},{"id":"202439900000101330","name":"남양주별내119안전센터","lat":37.646123,"lng":127.129806,"roadAddr":"경기도 남양주시 송산로 41 (구청사)","jibunAddr":"경기도 남양주시 별내동 980","openHours":"정시","maleToilets":1,"femaleToilets":1,"disabled":true,"diaperTable":false,"emergencyBell":false,"cctv":false,"managerTel":"0315900563","source":"public","category":"public"}]