[{"id":"202455900000101485","name":"은남통합보건지소 화장실","lat":37.870035,"lng":127.006394,"roadAddr":"경기도 양주시 남면 화합로610번길 161-13 (상수리)","jibunAddr":"경기도 양주시 남면 상수리 204-11","openHours":"(평일)09:00~18:00","maleToilets":5,"femaleToilets":5,"disabled":true,"diaperTable":false,"emergencyBell":true,"cctv":false,"managerTel":"07078341009","source":"public","category":"public"},{"id":"202455900000101346","name":"신천생태하천E","lat":37.86321,"lng":127.045356,"roadAddr":"경기도 양주시 은현면 용암로 142-63 (용암리)","jibunAddr":"경기도 양주시 은현면 용암리 552-9","openHours":"상시","maleToilets":2,"femaleToilets":2,"disabled":true,"diaperTable":true,"emergencyBell":true,"cctv":false,"managerTel":"0318709777","source":"public","category":"public"},{"id":"202455900000101345","name":"신천생태하천D","lat":37.868904,"lng":127.021881,"roadAddr":"경기도 양주시 은현면 화합로 836-11 (운암리)","jibunAddr":"경기도 양주시 은현면 운암리 59-26","openHours":"상시","maleToilets":1,"femaleToilets":2,"disabled":true,"diaperTable":true,"emergencyBell":true,"cctv":false,"managerTel":"0318709777","source":"public","category":"public"},{"id":"202455900000101493","name":"은현면 주민자치센터","lat":37.875102,"lng":127.024405,"roadAddr":"경기도 양주시 은현면 은현로 66 (선암리)","jibunAddr":"경기도 양주시 은현면 선암리 341-2","openHours":"(평일)09:00~18:00","maleToilets":3,"femaleToilets":2,"disabled":false,"diaperTable":false,"emergencyBell":false,"cctv":false,"managerTel":"03180827544","source":"public","category":"public"},{"id":"202455900000101497","name":"은현파출소 화장실","lat":37.874183,"lng":127.023327,"roadAddr":"경기도 양주시 은현면 은현로55번길 6 (선암리)","openHours":"(평일)09:00~18:00","maleToilets":2,"femaleToilets":1,"disabled":true,"diaperTable":true,"emergencyBell":false,"cctv":false,"managerTel":"0318699323","source":"public","category":"public"},{"id":"202455900000101219","name":"도락산 공중화장실","lat":37.839869,"lng":127.02939,"roadAddr":"경기도 양주시 은현면 화합로1094번길 221 (용암리)","jibunAddr":"경기도 양주시 은현면 용암리 산60","openHours":"상시","maleToilets":2,"femaleToilets":1,"disabled":false,"diaperTable":false,"emergencyBell":true,"cctv":false,"managerTel":"0318709777","source":"public","category":"public"},{"id":"202455900000101494","name":"은현면 행정복지센터","lat":37.875102,"lng":127.024405,"roadAddr":"경기도 양주시 은현면 은현로 66 (선암리)","jibunAddr":"경기도 양주시 은현면 선암리 341-2","openHours":"(평일)08:00~18:00","maleToilets":3,"femaleToilets":2,"disabled":true,"diaperTable":false,"emergencyBell":false,"cctv":false,"managerTel":"03180827544","source":"public","category":"public"},{"id":"202455900000101488","name":"은현 체육회관 화장실","lat":37.875758,"lng":127.024594,"roadAddr":"경기도 양주시 은현면 은현로 74 (선암리)","openHours":"(평일)09:00~18:00","maleToilets":5,"femaleToilets":4,"disabled":true,"diaperTable":false,"emergencyBell":false,"cctv":false,"managerTel":"03180827543","source":"public","category":"public"},{"id":"202455900000101495","name":"은현우체국 화장실","lat":37.875354,"lng":127.022431,"roadAddr":"경기도 양주시 은현면 은현로 73-36 (선암리)","openHours":"(평일)09:00~18:00","maleToilets":1,"femaleToilets":0,"disabled":false,"diaperTable":false,"emergencyBell":false,"cctv":true,"managerTel":"0318635000","source":"public","category":"public"}]