[{"id":"202455900000101400","name":"양주실내체육관탁구장화장실","lat":37.801863,"lng":127.090719,"roadAddr":"경기도 양주시 고삼로43번길 29 (삼숭동)","openHours":"정시","maleToilets":3,"femaleToilets":0,"disabled":true,"diaperTable":false,"emergencyBell":false,"cctv":false,"managerTel":"0318289774","source":"public","category":"public"},{"id":"202455900000101465","name":"옥정중앙공원 김삿갓","lat":37.824385,"lng":127.097508,"jibunAddr":"경기도 양주시 옥정동 1039","openHours":"상시","maleToilets":3,"femaleToilets":5,"disabled":true,"diaperTable":false,"emergencyBell":true,"cctv":true,"managerTel":"0318289777","source":"public","category":"public"},{"id":"202455900000101451","name":"옥정 능호이인상공원","lat":37.82839,"lng":127.093795,"roadAddr":"경기도 양주시 옥정로8길 33 (옥정동)","openHours":"상시","maleToilets":1,"femaleToilets":2,"disabled":true,"diaperTable":false,"emergencyBell":true,"cctv":true,"managerTel":"0318289777","source":"public","category":"public"},{"id":"202455900000101399","name":"양주실내체육관배드민턴화장실","lat":37.801863,"lng":127.090719,"roadAddr":"경기도 양주시 고삼로43번길 29 (삼숭동)","openHours":"정시","maleToilets":0,"femaleToilets":2,"disabled":true,"diaperTable":false,"emergencyBell":false,"cctv":false,"managerTel":"0318289774","source":"public","category":"public"},{"id":"202455900000101472","name":"옥정호수도서관","lat":37.822769,"lng":127.095012,"roadAddr":"경기도 양주시 옥정동로7길 110 (옥정동)","openHours":"정시","maleToilets":16,"femaleToilets":15,"disabled":true,"diaperTable":false,"emergencyBell":true,"cctv":false,"managerTel":"03180827472","source":"public","category":"public"},{"id":"202455900000101422","name":"양주희망도서관 화장실","lat":37.795765,"lng":127.10726,"roadAddr":"경기도 양주시 삼숭로38번길 78-47 (삼숭동)","openHours":"정시","maleToilets":14,"femaleToilets":12,"disabled":true,"diaperTable":false,"emergencyBell":false,"cctv":false,"managerTel":"03180827464","source":"public","category":"public"},{"id":"202455900000101473","name":"옥정호수스포츠센터 화장실","lat":37.822769,"lng":127.095012,"roadAddr":"경기도 양주시 옥정동로7길 110 (옥정동)","openHours":"정시","maleToilets":19,"femaleToilets":13,"disabled":true,"diaperTable":true,"emergencyBell":true,"cctv":true,"managerTel":"0318289855","source":"public","category":"public"},{"id":"202455900000101466","name":"옥정중앙공원 아쿠아가든","lat":37.824385,"lng":127.097508,"jibunAddr":"경기도 양주시 옥정동 1039","openHours":"상시","maleToilets":3,"femaleToilets":5,"disabled":true,"diaperTable":false,"emergencyBell":true,"cctv":true,"managerTel":"0318289777","source":"public","category":"public"},{"id":"202455900000101387","name":"양주시 장애인종합복지관 화장실","lat":37.801863,"lng":127.090719,"roadAddr":"경기도 양주시 고삼로43번길 29 (삼숭동)","openHours":"정시","maleToilets":10,"femaleToilets":10,"disabled":true,"diaperTable":true,"emergencyBell":true,"cctv":true,"managerTel":"0319284096","source":"public","category":"public"},{"id":"202455900000101280","name":"삼숭생활체육공원 화장실","lat":37.802173,"lng":127.091589,"roadAddr":"경기도 양주시 삼숭로129번길 139-12 (삼숭동)","openHours":"상시","maleToilets":2,"femaleToilets":2,"disabled":false,"diaperTable":false,"emergencyBell":false,"cctv":false,"managerTel":"0318289748","source":"public","category":"public"},{"id":"202455900000101162","name":"남면119안전센터 화장실","lat":37.827443,"lng":127.094041,"roadAddr":"경기도 양주시 옥정로8길 52 (옥정동)","jibunAddr":"경기도 양주시 옥정동 954-2","openHours":"상시","maleToilets":10,"femaleToilets":1,"disabled":true,"diaperTable":true,"emergencyBell":false,"cctv":true,"managerTel":"0318498563","source":"public","category":"public"},{"id":"202256000000100734","name":"재림공원묘원","lat":37.828406,"lng":127.130723,"roadAddr":"경기도 포천시 소흘읍 송우리 635","openHours":"24시간","maleToilets":4,"femaleToilets":3,"disabled":false,"diaperTable":false,"emergencyBell":false,"cctv":false,"source":"public","category":"public"},{"id":"202256000000100703","name":"소흘체육공원","lat":37.824262,"lng":127.125518,"roadAddr":"경기도 포천시 소흘읍 태봉로63번길 91 (이동교리, 소흘체육공원)","jibunAddr":"경기도 포천시 소흘읍 이동교리 산1 (소흘체육공원)","openHours":"8시간","maleToilets":4,"femaleToilets":3,"disabled":true,"diaperTable":false,"emergencyBell":true,"cctv":false,"source":"public","category":"public"},{"id":"202256000000100699","name":"소흘국민체육센터","lat":37.82127,"lng":127.127103,"roadAddr":"경기도 포천시 소흘읍 호국로523번길 59-90","jibunAddr":"경기도 포천시 소흘읍 이동교리 194-17","openHours":"17시간","maleToilets":9,"femaleToilets":8,"disabled":true,"diaperTable":false,"emergencyBell":true,"cctv":false,"source":"public","category":"public"},{"id":"202256000000100716","name":"롯데리아 포천 D/T점","lat":37.795004,"lng":127.125754,"roadAddr":"경기도 포천시 소흘읍?이동교리 389-13","openHours":"24시간","maleToilets":4,"femaleToilets":2,"disabled":false,"diaperTable":false,"emergencyBell":false,"cctv":false,"source":"public","category":"public"}]