[{"id":"202256000000100713","name":"포천시립소흘도서관 3층","lat":37.829642,"lng":127.137561,"roadAddr":"경기도 포천시 소흘읍 송우로 101-29 (송우리, 포천시립소흘도서관)","jibunAddr":"경기도 포천시 소흘읍 송우리 728-7 (포천시립소흘도서관)","openHours":"17시간","maleToilets":4,"femaleToilets":4,"disabled":true,"diaperTable":false,"emergencyBell":false,"cctv":true,"source":"public","category":"public"},{"id":"202256000000100732","name":"욕쟁이 할머니","lat":37.796249,"lng":127.166175,"roadAddr":"경기도 포천시 소흘읍 고모리 231-2","openHours":"24시간","maleToilets":6,"femaleToilets":3,"disabled":false,"diaperTable":false,"emergencyBell":false,"cctv":false,"source":"public","category":"public"},{"id":"202256000000100708","name":"태봉공원화장실","lat":37.832369,"lng":127.144201,"roadAddr":"경기도 포천시 소흘읍 송우리 산 18-1","jibunAddr":"경기도 포천시 소흘읍 송우리 산18-1","openHours":"24시간","maleToilets":2,"femaleToilets":2,"disabled":true,"diaperTable":true,"emergencyBell":true,"cctv":false,"source":"public","category":"public"},{"id":"202256000000100704","name":"아리솔청소년광장","lat":37.832346,"lng":127.148596,"roadAddr":"경기도 포천시 소흘읍 태봉로 244","jibunAddr":"경기도 포천시 소흘읍 송우리 726-2","openHours":"24시간","maleToilets":3,"femaleToilets":2,"disabled":false,"diaperTable":false,"emergencyBell":true,"cctv":false,"source":"public","category":"public"},{"id":"202256000000100711","name":"포천시립소흘도서관 1층","lat":37.829642,"lng":127.137561,"roadAddr":"경기도 포천시 소흘읍 송우로 101-29 (송우리, 포천시립소흘도서관)","jibunAddr":"경기도 포천시 소흘읍 송우리 728-7 (포천시립소흘도서관)","openHours":"17시간","maleToilets":4,"femaleToilets":4,"disabled":true,"diaperTable":true,"emergencyBell":false,"cctv":true,"source":"public","category":"public"},{"id":"202256000000100717","name":"송우시장","lat":37.826852,"lng":127.145788,"roadAddr":"경기도 포천시 소흘읍 송우리 142-4","openHours":"24시간","maleToilets":2,"femaleToilets":2,"disabled":false,"diaperTable":false,"emergencyBell":false,"cctv":false,"source":"public","category":"public"},{"id":"202256000000100712","name":"포천시립소흘도서관 2층","lat":37.829642,"lng":127.137561,"roadAddr":"경기도 포천시 소흘읍 송우로 101-29 (송우리, 포천시립소흘도서관)","jibunAddr":"경기도 포천시 소흘읍 송우리 728-7 (포천시립소흘도서관)","openHours":"17시간","maleToilets":4,"femaleToilets":4,"disabled":true,"diaperTable":true,"emergencyBell":false,"cctv":true,"source":"public","category":"public"},{"id":"202256000000100690","name":"고모저수지","lat":37.794077,"lng":127.165042,"roadAddr":"경기도 포천시 소흘읍 죽엽산로 454","jibunAddr":"경기도 포천시 소흘읍 고모리 669-5","openHours":"24시간","maleToilets":5,"femaleToilets":5,"disabled":true,"diaperTable":true,"emergencyBell":true,"cctv":false,"source":"public","category":"public"}]