[{"id":"202539200000100254","name":"하이웨이주유소","lat":37.878459,"lng":127.053316,"roadAddr":"경기도 동두천시 강변로 74","jibunAddr":"경기도 동두천시 송내동 513","openHours":"07:00~21:00","maleToilets":2,"femaleToilets":1,"disabled":false,"diaperTable":false,"emergencyBell":false,"cctv":false,"managerTel":"0318610951","source":"public","category":"public"},{"id":"202539200000100247","name":"장미주유소","lat":37.879543,"lng":127.055957,"roadAddr":"경기도 동두천시 평화로 2149","jibunAddr":"경기도 동두천시 송내동 494-10","openHours":"07:00~23:00","maleToilets":2,"femaleToilets":1,"disabled":false,"diaperTable":false,"emergencyBell":false,"cctv":false,"managerTel":"0318627622","source":"public","category":"public"},{"id":"202539200000100232","name":"동두천LPG충전소","lat":37.87561,"lng":127.05604,"roadAddr":"경기도 동두천시 강변로 36","jibunAddr":"경기도 동두천시 송내동 473-4","openHours":"07:00~21:00","maleToilets":2,"femaleToilets":1,"disabled":false,"diaperTable":false,"emergencyBell":false,"cctv":false,"managerTel":"0318614114","source":"public","category":"public"},{"id":"202455900000101375","name":"양주덕정동우체국 화장실","lat":37.844189,"lng":127.063975,"roadAddr":"경기도 양주시 덕정길 29 (덕정동)","openHours":"(평일)09:00~18:00","maleToilets":2,"femaleToilets":1,"disabled":false,"diaperTable":false,"emergencyBell":false,"cctv":false,"managerTel":"0318580001","source":"public","category":"public"},{"id":"202455900000101210","name":"덕정역","lat":37.844321,"lng":127.061871,"roadAddr":"경기도 양주시 화합로 1356 (덕정동)","openHours":"(평일)05:00~24:00","maleToilets":12,"femaleToilets":19,"disabled":true,"diaperTable":false,"emergencyBell":true,"cctv":true,"managerTel":"15447788","source":"public","category":"public"},{"id":"202455900000101599","name":"회천지구대 화장실","lat":37.837699,"lng":127.068041,"roadAddr":"경기도 양주시 회정로 133 (덕정동)","openHours":"(평일)09:00~18:00","maleToilets":2,"femaleToilets":2,"disabled":true,"diaperTable":true,"emergencyBell":true,"cctv":false,"managerTel":"0318699323","source":"public","category":"public"},{"id":"202455900000101535","name":"청담공원(덕정) 공중화장실","lat":37.84624,"lng":127.057731,"roadAddr":"경기도 양주시 화합로 1290(덕정동)","jibunAddr":"경기도 양주시 덕정동 384-8","openHours":"상시","maleToilets":2,"femaleToilets":1,"disabled":true,"diaperTable":false,"emergencyBell":true,"cctv":false,"managerTel":"0318709777","source":"public","category":"public"},{"id":"202455900000101206","name":"덕정도서관 화장실","lat":37.84288,"lng":127.063191,"roadAddr":"경기도 양주시 화합로1371번길 11 (덕정동)","openHours":"(평일)09:00~22:00","maleToilets":10,"femaleToilets":10,"disabled":true,"diaperTable":true,"emergencyBell":true,"cctv":true,"managerTel":"03180827423","source":"public","category":"public"},{"id":"202455900000101414","name":"양주체육복지센터 다목적체육관 화장실","lat":37.838142,"lng":127.068036,"roadAddr":"경기도 양주시 화합로1426번길 90 (덕정동)","openHours":"(평일)09:00~18:00","maleToilets":4,"femaleToilets":5,"disabled":true,"diaperTable":false,"emergencyBell":true,"cctv":false,"managerTel":"0318289813","source":"public","category":"public"},{"id":"202455900000101591","name":"회천1동 행정복지센터","lat":37.84706,"lng":127.064653,"roadAddr":"경기도 양주시 화합로1327번길 39 (덕정동)","openHours":"(평일)09:00~18:00","maleToilets":4,"femaleToilets":3,"disabled":true,"diaperTable":true,"emergencyBell":false,"cctv":false,"managerTel":"03180827788","source":"public","category":"public"},{"id":"202455900000101536","name":"청담공원(봉양) 공중화장실","lat":37.865244,"lng":127.059843,"roadAddr":"경기도 양주시 청담천자전거길 442 (봉양동)","jibunAddr":"경기도 양주시 봉양동 849-1","openHours":"상시","maleToilets":3,"femaleToilets":2,"disabled":true,"diaperTable":true,"emergencyBell":true,"cctv":false,"managerTel":"0318709777","source":"public","category":"public"},{"id":"202455900000101392","name":"양주시보훈회관 화장실","lat":37.845351,"lng":127.062319,"roadAddr":"경기도 양주시 화합로 1341 (덕정동)","openHours":"(평일)09:00~18:00","maleToilets":12,"femaleToilets":4,"disabled":true,"diaperTable":false,"emergencyBell":false,"cctv":true,"managerTel":"03180825705","source":"public","category":"public"},{"id":"202455900000101209","name":"덕정시장 공중화장실","lat":37.843575,"lng":127.063392,"roadAddr":"경기도 양주시 덕정4길 12 (덕정동)","jibunAddr":"경기도 양주시 덕정4길 12","openHours":"상시","maleToilets":6,"femaleToilets":4,"disabled":false,"diaperTable":false,"emergencyBell":true,"cctv":false,"managerTel":"0318709777","source":"public","category":"public"},{"id":"202455900000101207","name":"덕정돔구장 장애인전용 화장실","lat":37.840183,"lng":127.072558,"roadAddr":"경기도 양주시 화합로 1457-188 (고암동)","openHours":"(평일)10:00~18:00","maleToilets":0,"femaleToilets":0,"disabled":false,"diaperTable":false,"emergencyBell":false,"cctv":false,"managerTel":"0318289868","source":"public","category":"public"},{"id":"202455900000101415","name":"양주체육복지센터 로비 화장실","lat":37.838142,"lng":127.068036,"roadAddr":"경기도 양주시 화합로1426번길 90 (덕정동)","openHours":"(평일)09:00~18:00","maleToilets":4,"femaleToilets":5,"disabled":true,"diaperTable":false,"emergencyBell":true,"cctv":true,"managerTel":"0318289813","source":"public","category":"public"},{"id":"202455900000101593","name":"회천3동행정복지센터","lat":37.837828,"lng":127.068925,"roadAddr":"경기도 양주시 회정로 143 (덕정동)","openHours":"(평일)09:00~18:00","maleToilets":3,"femaleToilets":3,"disabled":true,"diaperTable":true,"emergencyBell":true,"cctv":true,"managerTel":"03180827824","source":"public","category":"public"},{"id":"202455900000101208","name":"덕정돔구장 화장실","lat":37.840183,"lng":127.072558,"roadAddr":"경기도 양주시 화합로 1457-188 (고암동)","openHours":"(평일)10:00~18:00","maleToilets":3,"femaleToilets":3,"disabled":false,"diaperTable":false,"emergencyBell":false,"cctv":false,"managerTel":"0318289868","source":"public","category":"public"},{"id":"202455900000101211","name":"덕정제3어린이공원 공중화장실","lat":37.84263,"lng":127.069609,"jibunAddr":"경기도 양주시 덕정동 536-1","openHours":"상시","maleToilets":5,"femaleToilets":5,"disabled":true,"diaperTable":false,"emergencyBell":true,"cctv":true,"managerTel":"0318289777","source":"public","category":"public"},{"id":"202455900000101594","name":"회천노인복지관 화장실","lat":37.838142,"lng":127.068036,"roadAddr":"경기도 양주시 화합로1426번길 90, 4층 (덕정동)","openHours":"(평일)09:00~18:00","maleToilets":4,"femaleToilets":5,"disabled":true,"diaperTable":true,"emergencyBell":true,"cctv":true,"managerTel":"0318599081","source":"public","category":"public"},{"id":"202455900000101590","name":"회천1동 주민자치센터","lat":37.845034,"lng":127.066254,"roadAddr":"경기도 양주시 덕정9길 27 (덕정동)","openHours":"(평일)09:00~17:00","maleToilets":2,"femaleToilets":1,"disabled":false,"diaperTable":false,"emergencyBell":false,"cctv":false,"managerTel":"03180827788","source":"public","category":"public"},{"id":"202455900000101363","name":"양주경찰서 화장실","lat":37.840811,"lng":127.054896,"roadAddr":"경기도 양주시 평화로 1699 (회정동)","openHours":"(평일)09:00~18:00","maleToilets":15,"femaleToilets":7,"disabled":true,"diaperTable":true,"emergencyBell":true,"cctv":false,"managerTel":"0318699323","source":"public","category":"public"},{"id":"202455900000101126","name":"고읍119안전센터 화장실","lat":37.846168,"lng":127.055589,"roadAddr":"경기도 양주시 화합로 1272 (회정동)","jibunAddr":"경기도 양주시 회정동 529","openHours":"상시","maleToilets":3,"femaleToilets":1,"disabled":true,"diaperTable":true,"emergencyBell":true,"cctv":false,"managerTel":"0318498517","source":"public","category":"public"}]