[{"id":"202539200000100348","name":"소요생활체육공원(테니스장)","lat":37.945036,"lng":127.056682,"roadAddr":"경기도 동두천시 봉동로 27","jibunAddr":"경기도 동두천시 상봉암동 173","openHours":"00:00-24:00","maleToilets":3,"femaleToilets":3,"disabled":false,"diaperTable":false,"emergencyBell":true,"cctv":false,"managerTel":"0318603195","source":"public","category":"public"},{"id":"202539200000100240","name":"정인주유소","lat":37.965269,"lng":127.066196,"roadAddr":"경기도 동두천시 평화로 3125","jibunAddr":"경기도 동두천시 하봉암동 69-7","openHours":"07:00~23:00","maleToilets":3,"femaleToilets":1,"disabled":false,"diaperTable":false,"emergencyBell":false,"cctv":false,"managerTel":"0318675155","source":"public","category":"public"},{"id":"202539200000100241","name":"스마트주유소","lat":37.944102,"lng":127.05999,"roadAddr":"경기도 동두천시 평화로 2882","jibunAddr":"경기도 동두천시 상봉암동 153-4","openHours":"07:00~23:00","maleToilets":1,"femaleToilets":1,"disabled":false,"diaperTable":false,"emergencyBell":false,"cctv":false,"managerTel":"0318670704","source":"public","category":"public"},{"id":"202539200000100411","name":"소요동 행정복지센터 화장실(2F)","lat":37.929526,"lng":127.057648,"roadAddr":"경기도 동두천시 평화로 2706","jibunAddr":"경기도 동두천동 262","openHours":"09:00~18:00","maleToilets":4,"femaleToilets":2,"disabled":true,"diaperTable":false,"emergencyBell":true,"cctv":true,"managerTel":"0318603154","source":"public","category":"public"},{"id":"202539200000100356","name":"소요산 화장실(다목적광장)","lat":37.945939,"lng":127.069328,"roadAddr":"경기도 동두천시 평화로2910번길 140","jibunAddr":"경기도 동두천시 상봉암동 산 1-1","openHours":"00:00-24:00","maleToilets":7,"femaleToilets":5,"disabled":true,"diaperTable":false,"emergencyBell":true,"cctv":false,"managerTel":"0318602049","source":"public","category":"public"},{"id":"202539200000100349","name":"소요생활체육공원(축구장)","lat":37.945036,"lng":127.056682,"roadAddr":"경기도 동두천시 봉동로 27","jibunAddr":"경기도 동두천시 상봉암동 173","openHours":"00:00-24:00","maleToilets":5,"femaleToilets":5,"disabled":true,"diaperTable":false,"emergencyBell":true,"cctv":false,"managerTel":"0318603195","source":"public","category":"public"},{"id":"202539200000100354","name":"소요산 화장실(자재암)","lat":37.945939,"lng":127.069328,"roadAddr":"경기도 동두천시 평화로2910번길 140","jibunAddr":"경기도 동두천시 상봉암동 산 1-1","openHours":"00:00-24:00","maleToilets":5,"femaleToilets":3,"disabled":false,"diaperTable":false,"emergencyBell":false,"cctv":false,"managerTel":"0318602049","source":"public","category":"public"},{"id":"202539200000100243","name":"씨엘무역동두천지점 주식회사","lat":37.964848,"lng":127.066802,"roadAddr":"경기도 동두천시 평화로 3122","jibunAddr":"경기도 동두천시 하봉암동 70-5","openHours":"07:00~23:00","maleToilets":2,"femaleToilets":2,"disabled":false,"diaperTable":false,"emergencyBell":false,"cctv":false,"managerTel":"0318638651","source":"public","category":"public"},{"id":"202539200000100381","name":"자유수호평화박물관 화장실(1F)","lat":37.942508,"lng":127.066025,"roadAddr":"경기도 동두천시 평화로2910번길 96-63","jibunAddr":"경기도 동두천시 상봉암동 162-10","openHours":"9:00~18:00","maleToilets":4,"femaleToilets":2,"disabled":true,"diaperTable":false,"emergencyBell":false,"cctv":true,"managerTel":"0318603332","source":"public","category":"public"},{"id":"202539200000100379","name":"소요산 화장실(주자장 입구)","lat":37.946402,"lng":127.065131,"roadAddr":"경기도 동두천시 평화로2910번길 65","jibunAddr":"경기도 동두천시 상봉암동 8-5","openHours":"00:00-24:00","maleToilets":7,"femaleToilets":4,"disabled":true,"diaperTable":false,"emergencyBell":true,"cctv":false,"managerTel":"0318602049","source":"public","category":"public"},{"id":"202539200000100350","name":"소요산축산물브랜드육타운 화장실 2F","lat":37.945789,"lng":127.064369,"roadAddr":"경기도 동두천시 평화로2910번길 30","jibunAddr":"경기도 동두천시 상봉암동 10","openHours":"09:00~18:00","maleToilets":8,"femaleToilets":6,"disabled":true,"diaperTable":false,"emergencyBell":false,"cctv":false,"managerTel":"0318602314","source":"public","category":"public"},{"id":"202539200000100412","name":"소요동 행정복지센터 화장실(1F)","lat":37.929526,"lng":127.057648,"roadAddr":"경기도 동두천시 평화로 2706","jibunAddr":"경기도 동두천동 262","openHours":"09:00~18:00","maleToilets":4,"femaleToilets":2,"disabled":true,"diaperTable":true,"emergencyBell":true,"cctv":true,"managerTel":"0318603154","source":"public","category":"public"},{"id":"202539200000100245","name":"착한주유소","lat":37.939488,"lng":127.055787,"roadAddr":"경기도 동두천시 평화로 2817","jibunAddr":"경기도 동두천시 동두천동 385-3","openHours":"07:00~23:00","maleToilets":3,"femaleToilets":1,"disabled":false,"diaperTable":false,"emergencyBell":false,"cctv":false,"managerTel":"0318585145","source":"public","category":"public"},{"id":"202539200000100352","name":"소요산어린이공원 화장실","lat":37.944575,"lng":127.064321,"roadAddr":"경기도 동두천시 평화로2910번길 46","jibunAddr":"경기도 동두천시 상봉암동 162","openHours":"00:00-24:00","maleToilets":4,"femaleToilets":4,"disabled":false,"diaperTable":false,"emergencyBell":false,"cctv":false,"managerTel":"0318602049","source":"public","category":"public"},{"id":"202539200000100397","name":"자유수호평화박물관 화장실(3F)","lat":37.942508,"lng":127.066025,"roadAddr":"경기도 동두천시 평화로2910번길 96-63","jibunAddr":"경기도 동두천시 상봉암동 162-10","openHours":"9:00~18:00","maleToilets":4,"femaleToilets":2,"disabled":true,"diaperTable":false,"emergencyBell":false,"cctv":false,"managerTel":"0318603332","source":"public","category":"public"},{"id":"202539200000100351","name":"소요산축산물브랜드육타운 화장실 1F","lat":37.945789,"lng":127.064369,"roadAddr":"경기도 동두천시 평화로2910번길 30","jibunAddr":"경기도 동두천시 상봉암동 10","openHours":"09:00~18:00","maleToilets":8,"femaleToilets":6,"disabled":true,"diaperTable":false,"emergencyBell":false,"cctv":false,"managerTel":"0318602314","source":"public","category":"public"},{"id":"202539200000100249","name":"행복가득주유소","lat":37.959955,"lng":127.062767,"roadAddr":"경기도 동두천시 평화로 3059","jibunAddr":"경기도 동두천시 하봉암동 312-1","openHours":"07:00~23:00","maleToilets":3,"femaleToilets":0,"disabled":false,"diaperTable":false,"emergencyBell":false,"cctv":false,"managerTel":"0318585151","source":"public","category":"public"},{"id":"202539200000100270","name":"소요119안전센터 화장실","lat":37.946402,"lng":127.065131,"roadAddr":"경기도 동두천시 평화로2910번길 65","jibunAddr":"경기도 동두천시 상봉암동 13-6","openHours":"00:00-24:00","maleToilets":2,"femaleToilets":0,"disabled":false,"diaperTable":false,"emergencyBell":false,"cctv":false,"managerTel":"0318605224","source":"public","category":"public"},{"id":"202539200000100238","name":"엄지self주유소","lat":37.926355,"lng":127.050599,"roadAddr":"경기도 동두천시  강변로 670","jibunAddr":"경기도 동두천시 동두천동 521-108","openHours":"07:00~23:00","maleToilets":2,"femaleToilets":2,"disabled":false,"diaperTable":false,"emergencyBell":false,"cctv":false,"managerTel":"0318660779","source":"public","category":"public"},{"id":"202539200000100357","name":"소요산 화장실(관리사무소)","lat":37.945939,"lng":127.069328,"roadAddr":"경기도 동두천시 평화로2910번길 140","jibunAddr":"경기도 동두천시 상봉암동 산 1-1","openHours":"00:00-24:00","maleToilets":8,"femaleToilets":6,"disabled":true,"diaperTable":false,"emergencyBell":true,"cctv":false,"managerTel":"0318602049","source":"public","category":"public"},{"id":"202539200000100234","name":"창림에너지(주)","lat":37.94413,"lng":127.060848,"roadAddr":"경기도 동두천시 평화로 2884-2","jibunAddr":"경기도 동두천시 상봉암동 154-1","openHours":"07:00~23:00","maleToilets":2,"femaleToilets":1,"disabled":false,"diaperTable":false,"emergencyBell":false,"cctv":false,"managerTel":"0318668111","source":"public","category":"public"},{"id":"202539200000100269","name":"소요파출소 화장실","lat":37.928637,"lng":127.056435,"roadAddr":"경기도 동두천시 평화로 2695","jibunAddr":"경기도 동두천시 동두천동 252-3","openHours":"00:00-24:00","maleToilets":3,"femaleToilets":2,"disabled":true,"diaperTable":false,"emergencyBell":false,"cctv":false,"managerTel":"0318652742","source":"public","category":"public"},{"id":"202539200000100242","name":"대경석유(주) 동성셀프주유소","lat":37.941526,"lng":127.055364,"roadAddr":"경기도 동두천시 강변로 858","jibunAddr":"경기도 동두천시 동두천동 403","openHours":"07:00~21:00","maleToilets":4,"femaleToilets":2,"disabled":false,"diaperTable":false,"emergencyBell":false,"cctv":false,"managerTel":"0318685166","source":"public","category":"public"},{"id":"202539200000100421","name":"자유수호평화박물관","lat":37.942508,"lng":127.066025,"roadAddr":"경기도 동두천시 평화로 2910번길 96-63","jibunAddr":"경기도 동두천시 상봉암동 162-10","openHours":"00:00-24:00","maleToilets":4,"femaleToilets":2,"disabled":true,"diaperTable":false,"emergencyBell":false,"cctv":false,"managerTel":"0318603332","source":"public","category":"public"},{"id":"202539200000100280","name":"동두천역 화장실","lat":37.927837,"lng":127.05494,"roadAddr":"경기도 동두천시 평화로 2687","jibunAddr":"경기도 동두천시 동두천동 245-31","openHours":"04:40~00:30","maleToilets":14,"femaleToilets":13,"disabled":true,"diaperTable":true,"emergencyBell":true,"cctv":true,"managerTel":"15447788","source":"public","category":"public"},{"id":"202539200000100281","name":"소요산역 화장실","lat":37.947954,"lng":127.061213,"roadAddr":"경기도 동두천시 평화로 2925","jibunAddr":"경기도 동두천시 상봉암동 126-3","openHours":"04:40~00:30","maleToilets":12,"femaleToilets":12,"disabled":true,"diaperTable":true,"emergencyBell":true,"cctv":true,"managerTel":"15447788","source":"public","category":"public"},{"id":"202539200000100353","name":"소요산 화장실(중앙)","lat":37.945939,"lng":127.069328,"roadAddr":"경기도 동두천시 평화로2910번길 140","jibunAddr":"경기도 동두천시 상봉암동 산 1-1","openHours":"00:00-24:00","maleToilets":10,"femaleToilets":8,"disabled":false,"diaperTable":false,"emergencyBell":true,"cctv":false,"managerTel":"0318602049","source":"public","category":"public"},{"id":"202539200000100355","name":"소요산 화장실(일주문)","lat":37.945939,"lng":127.069328,"roadAddr":"경기도 동두천시 평화로2910번길 140","jibunAddr":"경기도 동두천시 상봉암동 산 1-1","openHours":"00:00-24:00","maleToilets":7,"femaleToilets":4,"disabled":true,"diaperTable":false,"emergencyBell":true,"cctv":false,"managerTel":"0318602049","source":"public","category":"public"},{"id":"202539200000100405","name":"원터근린공원 화장실","lat":37.928307,"lng":127.052439,"roadAddr":"경기도 동두천시 강변로690번길 42","jibunAddr":"경기도 동두천시 동두천동 230-1","openHours":"00:00-24:00","maleToilets":5,"femaleToilets":4,"disabled":false,"diaperTable":true,"emergencyBell":true,"cctv":true,"managerTel":"0318602417","source":"public","category":"public"},{"id":"202539200000100410","name":"소요동 행정복지센터 화장실(3F)","lat":37.929526,"lng":127.057648,"roadAddr":"경기도 동두천시 평화로 2706","jibunAddr":"경기도 동두천동 262","openHours":"09:00~18:00","maleToilets":4,"femaleToilets":2,"disabled":true,"diaperTable":false,"emergencyBell":true,"cctv":true,"managerTel":"0318603154","source":"public","category":"public"},{"id":"202539200000100380","name":"자유수호평화박물관 화장실(2F)","lat":37.942508,"lng":127.066025,"roadAddr":"경기도 동두천시 평화로2910번길 96-63","jibunAddr":"경기도 동두천시 상봉암동 162-10","openHours":"9:00~18:00","maleToilets":4,"femaleToilets":2,"disabled":true,"diaperTable":false,"emergencyBell":false,"cctv":false,"managerTel":"0318603332","source":"public","category":"public"}]