[{"id":"202457000000100591","name":"백두한라주유소·충전소화장실","lat":37.366884,"lng":127.60321,"roadAddr":"경기도 여주시 대신면 여양로 1233","jibunAddr":"경기도 여주시 대신면 초현리 437","openHours":"정시","maleToilets":2,"femaleToilets":1,"disabled":false,"diaperTable":false,"emergencyBell":false,"cctv":false,"managerTel":"0318828822","source":"public","category":"public"},{"id":"202457000000100602","name":"대신면문화복지센터화장실","lat":37.371507,"lng":127.585158,"roadAddr":"경기도 여주시 대신면 율촌1길 12-9","jibunAddr":"경기도 여주시 대신면 율촌리 306-6","openHours":"정시","maleToilets":20,"femaleToilets":21,"disabled":true,"diaperTable":true,"emergencyBell":false,"cctv":true,"managerTel":"0318873933","source":"public","category":"public"},{"id":"202457000000100594","name":"대신클린주유소·충전소","lat":37.374351,"lng":127.578264,"roadAddr":"경기도 여주시 대신면 여양로 1537","jibunAddr":"경기도 여주시 대신면 보통리 127","openHours":"정시","maleToilets":3,"femaleToilets":2,"disabled":false,"diaperTable":false,"emergencyBell":false,"cctv":false,"managerTel":"0318843948","source":"public","category":"public"},{"id":"202457000000100593","name":"대신체육공원화장실","lat":37.373396,"lng":127.580859,"roadAddr":"경기도 여주시 대신면 여양로 1500, 대신면체육공원","jibunAddr":"경기도 여주시 대신면 율촌리 산 40","openHours":"정시","maleToilets":4,"femaleToilets":8,"disabled":true,"diaperTable":false,"emergencyBell":false,"cctv":false,"managerTel":"0318873940","source":"public","category":"public"},{"id":"202457000000100592","name":"대신면사무소화장실 1층, 2층","lat":37.375071,"lng":127.586544,"roadAddr":"경기도 여주시 대신면 여양로 1456-10, 대신면사무소","jibunAddr":"경기도 여주시 대신면 율촌리 390","openHours":"정시","maleToilets":6,"femaleToilets":3,"disabled":true,"diaperTable":false,"emergencyBell":false,"cctv":false,"managerTel":"0318873932","source":"public","category":"public"},{"id":"202457000000100517","name":"대신면공중화장실","lat":37.374619,"lng":127.585859,"roadAddr":"경기도 여주시 대신면 여양로 1456-3","jibunAddr":"경기도 여주시 율촌리 380-4","openHours":"정시","maleToilets":3,"femaleToilets":3,"disabled":false,"diaperTable":false,"emergencyBell":false,"cctv":false,"managerTel":"0318873933","source":"public","category":"public"},{"id":"202457000000100587","name":"초현주유소·충전소화장실","lat":37.388907,"lng":127.604686,"roadAddr":"경기도 여주시 대신면 대신1로 186","jibunAddr":"경기도 여주시 대신면 무촌리 229-2","openHours":"정시","maleToilets":2,"femaleToilets":1,"disabled":false,"diaperTable":false,"emergencyBell":false,"cctv":false,"managerTel":"0318838017","source":"public","category":"public"}]