[{"id":"202540700000100085","name":"모전주유소","lat":37.308838,"lng":127.464421,"roadAddr":"경기도 이천시 백사면 이여로 121, 모전주유소","jibunAddr":"경기도 이천시 백사면 모전리 966번지 10호 모전주유소","openHours":"상시","maleToilets":3,"femaleToilets":2,"disabled":false,"diaperTable":false,"emergencyBell":false,"cctv":false,"managerTel":"0316385151","source":"public","category":"public"},{"id":"202540700000100033","name":"이마트 이천점 고객 화장실","lat":37.293983,"lng":127.459121,"roadAddr":"경기도 이천시 이섭대천로 1440-50 (증포동)","jibunAddr":"경기도 이천시 증포동 47번지 4호","openHours":"정시","maleToilets":11,"femaleToilets":10,"disabled":true,"diaperTable":true,"emergencyBell":false,"cctv":false,"managerTel":"0316448119","source":"public","category":"public"},{"id":"202540700000100050","name":"약수터 주유소","lat":37.2943,"lng":127.442383,"roadAddr":"경기도 이천시 증신로 255, 약수터주유소 (송정동)","jibunAddr":"경기도 이천시 송정동 106번지 7호 약수터주유소","openHours":"상시","maleToilets":2,"femaleToilets":1,"disabled":false,"diaperTable":false,"emergencyBell":false,"cctv":false,"source":"public","category":"public"},{"id":"202540700000100161","name":"온천공원","lat":37.282197,"lng":127.452362,"roadAddr":"경기도 이천시 애련정로136번길 84, 평생학습북카페 (창전동)","jibunAddr":"경기도 이천시 창전동 503 평생학습북카페","openHours":"정시","maleToilets":4,"femaleToilets":2,"disabled":false,"diaperTable":true,"emergencyBell":true,"cctv":false,"managerTel":"0316453843","source":"public","category":"public"},{"id":"202540700000100160","name":"온천공원 운동장 화장실","lat":37.282197,"lng":127.452362,"roadAddr":"경기도 이천시 애련정로136번길 84, 평생학습북카페 (창전동)","jibunAddr":"경기도 이천시 창전동 503 평생학습북카페","openHours":"정시","maleToilets":5,"femaleToilets":7,"disabled":true,"diaperTable":true,"emergencyBell":true,"cctv":false,"managerTel":"0316453843","source":"public","category":"public"},{"id":"202540700000100152","name":"증포동 행정복지센터","lat":37.290384,"lng":127.452482,"roadAddr":"경기도 이천시 증신로156번길 15, 증포동주민센터 (증포동)","jibunAddr":"경기도 이천시 증포동 182-5 증포동주민센터","openHours":"정시","maleToilets":13,"femaleToilets":12,"disabled":true,"diaperTable":false,"emergencyBell":true,"cctv":false,"managerTel":"0316448745","source":"public","category":"public"},{"id":"202540700000100189","name":"서희역사관","lat":37.276205,"lng":127.481539,"roadAddr":"경기도 이천시 부발읍 무촌로18번길 130","jibunAddr":"경기도 이천시 부발읍 마암리 산 24","openHours":"정시","maleToilets":4,"femaleToilets":3,"disabled":true,"diaperTable":false,"emergencyBell":true,"cctv":false,"managerTel":"0316339743","source":"public","category":"public"},{"id":"202540700000100155","name":"증포3지구 제1공원","lat":37.29023,"lng":127.446395,"roadAddr":"경기도 이천시 아리역로38번길 33 (증포동, 한양수자인아파트 3블록)","jibunAddr":"경기도 이천시 증포동 489 증포3지구 제1공원","openHours":"정시","maleToilets":3,"femaleToilets":3,"disabled":false,"diaperTable":false,"emergencyBell":true,"cctv":false,"managerTel":"0316453843","source":"public","category":"public"},{"id":"202540700000100236","name":"서희청소년문화센터 화장실","lat":37.280446,"lng":127.451765,"roadAddr":"경기도 이천시 영창로 260","jibunAddr":"경기도 이천시 창전동 504","openHours":"정시","maleToilets":25,"femaleToilets":18,"disabled":true,"diaperTable":false,"emergencyBell":true,"cctv":false,"managerTel":"03180113030","source":"public","category":"public"},{"id":"202540700000100213","name":"증포송정작은도서관 화장실","lat":37.288333,"lng":127.446297,"roadAddr":"경기도 이천시 아리역로 34 (증포동)","jibunAddr":"경기도 이천시 증포동 352-5","openHours":"정시","maleToilets":0,"femaleToilets":0,"disabled":true,"diaperTable":false,"emergencyBell":false,"cctv":true,"managerTel":"0316311479","source":"public","category":"public"},{"id":"202540700000100177","name":"남천공원","lat":37.277981,"lng":127.444535,"roadAddr":"경기도 이천시 어재연로10번길 25","jibunAddr":"경기도 이천시 중리동 210 남천공원","openHours":"정시","maleToilets":3,"femaleToilets":5,"disabled":true,"diaperTable":true,"emergencyBell":true,"cctv":false,"managerTel":"0316453843","source":"public","category":"public"},{"id":"202540700000100172","name":"복하천 수변공원 화장실","lat":37.268121,"lng":127.460528,"roadAddr":"경기도 이천시 경충대로2422번길 17 (진리동)","jibunAddr":"경기도 이천시 진리동 140","openHours":"정시","maleToilets":3,"femaleToilets":3,"disabled":false,"diaperTable":true,"emergencyBell":true,"cctv":false,"managerTel":"0316453843","source":"public","category":"public"},{"id":"202540700000100119","name":"금강 메티컬 의원","lat":37.283948,"lng":127.447385,"roadAddr":"경기도 이천시 이섭대천로 1272, 금강의원 (창전동)","jibunAddr":"경기도 이천시 창전동 449번지 8호 금강의원","openHours":"정시","maleToilets":4,"femaleToilets":2,"disabled":false,"diaperTable":false,"emergencyBell":false,"cctv":false,"managerTel":"0316343600","source":"public","category":"public"},{"id":"202540700000100144","name":"(주)건양에너지 설봉주유소","lat":37.273811,"lng":127.451626,"roadAddr":"경기도 이천시 경충대로 2531, 설봉주유소 (진리동)","jibunAddr":"경기도 이천시 진리동 10번지 1호 설봉주유소","openHours":"정시","maleToilets":3,"femaleToilets":1,"disabled":false,"diaperTable":false,"emergencyBell":false,"cctv":false,"managerTel":"0316345180","source":"public","category":"public"},{"id":"202540700000100180","name":"이천시노동자종합복지관 화장실","lat":37.278401,"lng":127.477969,"roadAddr":"경기도 이천시 부발읍 무촌로18번길 60-26","jibunAddr":"경기도 이천시 부발읍 마암리 104-6","openHours":"정시","maleToilets":32,"femaleToilets":12,"disabled":true,"diaperTable":false,"emergencyBell":false,"cctv":true,"managerTel":"0316442282","source":"public","category":"public"},{"id":"202540700000100082","name":"바른병원","lat":37.27376,"lng":127.450359,"roadAddr":"경기도 이천시 경충대로 2543, 바른병원 (진리동)","jibunAddr":"경기도 이천시 진리동 9번지 11호 바른병원","openHours":"상시","maleToilets":2,"femaleToilets":2,"disabled":true,"diaperTable":false,"emergencyBell":false,"cctv":false,"managerTel":"0316300310","source":"public","category":"public"},{"id":"202540700000100138","name":"(주)로얄 주유소","lat":37.27713,"lng":127.458396,"roadAddr":"경기도 이천시 애련정로 13, GS로얄주유소 (안흥동)","jibunAddr":"경기도 이천시 안흥동 170번지 1호 GS로얄주유소","openHours":"상시","maleToilets":4,"femaleToilets":2,"disabled":false,"diaperTable":false,"emergencyBell":false,"cctv":false,"source":"public","category":"public"},{"id":"202540700000100029","name":"이천 신협 주유소","lat":37.274983,"lng":127.45026,"roadAddr":"경기도 이천시 중리천로 141, 이천신협주유소 (중리동)","jibunAddr":"경기도 이천시 중리동 468번지 20호 이천신협주유소","openHours":"상시","maleToilets":2,"femaleToilets":1,"disabled":false,"diaperTable":false,"emergencyBell":false,"cctv":false,"source":"public","category":"public"},{"id":"202540700000100170","name":"서희테마공원","lat":37.276205,"lng":127.481539,"roadAddr":"경기도 이천시 부발읍 무촌로18번길 130","jibunAddr":"경기도 이천시 부발읍 마암리 산 24","openHours":"정시","maleToilets":4,"femaleToilets":3,"disabled":false,"diaperTable":true,"emergencyBell":true,"cctv":false,"managerTel":"0316453843","source":"public","category":"public"},{"id":"202540700000100100","name":"롯데마트 이천점","lat":37.274285,"lng":127.454478,"roadAddr":"경기도 이천시 구만리로 191 (안흥동, 롯데캐슬 골드스카이)","jibunAddr":"경기도 이천시 안흥동 474번지 롯데캐슬 골드스카이","openHours":"정시","maleToilets":19,"femaleToilets":15,"disabled":true,"diaperTable":false,"emergencyBell":false,"cctv":false,"source":"public","category":"public"},{"id":"202540700000100084","name":"미래 주유소","lat":37.2904,"lng":127.453782,"roadAddr":"경기도 이천시 이섭대천로 1367 (증포동)","jibunAddr":"경기도 이천시 증포동 153번지 9호","openHours":"상시","maleToilets":3,"femaleToilets":1,"disabled":false,"diaperTable":false,"emergencyBell":false,"cctv":false,"source":"public","category":"public"},{"id":"202540700000100211","name":"평생학습카페 작은도서관 화장실","lat":37.282197,"lng":127.452362,"roadAddr":"경기도 이천시 애련정로136번길 84, 평생학습북카페 (창전동)","jibunAddr":"경기도 이천시 창전동 503 평생학습북카페","openHours":"정시","maleToilets":3,"femaleToilets":2,"disabled":true,"diaperTable":false,"emergencyBell":false,"cctv":true,"managerTel":"0316315793","source":"public","category":"public"},{"id":"202540700000100128","name":"SK 대동 주유소","lat":37.289542,"lng":127.457708,"roadAddr":"경기도 이천시 갈산로 39 (증포동)","jibunAddr":"경기도 이천시 증포동 165번지 5호","openHours":"정시","maleToilets":3,"femaleToilets":1,"disabled":false,"diaperTable":false,"emergencyBell":false,"cctv":false,"managerTel":"0316352164","source":"public","category":"public"},{"id":"202540700000100154","name":"증포3지구 제2공원","lat":37.289418,"lng":127.4497,"roadAddr":"경기도 이천시 이섭대천로 1325-1, 증포3지구 제2공원 (증포동)","jibunAddr":"경기도 이천시 증포동 483 증포3지구 제2공원","openHours":"정시","maleToilets":4,"femaleToilets":4,"disabled":false,"diaperTable":false,"emergencyBell":true,"cctv":false,"managerTel":"0316453843","source":"public","category":"public"},{"id":"202540700000100021","name":"이천종합버스터미널","lat":37.277364,"lng":127.446927,"roadAddr":"경기도 이천시 이섭대천로 1200, 종합버스터미널 (중리동)","jibunAddr":"경기도 이천시 중리동 219번지 종합버스터미널","openHours":"정시","maleToilets":18,"femaleToilets":9,"disabled":true,"diaperTable":false,"emergencyBell":true,"cctv":false,"source":"public","category":"public"},{"id":"202540700000100171","name":"상하수도사업소","lat":37.271134,"lng":127.481694,"roadAddr":"경기도 이천시 부발읍 중부대로1390번길 293","jibunAddr":"경기도 이천시 부발읍 산촌리 334-2","openHours":"정시","maleToilets":12,"femaleToilets":3,"disabled":true,"diaperTable":false,"emergencyBell":false,"cctv":false,"source":"public","category":"public"},{"id":"202540700000100153","name":"증포다사랑관","lat":37.290384,"lng":127.452482,"roadAddr":"경기도 이천시 증신로156번길 15, 증포동주민센터 (증포동)","jibunAddr":"경기도 이천시 증포동 182-5 증포동주민센터","openHours":"정시","maleToilets":2,"femaleToilets":1,"disabled":false,"diaperTable":false,"emergencyBell":false,"cctv":true,"managerTel":"0316448745","source":"public","category":"public"}]