[{"id":"202540700000100241","name":"종합운동장 D구역 1층","lat":37.286277,"lng":127.49533,"roadAddr":"경기도 이천시 부발읍 중부대로 1696","jibunAddr":"경기도 이천시 부발읍 무촌리 56","openHours":"09:00~18:00","maleToilets":19,"femaleToilets":16,"disabled":true,"diaperTable":false,"emergencyBell":false,"cctv":false,"managerTel":"0316444316","source":"public","category":"public"},{"id":"202540700000100087","name":"명호 주유소","lat":37.289369,"lng":127.499815,"roadAddr":"경기도 이천시 부발읍 중부대로 1744, 명호주유소","jibunAddr":"경기도 이천시 부발읍 신원리 644번지 명호주유소","openHours":"06:00~21:30","maleToilets":2,"femaleToilets":2,"disabled":false,"diaperTable":false,"emergencyBell":false,"cctv":false,"managerTel":"0316365175","source":"public","category":"public"},{"id":"202540700000100080","name":"부발농협 주유소","lat":37.287517,"lng":127.48969,"roadAddr":"경기도 이천시 부발읍 무촌로 173, 부발농협주유소","jibunAddr":"경기도 이천시 부발읍 무촌리 198번지 4호 부발농협주유소","openHours":"07:30~20:00","maleToilets":4,"femaleToilets":2,"disabled":false,"diaperTable":false,"emergencyBell":false,"cctv":false,"source":"public","category":"public"},{"id":"202540700000100039","name":"우성충전소(강가충전소)","lat":37.289736,"lng":127.504419,"roadAddr":"경기도 이천시 부발읍 중부대로 1782","jibunAddr":"경기도 이천시 부발읍 신원리 558번지 51호","openHours":"07:00~19:00","maleToilets":3,"femaleToilets":2,"disabled":false,"diaperTable":false,"emergencyBell":false,"cctv":false,"managerTel":"0316355185","source":"public","category":"public"},{"id":"202540700000100242","name":"종합운동장 C구역 1층","lat":37.286277,"lng":127.49533,"roadAddr":"경기도 이천시 부발읍 중부대로 1696","jibunAddr":"경기도 이천시 부발읍 무촌리 55","openHours":"09:00~18:00","maleToilets":34,"femaleToilets":10,"disabled":true,"diaperTable":false,"emergencyBell":false,"cctv":false,"managerTel":"0316444316","source":"public","category":"public"},{"id":"202540700000100206","name":"부발읍행정복지센터 화장실","lat":37.283634,"lng":127.487292,"roadAddr":"경기도 이천시 부발읍 무촌로 121","jibunAddr":"경기도 이천시 부발읍 무촌리 168-8","openHours":"09:00~18:00","maleToilets":9,"femaleToilets":4,"disabled":true,"diaperTable":true,"emergencyBell":false,"cctv":false,"managerTel":"0316448459","source":"public","category":"public"},{"id":"202540700000100245","name":"인라인스케이트장 야외용화장실","lat":37.286277,"lng":127.49533,"roadAddr":"경기도 이천시 부발읍 중부대로 1696","jibunAddr":"경기도 이천시 부발읍 무촌리 52","openHours":"00:00~24:00","maleToilets":6,"femaleToilets":3,"disabled":true,"diaperTable":true,"emergencyBell":false,"cctv":false,"managerTel":"0316444316","source":"public","category":"public"},{"id":"202540700000100244","name":"종합운동장 A구역 1층(야구장)","lat":37.286277,"lng":127.49533,"roadAddr":"경기도 이천시 부발읍 중부대로 1696","jibunAddr":"경기도 이천시 부발읍 무촌리 53","openHours":"09:00~18:00","maleToilets":30,"femaleToilets":8,"disabled":true,"diaperTable":true,"emergencyBell":true,"cctv":false,"managerTel":"0316444316","source":"public","category":"public"},{"id":"202540700000100238","name":"눈높이 배드민턴장","lat":37.286277,"lng":127.49533,"roadAddr":"경기도 이천시 부발읍 중부대로 1696","jibunAddr":"경기도 이천시 부발읍 무촌리 58","openHours":"08:00~22:00","maleToilets":5,"femaleToilets":4,"disabled":true,"diaperTable":false,"emergencyBell":false,"cctv":false,"managerTel":"0316444316","source":"public","category":"public"},{"id":"202540700000100237","name":"실내탁구장","lat":37.286277,"lng":127.49533,"roadAddr":"경기도 이천시 부발읍 중부대로 1696","jibunAddr":"경기도 이천시 부발읍 무촌리 58","openHours":"08:00~22:00","maleToilets":5,"femaleToilets":2,"disabled":false,"diaperTable":false,"emergencyBell":false,"cctv":false,"managerTel":"0316444316","source":"public","category":"public"},{"id":"202540700000100243","name":"종합운동장 B구역 1층","lat":37.286277,"lng":127.49533,"roadAddr":"경기도 이천시 부발읍 중부대로 1696","jibunAddr":"경기도 이천시 부발읍 무촌리 54","openHours":"09:00~18:00","maleToilets":19,"femaleToilets":4,"disabled":true,"diaperTable":false,"emergencyBell":false,"cctv":false,"managerTel":"0316444316","source":"public","category":"public"},{"id":"202540700000100141","name":"(주)대호 페트로갤러리 주유소","lat":37.289091,"lng":127.493424,"roadAddr":"경기도 이천시 부발읍 중부대로 1701-24","jibunAddr":"경기도 이천시 부발읍 무촌리 30번지 7호","openHours":"상시","maleToilets":3,"femaleToilets":1,"disabled":false,"diaperTable":false,"emergencyBell":false,"cctv":false,"managerTel":"0316317067","source":"public","category":"public"},{"id":"202540700000100204","name":"부발읍체육공원(C구장) 화장실","lat":37.288088,"lng":127.495833,"jibunAddr":"경기도 이천시 부발읍 무촌리 546","openHours":"09:00~18:00","maleToilets":16,"femaleToilets":12,"disabled":true,"diaperTable":true,"emergencyBell":false,"cctv":false,"managerTel":"0316448459","source":"public","category":"public"},{"id":"202540700000100240","name":"종합운동장 야외화장실(동)","lat":37.286277,"lng":127.49533,"roadAddr":"경기도 이천시 부발읍 중부대로 1696","jibunAddr":"경기도 이천시 부발읍 무촌리 57","openHours":"상시","maleToilets":9,"femaleToilets":6,"disabled":true,"diaperTable":true,"emergencyBell":true,"cctv":true,"managerTel":"0316444316","source":"public","category":"public"},{"id":"202540700000100239","name":"종합운동장 야외화장실(서)","lat":37.286277,"lng":127.49533,"roadAddr":"경기도 이천시 부발읍 중부대로 1696","jibunAddr":"경기도 이천시 부발읍 무촌리 58","openHours":"상시","maleToilets":7,"femaleToilets":8,"disabled":true,"diaperTable":true,"emergencyBell":true,"cctv":true,"managerTel":"0316444316","source":"public","category":"public"},{"id":"202540700000100135","name":"(주)휴먼터치(강가주유소)","lat":37.289736,"lng":127.504419,"roadAddr":"경기도 이천시 부발읍 중부대로 1782","jibunAddr":"경기도 이천시 부발읍 신원리 558번지 51호","openHours":"07:00~19:00","maleToilets":3,"femaleToilets":2,"disabled":false,"diaperTable":false,"emergencyBell":false,"cctv":false,"managerTel":"0316355185","source":"public","category":"public"},{"id":"202540700000100223","name":"자연장지","lat":37.273838,"lng":127.527696,"roadAddr":"경기도 이천시 부발읍 황무로1719번길 189","jibunAddr":"경기도 이천시 부발읍 죽당리 산71-9","openHours":"09:00~18:00","maleToilets":6,"femaleToilets":6,"disabled":true,"diaperTable":false,"emergencyBell":false,"cctv":false,"managerTel":"0316313578","source":"public","category":"public"}]