[{"id":"202441700000100651","name":"문호3리 버스종점","lat":37.604144,"lng":127.353693,"roadAddr":"경기도 양평군 서종면 중미산로 13","openHours":"정시","maleToilets":6,"femaleToilets":5,"disabled":false,"diaperTable":true,"emergencyBell":true,"cctv":true,"managerTel":"0317703165","source":"public","category":"public"},{"id":"202441700000100654","name":"문호주유소","lat":37.602807,"lng":127.362711,"roadAddr":"경기도 양평군 서종면 중미산로 97","openHours":"정시","maleToilets":1,"femaleToilets":1,"disabled":false,"diaperTable":false,"emergencyBell":false,"cctv":true,"managerTel":"0317729700","source":"public","category":"public"},{"id":"202441700000100649","name":"수능2리체육공원","lat":37.584749,"lng":127.393305,"roadAddr":"경기도 양평군 서종면 수능능곡길 39-9","openHours":"정시","maleToilets":2,"femaleToilets":1,"disabled":false,"diaperTable":false,"emergencyBell":false,"cctv":true,"managerTel":"0317703165","source":"public","category":"public"},{"id":"202441700000100648","name":"황순원문학관","lat":37.59492,"lng":127.377887,"roadAddr":"경기도 양평군 서종면 소나기마을길 24","openHours":"정시","maleToilets":4,"femaleToilets":4,"disabled":false,"diaperTable":false,"emergencyBell":true,"cctv":true,"managerTel":"0317732299","source":"public","category":"public"},{"id":"202441700000100659","name":"수능1리체육공원","lat":37.592836,"lng":127.37954,"roadAddr":"경기도 양평군 서종면 황순원로 224-18","openHours":"정시","maleToilets":2,"femaleToilets":1,"disabled":false,"diaperTable":false,"emergencyBell":false,"cctv":false,"managerTel":"0317703164","source":"public","category":"public"}]