[{"id":"202441700000100600","name":"강하파출소","lat":37.495871,"lng":127.411205,"roadAddr":"경기도 양평군 강하면 운심길 46","openHours":"10시간","maleToilets":2,"femaleToilets":1,"disabled":false,"diaperTable":false,"emergencyBell":false,"cctv":true,"managerTel":"0317724112","source":"public","category":"public"},{"id":"202441700000100601","name":"강하체육공원(테니스장)","lat":37.496459,"lng":127.413378,"roadAddr":"경기도 양평군 강하면 운심리 27-3","openHours":"24시간","maleToilets":3,"femaleToilets":2,"disabled":false,"diaperTable":false,"emergencyBell":true,"cctv":true,"managerTel":"0317703073","source":"public","category":"public"},{"id":"202441700000100676","name":"한길요양병원","lat":37.511281,"lng":127.423279,"roadAddr":"경기도 양평군 양서면 남한강변길 83","openHours":"10시간","maleToilets":3,"femaleToilets":2,"disabled":false,"diaperTable":false,"emergencyBell":true,"cctv":false,"managerTel":"0317757582","source":"public","category":"public"},{"id":"202441700000100595","name":"양평다나암병원","lat":37.497572,"lng":127.419164,"roadAddr":"경기도 양평군 강하면 사호1길 51","openHours":"24시간","maleToilets":13,"femaleToilets":8,"disabled":true,"diaperTable":true,"emergencyBell":true,"cctv":false,"managerTel":"0317707000","source":"public","category":"public"},{"id":"202441700000100593","name":"신덕주유소","lat":37.490865,"lng":127.398066,"roadAddr":"경기도 양평군 강하면 강남로 78","openHours":"24시간","maleToilets":3,"femaleToilets":2,"disabled":false,"diaperTable":false,"emergencyBell":false,"cctv":false,"managerTel":"0317724321","source":"public","category":"public"},{"id":"202441700000100689","name":"복포지구 화장실","lat":37.50972,"lng":127.422378,"roadAddr":"경기도 양평군 양서면 복포리 139-17","openHours":"24시간","maleToilets":3,"femaleToilets":3,"disabled":false,"diaperTable":false,"emergencyBell":true,"cctv":false,"managerTel":"0317702431","source":"public","category":"public"},{"id":"202441700000100688","name":"국수보건지소","lat":37.514031,"lng":127.403686,"roadAddr":"경기도 양평군 양서면 복개길5번길 13(3층)","openHours":"9시간","maleToilets":3,"femaleToilets":2,"disabled":true,"diaperTable":false,"emergencyBell":false,"cctv":false,"managerTel":"0317703552","source":"public","category":"public"},{"id":"202441700000100672","name":"쌍둥이주유소","lat":37.516316,"lng":127.418319,"roadAddr":"경기도 양평군 양서면 경강로 1197","openHours":"24시간","maleToilets":4,"femaleToilets":1,"disabled":false,"diaperTable":false,"emergencyBell":false,"cctv":false,"managerTel":"0317748108","source":"public","category":"public"},{"id":"202441700000100592","name":"강하주유소","lat":37.500331,"lng":127.417848,"roadAddr":"경기도 양평군 강하면 강남로 289","openHours":"17시간","maleToilets":4,"femaleToilets":2,"disabled":false,"diaperTable":false,"emergencyBell":false,"cctv":true,"managerTel":"0317715859","source":"public","category":"public"},{"id":"202441700000100597","name":"강하면사무소 1층","lat":37.494973,"lng":127.410451,"roadAddr":"경기도 양평군 강하면 운심길 40-8 (1층)","openHours":"10시간","maleToilets":2,"femaleToilets":2,"disabled":true,"diaperTable":false,"emergencyBell":true,"cctv":true,"managerTel":"0317703089","source":"public","category":"public"},{"id":"202441700000100671","name":"일흥주유소","lat":37.515569,"lng":127.418229,"roadAddr":"경기도 양평군 양서면 경강로 1196 (복포리, 일흥주유소)","openHours":"16시간","maleToilets":5,"femaleToilets":4,"disabled":false,"diaperTable":false,"emergencyBell":false,"cctv":false,"managerTel":"0317715144","source":"public","category":"public"},{"id":"202441700000100598","name":"강하우체국","lat":37.496213,"lng":127.41081,"roadAddr":"경기도 양평군 강하면 운심길 41","openHours":"10시간","maleToilets":2,"femaleToilets":1,"disabled":false,"diaperTable":false,"emergencyBell":false,"cctv":true,"managerTel":"0317724004","source":"public","category":"public"},{"id":"202441700000100599","name":"강하보건지소","lat":37.495855,"lng":127.41085,"roadAddr":"경기도 양평군 강하면 운심길 44","openHours":"9시간","maleToilets":3,"femaleToilets":2,"disabled":false,"diaperTable":false,"emergencyBell":false,"cctv":true,"managerTel":"0317703551","source":"public","category":"public"}]