[{"id":"202439900000101473","name":"조안면 파크골프장 화장실","lat":37.565683,"lng":127.318832,"jibunAddr":"경기도 남양주시 송촌리 288","openHours":"정시","maleToilets":5,"femaleToilets":5,"disabled":false,"diaperTable":false,"emergencyBell":false,"cctv":false,"managerTel":"0315905435","source":"public","category":"public"},{"id":"202439900000101354","name":"조안면 게이트볼장[진중-6]","lat":37.557784,"lng":127.312056,"jibunAddr":"경기도 남양주시 조안면 진중리 93-2","openHours":"상시","maleToilets":2,"femaleToilets":2,"disabled":false,"diaperTable":false,"emergencyBell":true,"cctv":true,"managerTel":"0315902848","source":"public","category":"public"},{"id":"202439900000101399","name":"물의정원 공중화장실[진중-3]","lat":37.557354,"lng":127.313527,"jibunAddr":"경기도 남양주시 조안면 진중리 95","openHours":"상시","maleToilets":3,"femaleToilets":3,"disabled":true,"diaperTable":false,"emergencyBell":true,"cctv":true,"managerTel":"0315908634","source":"public","category":"public"},{"id":"202439900000101358","name":"한사랑 딸기농장[송촌-1]","lat":37.563332,"lng":127.319283,"jibunAddr":"경기도 남양주시 조안면 송촌리 352","openHours":"상시","maleToilets":2,"femaleToilets":2,"disabled":true,"diaperTable":false,"emergencyBell":true,"cctv":true,"managerTel":"0315902848","source":"public","category":"public"},{"id":"202439900000101228","name":"북한강자전거밝은광장)[진중-2]","lat":37.552604,"lng":127.313405,"jibunAddr":"경기도 남양주시 조안면 진중리 317-1","openHours":"상시","maleToilets":6,"femaleToilets":4,"disabled":true,"diaperTable":false,"emergencyBell":true,"cctv":true,"managerTel":"0315901395","source":"public","category":"public"},{"id":"202439900000101359","name":"물의정원(양귀비식재)[송촌-4]","lat":37.562496,"lng":127.31993,"jibunAddr":"경기도 남양주시 송촌리 363-8","openHours":"상시","maleToilets":4,"femaleToilets":4,"disabled":false,"diaperTable":false,"emergencyBell":true,"cctv":false,"managerTel":"0315902848","source":"public","category":"public"},{"id":"202439900000101390","name":"운길산역","lat":37.554803,"lng":127.30985,"roadAddr":"경기도 남양주시 조안면 운길산로 20 (진중리, 운길산역)","jibunAddr":"경기도 남양주시 진중리 229-1","openHours":"정시","maleToilets":8,"femaleToilets":8,"disabled":true,"diaperTable":true,"emergencyBell":true,"cctv":true,"managerTel":"0315777196","source":"public","category":"public"},{"id":"202439900000101474","name":"조안면 축구장[송촌-10]","lat":37.561932,"lng":127.315222,"jibunAddr":"경기도 남양주시 송촌리 502-2","openHours":"상시","maleToilets":6,"femaleToilets":5,"disabled":false,"diaperTable":false,"emergencyBell":true,"cctv":true,"managerTel":"0315905435","source":"public","category":"public"},{"id":"202439900000101346","name":"운길산 등산로[송촌-9]","lat":37.560657,"lng":127.313732,"roadAddr":"경기도 남양주시 조안면 북한강로433번길 185 (진중리, 수종사)","jibunAddr":"경기도 남양주시 송촌리 산26-22","openHours":"상시","maleToilets":5,"femaleToilets":5,"disabled":false,"diaperTable":false,"emergencyBell":false,"cctv":true,"managerTel":"0315902848","source":"public","category":"public"},{"id":"202439900000101547","name":"한사랑 딸기농장[한사랑-1]","lat":37.563206,"lng":127.317563,"jibunAddr":"경기도 남양주시 조안면 송촌리 537-2","openHours":"상시","maleToilets":6,"femaleToilets":5,"disabled":false,"diaperTable":false,"emergencyBell":false,"cctv":false,"managerTel":"0315902848","source":"public","category":"public"},{"id":"202441700000100693","name":"양서농협 앞","lat":37.54482,"lng":127.318626,"roadAddr":"경기도 양평군 양서면 양수로 160","openHours":"정시","maleToilets":4,"femaleToilets":2,"disabled":false,"diaperTable":false,"emergencyBell":true,"cctv":false,"managerTel":"0317720330","source":"public","category":"public"},{"id":"202441700000100700","name":"양서문화체육공원","lat":37.540872,"lng":127.322857,"roadAddr":"경기도 양평군 양서면 용담리 624-1","openHours":"정시","maleToilets":4,"femaleToilets":5,"disabled":false,"diaperTable":false,"emergencyBell":true,"cctv":true,"managerTel":"0317703129","source":"public","category":"public"},{"id":"202441700000100690","name":"양서에코힐링센터1F","lat":37.547033,"lng":127.321577,"roadAddr":"경기도 양평군 양서면 북한강로38","openHours":"정시","maleToilets":4,"femaleToilets":8,"disabled":true,"diaperTable":false,"emergencyBell":true,"cctv":false,"managerTel":"0317724811","source":"public","category":"public"},{"id":"202441700000100694","name":"양수주유소","lat":37.541458,"lng":127.324471,"roadAddr":"경기도 양평군 양서면 양수로 94 (용담리, 양수주유소)","openHours":"정시","maleToilets":4,"femaleToilets":3,"disabled":false,"diaperTable":false,"emergencyBell":false,"cctv":true,"managerTel":"0317726024","source":"public","category":"public"},{"id":"202441700000100696","name":"양수리전통시장","lat":37.545196,"lng":127.319894,"roadAddr":"경기도 양평군 양서면 양수로150번길 3-17","openHours":"정시","maleToilets":6,"femaleToilets":4,"disabled":false,"diaperTable":false,"emergencyBell":true,"cctv":true,"managerTel":"0317720330","source":"public","category":"public"},{"id":"202441700000100682","name":"두물머리화장실(신양수대교 하부 북한강쪽)","lat":37.535195,"lng":127.312557,"roadAddr":"경기도 양평군 양서면 두물머리길 86-43","openHours":"정시","maleToilets":6,"femaleToilets":5,"disabled":false,"diaperTable":false,"emergencyBell":true,"cctv":true,"managerTel":"0317702453","source":"public","category":"public"},{"id":"202441700000100691","name":"양서친환경도서관 1층","lat":37.542515,"lng":127.323316,"roadAddr":"경기도 양평군 양서면 양수로 110(1층)","openHours":"정시","maleToilets":2,"femaleToilets":3,"disabled":true,"diaperTable":false,"emergencyBell":false,"cctv":false,"managerTel":"0317702591","source":"public","category":"public"},{"id":"202441700000100685","name":"양서면사무소 1층","lat":37.544002,"lng":127.326079,"roadAddr":"경기도 양평군 양서면 목왕로 31 (용담리, 양서면사무소,1층)","openHours":"정시","maleToilets":5,"femaleToilets":2,"disabled":false,"diaperTable":false,"emergencyBell":true,"cctv":true,"managerTel":"0317703109","source":"public","category":"public"},{"id":"202441700000100695","name":"두물머리화장실(상춘원 옆)","lat":37.536154,"lng":127.317892,"roadAddr":"경기도 양평군 양서면 양수로139번길 86","openHours":"정시","maleToilets":5,"femaleToilets":4,"disabled":true,"diaperTable":false,"emergencyBell":true,"cctv":true,"managerTel":"0317702453","source":"public","category":"public"},{"id":"202441700000100701","name":"오두개쉼터화장실","lat":37.53797,"lng":127.342204,"roadAddr":"경기도 양평군 양서면 용담리 산38-9","openHours":"정시","maleToilets":4,"femaleToilets":4,"disabled":false,"diaperTable":false,"emergencyBell":false,"cctv":false,"managerTel":"0317702936","source":"public","category":"public"},{"id":"202441700000100699","name":"양서다목적복지회관 1층","lat":37.544493,"lng":127.317088,"roadAddr":"경기도 양평군 양서면 양수로171번길 10(양수리 647-1)","openHours":"정시","maleToilets":4,"femaleToilets":5,"disabled":true,"diaperTable":false,"emergencyBell":false,"cctv":true,"managerTel":"0317703103","source":"public","category":"public"},{"id":"202441700000100677","name":"북한강철교쉼터화장실","lat":37.550057,"lng":127.319686,"roadAddr":"경기도 양평군 양서면 남한강자전거길 1043","openHours":"정시","maleToilets":4,"femaleToilets":4,"disabled":true,"diaperTable":true,"emergencyBell":true,"cctv":false,"managerTel":"0317702936","source":"public","category":"public"},{"id":"202441700000100698","name":"양서파출소 1층","lat":37.544814,"lng":127.319215,"roadAddr":"경기도 양평군 양서면 양수로152번길 6 (양수리, 양서파출소,1층)","openHours":"정시","maleToilets":2,"femaleToilets":2,"disabled":false,"diaperTable":false,"emergencyBell":false,"cctv":true,"managerTel":"0317726112","source":"public","category":"public"},{"id":"202441700000100692","name":"양평서부청소년문화의집","lat":37.542515,"lng":127.323316,"roadAddr":"경기도 양평군 양서면 양수로 110(용담리 536-5)","openHours":"정시","maleToilets":4,"femaleToilets":1,"disabled":false,"diaperTable":false,"emergencyBell":false,"cctv":false,"managerTel":"0317703103","source":"public","category":"public"},{"id":"202441700000100683","name":"양서체육공원","lat":37.53809,"lng":127.316712,"roadAddr":"경기도 양평군 양서면 두물머리길68번길 7","openHours":"정시","maleToilets":3,"femaleToilets":7,"disabled":false,"diaperTable":true,"emergencyBell":false,"cctv":false,"managerTel":"0317703105","source":"public","category":"public"},{"id":"202441700000100681","name":"두물머리화장실(장례식장앞)","lat":37.54188,"lng":127.319454,"roadAddr":"경기도 양평군 양서면 두물머리길 25","openHours":"정시","maleToilets":2,"femaleToilets":2,"disabled":false,"diaperTable":false,"emergencyBell":true,"cctv":true,"managerTel":"0317702453","source":"public","category":"public"},{"id":"202441700000100680","name":"두물머리화장실(나루터)","lat":37.532946,"lng":127.315015,"roadAddr":"경기도 양평군 양서면 두물머리길 130","openHours":"정시","maleToilets":6,"femaleToilets":5,"disabled":false,"diaperTable":false,"emergencyBell":true,"cctv":true,"managerTel":"0317702453","source":"public","category":"public"},{"id":"202441700000100697","name":"양서우체국 1층","lat":37.545964,"lng":127.317536,"roadAddr":"경기도 양평군 양서면 양수로152번길 26 (양수리, 양평양서우체국,1층)","openHours":"정시","maleToilets":2,"femaleToilets":0,"disabled":false,"diaperTable":false,"emergencyBell":false,"cctv":true,"managerTel":"0317726003","source":"public","category":"public"},{"id":"202441700000100684","name":"양서119지역대","lat":37.542731,"lng":127.318074,"roadAddr":"경기도 양평군 양서면 두물머리길8번길 49(1층)","openHours":"정시","maleToilets":1,"femaleToilets":1,"disabled":false,"diaperTable":false,"emergencyBell":false,"cctv":false,"managerTel":"0317700546","source":"public","category":"public"},{"id":"202555400000100600","name":"팔당물안개공원(검천리2) 검천지구 A","lat":37.530723,"lng":127.341747,"roadAddr":"경기도 광주시 남종면 산수로 2343-7","openHours":"상시","maleToilets":2,"femaleToilets":2,"disabled":false,"diaperTable":false,"emergencyBell":true,"cctv":false,"managerTel":"0317621039","source":"public","category":"public"}]