[{"id":"202441700000100673","name":"만남의광장휴게소","lat":37.508351,"lng":127.393561,"roadAddr":"경기도 양평군 양서면 경강로 954 (대심리)","openHours":"정시","maleToilets":15,"femaleToilets":12,"disabled":false,"diaperTable":true,"emergencyBell":false,"cctv":false,"managerTel":"07087074590","source":"public","category":"public"},{"id":"202441700000100596","name":"운심지구 화장실","lat":37.489932,"lng":127.393366,"roadAddr":"경기도 양평군 강하면 산수로 3141","openHours":"정시","maleToilets":3,"femaleToilets":3,"disabled":false,"diaperTable":false,"emergencyBell":true,"cctv":true,"managerTel":"0317702431","source":"public","category":"public"},{"id":"202441700000100679","name":"도곡지구 화장실","lat":37.517655,"lng":127.377116,"roadAddr":"경기도 양평군 양서면 도곡리 468-7","openHours":"정시","maleToilets":3,"femaleToilets":3,"disabled":false,"diaperTable":false,"emergencyBell":true,"cctv":false,"managerTel":"0317702431","source":"public","category":"public"},{"id":"202441700000100675","name":"양서주유소","lat":37.50987,"lng":127.395136,"roadAddr":"경기도 양평군 양서면 경강로 973","openHours":"정시","maleToilets":3,"femaleToilets":1,"disabled":false,"diaperTable":false,"emergencyBell":false,"cctv":false,"managerTel":"0317735145","source":"public","category":"public"},{"id":"202441700000100674","name":"남한강휴게소","lat":37.508851,"lng":127.394186,"roadAddr":"경기도 양평군 양서면 경강로 962 (국수리)","openHours":"정시","maleToilets":13,"femaleToilets":12,"disabled":false,"diaperTable":false,"emergencyBell":false,"cctv":true,"managerTel":"0317720665","source":"public","category":"public"},{"id":"202441700000100602","name":"운심2리체육공원","lat":37.489891,"lng":127.393273,"roadAddr":"경기도 양평군 강하면 운심리 374-2","openHours":"정시","maleToilets":3,"femaleToilets":3,"disabled":false,"diaperTable":false,"emergencyBell":true,"cctv":true,"managerTel":"0317703089","source":"public","category":"public"},{"id":"202441700000100678","name":"국수생활체육공원","lat":37.508922,"lng":127.391923,"roadAddr":"경기도 양평군 양서면 대심리 209","openHours":"정시","maleToilets":4,"femaleToilets":2,"disabled":false,"diaperTable":false,"emergencyBell":true,"cctv":true,"managerTel":"0317703129","source":"public","category":"public"},{"id":"202555400000100636","name":"검천3리 버스정류장 열린화장실","lat":37.527089,"lng":127.363364,"roadAddr":"경기도 광주시 남종면 산수로 2570-1","openHours":"상시","maleToilets":2,"femaleToilets":2,"disabled":false,"diaperTable":false,"emergencyBell":true,"cctv":false,"managerTel":"0317604972","source":"public","category":"public"},{"id":"202555400000100633","name":"큰청탄 열린화장실","lat":37.505725,"lng":127.373767,"roadAddr":"경기도 광주시 남종면 수청길 10","openHours":"상시","maleToilets":2,"femaleToilets":1,"disabled":false,"diaperTable":false,"emergencyBell":true,"cctv":false,"managerTel":"0317604972","source":"public","category":"public"}]