[{"id":"202541910000100601","name":"평원동 예담요양시설 화장실","lat":37.350566,"lng":127.952276,"roadAddr":"강원특별자치도 원주시 평원안길 38","jibunAddr":"강원특별자치도 원주시 평원동 252-7","openHours":"정시","maleToilets":0,"femaleToilets":0,"disabled":false,"diaperTable":false,"emergencyBell":true,"cctv":false,"managerTel":"0337420513","source":"public","category":"public"},{"id":"202541910000100625","name":"다현요양센터","lat":37.350677,"lng":127.946359,"roadAddr":"강원특별자치도 원주시 천사로 200","jibunAddr":"강원특별자치도 원주시 일산동 193-20","openHours":"정시","maleToilets":10,"femaleToilets":5,"disabled":true,"diaperTable":false,"emergencyBell":false,"cctv":false,"managerTel":"0337430011","source":"public","category":"public"},{"id":"202541910000100740","name":"홈플러스 원주점(2층)","lat":37.317721,"lng":127.967313,"roadAddr":"강원특별자치도 원주시 치악로 1489(관설동)","jibunAddr":"강원특별자치도 원주시 관설동 1453번지","openHours":"정시","maleToilets":5,"femaleToilets":4,"disabled":true,"diaperTable":true,"emergencyBell":false,"cctv":true,"managerTel":"0337698701","source":"public","category":"public"},{"id":"202541910000101308","name":"원주장례식장","lat":37.349117,"lng":127.946726,"roadAddr":"강원특별자치도 원주시 일산로 20","jibunAddr":"강원특별자치도 원주시 일산동 157-2","openHours":"상시","maleToilets":15,"femaleToilets":9,"disabled":true,"diaperTable":false,"emergencyBell":false,"cctv":false,"managerTel":"0337443969","source":"public","category":"public"},{"id":"202541910000100847","name":"HD현대오일뱅크㈜직영 동원셀프주유소","lat":37.329733,"lng":127.945283,"roadAddr":"강원특별자치도 원주시 남원로 505 (명륜동)","jibunAddr":"강원특별자치도 원주시 명륜동 822-1","openHours":"정시","maleToilets":3,"femaleToilets":2,"disabled":false,"diaperTable":false,"emergencyBell":false,"cctv":false,"managerTel":"0337625157","source":"public","category":"public"},{"id":"202541910000100033","name":"명륜1동행정복지센터","lat":37.341256,"lng":127.953288,"roadAddr":"강원특별자치도 원주시 남원로653","jibunAddr":"강원특별자치도 원주시 명륜동90-2","openHours":"정시","maleToilets":4,"femaleToilets":2,"disabled":false,"diaperTable":false,"emergencyBell":false,"cctv":false,"managerTel":"0337375513","source":"public","category":"public"},{"id":"202541910000100863","name":"HD현대오일뱅크㈜직영 토지주유소","lat":37.324329,"lng":127.959723,"roadAddr":"강원특별자치도 원주시 서원대로 516 (단구동)","jibunAddr":"강원특별자치도 원주시 단구동 128-12","openHours":"정시","maleToilets":2,"femaleToilets":1,"disabled":false,"diaperTable":false,"emergencyBell":false,"cctv":false,"managerTel":"0337665188","source":"public","category":"public"},{"id":"202541910000100719","name":"AK플라자 원주점(3층)","lat":37.34573,"lng":127.92765,"roadAddr":"강원특별자치도 원주시 봉화로 1 (단계동)","jibunAddr":"강원특별자치도 원주시 단계동 1123번지","openHours":"정시","maleToilets":9,"femaleToilets":8,"disabled":true,"diaperTable":false,"emergencyBell":false,"cctv":true,"managerTel":"16611114","source":"public","category":"public"},{"id":"202541910000100725","name":"롯데마트 원주점(지하2층)","lat":37.34573,"lng":127.92765,"roadAddr":"강원특별자치도 원주시 봉화로 1 (단계동)","jibunAddr":"강원특별자치도 원주시 단계동 1123번지","openHours":"정시","maleToilets":7,"femaleToilets":6,"disabled":true,"diaperTable":false,"emergencyBell":false,"cctv":false,"managerTel":"0337492500","source":"public","category":"public"},{"id":"202541910000100022","name":"단계동행정복지센터 2층","lat":37.352634,"lng":127.934459,"roadAddr":"강원특별자치도 원주시 북원로 2321","jibunAddr":"강원특별자치도 원주시 단계동 1081-3","openHours":"정시","maleToilets":4,"femaleToilets":4,"disabled":true,"diaperTable":false,"emergencyBell":true,"cctv":false,"managerTel":"0337375817","source":"public","category":"public"},{"id":"202541910000101319","name":"대영빌딩 4층 화장실","lat":37.325735,"lng":127.940562,"roadAddr":"강원특별자치도 원주시 남원로 441-6","jibunAddr":"강원특별자치도 원주시 명륜동 846-1","openHours":"정시","maleToilets":4,"femaleToilets":2,"disabled":false,"diaperTable":false,"emergencyBell":false,"cctv":false,"managerTel":"0337661246","source":"public","category":"public"},{"id":"202541910000100038","name":"무실동 행정복지센터(2층)","lat":37.338194,"lng":127.929245,"roadAddr":"강원특별자치도 원주시 만대공원길 14-10","jibunAddr":"강원특별자치도 원주시 무실동 1733-8","openHours":"정시","maleToilets":4,"femaleToilets":3,"disabled":false,"diaperTable":false,"emergencyBell":false,"cctv":false,"managerTel":"0337375895","source":"public","category":"public"},{"id":"202541910000100611","name":"원주소망요양원","lat":37.337409,"lng":127.964092,"roadAddr":"강원특별자치도 원주시 늘품로 187-58","jibunAddr":"강원특별자치도 원주시 단구동 267","openHours":"정시","maleToilets":3,"femaleToilets":2,"disabled":true,"diaperTable":false,"emergencyBell":true,"cctv":false,"managerTel":"0337317123","source":"public","category":"public"},{"id":"202541910000100763","name":"백간공원 화장실","lat":37.347869,"lng":127.925995,"roadAddr":"강원특별자치도 원주시 천사로 5","jibunAddr":"강원특별자치도 원주시 단계동 1104","openHours":"상시","maleToilets":3,"femaleToilets":3,"disabled":true,"diaperTable":true,"emergencyBell":true,"cctv":true,"managerTel":"0337373621","source":"public","category":"public"},{"id":"202541910000100589","name":"원주중앙요양원","lat":37.3493,"lng":127.95213,"roadAddr":"강원특별자치도 원주시 평원로 33","jibunAddr":"강원특별자치도 원주시 중앙동 144","openHours":"상시","maleToilets":2,"femaleToilets":1,"disabled":true,"diaperTable":false,"emergencyBell":true,"cctv":true,"managerTel":"0337621003","source":"public","category":"public"},{"id":"202541910000100012","name":"일산동행정복지센터(2층) 화장실","lat":37.349664,"lng":127.942151,"roadAddr":"강원특별자치도 원주시 천사로 159","jibunAddr":"강원특별자치도 원주시 일산동 219-17","openHours":"정시","maleToilets":5,"femaleToilets":3,"disabled":false,"diaperTable":false,"emergencyBell":false,"cctv":false,"managerTel":"0337375516","source":"public","category":"public"},{"id":"202541910000100929","name":"국민체육센터(지하2층)","lat":37.333831,"lng":127.946304,"roadAddr":"강원특별자치도 원주시 남원로 551","jibunAddr":"강원특별자치도 원주시 명륜동 555","openHours":"정시","maleToilets":7,"femaleToilets":2,"disabled":true,"diaperTable":false,"emergencyBell":false,"cctv":false,"managerTel":"0337494700","source":"public","category":"public"},{"id":"202541910000101318","name":"대영빌딩 3층 화장실","lat":37.325735,"lng":127.940562,"roadAddr":"강원특별자치도 원주시 남원로 441-6","jibunAddr":"강원특별자치도 원주시 명륜동 846-1","openHours":"정시","maleToilets":4,"femaleToilets":2,"disabled":false,"diaperTable":false,"emergencyBell":false,"cctv":false,"managerTel":"0337661246","source":"public","category":"public"},{"id":"202541910000100741","name":"홈플러스 원주점(3층)","lat":37.317721,"lng":127.967313,"roadAddr":"강원특별자치도 원주시 치악로 1489(관설동)","jibunAddr":"강원특별자치도 원주시 관설동 1453번지","openHours":"정시","maleToilets":5,"femaleToilets":4,"disabled":false,"diaperTable":true,"emergencyBell":false,"cctv":true,"managerTel":"0337698702","source":"public","category":"public"},{"id":"202541910000100590","name":"원주행복드림요양원","lat":37.352103,"lng":127.940817,"roadAddr":"강원특별자치도 원주시 남산로180","jibunAddr":"강원특별자치도 원주시 학성동 1061-5","openHours":"상시","maleToilets":0,"femaleToilets":0,"disabled":false,"diaperTable":false,"emergencyBell":true,"cctv":false,"managerTel":"0337331654","source":"public","category":"public"},{"id":"202541910000100714","name":"AK플라자 원주점(지하4층)","lat":37.34573,"lng":127.92765,"roadAddr":"강원특별자치도 원주시 봉화로 1 (단계동)","jibunAddr":"강원특별자치도 원주시 단계동 1123번지","openHours":"정시","maleToilets":7,"femaleToilets":6,"disabled":true,"diaperTable":false,"emergencyBell":false,"cctv":false,"managerTel":"16611114","source":"public","category":"public"},{"id":"202541910000100864","name":"원주주유소 ㈜디에스오일뱅크","lat":37.322655,"lng":127.962135,"roadAddr":"강원특별자치도 원주시 치악로 1563","jibunAddr":"강원특별자치도 원주시 관설동 1463-2","openHours":"상시","maleToilets":3,"femaleToilets":1,"disabled":false,"diaperTable":false,"emergencyBell":false,"cctv":false,"managerTel":"0337645188","source":"public","category":"public"},{"id":"202541910000100886","name":"(주)성림가스 북원충전소","lat":37.325623,"lng":127.95841,"roadAddr":"강원특별자치도 원주시 서원대로 497 (단구동)","jibunAddr":"강원특별자치도 원주시 단구동 735","openHours":"정시","maleToilets":2,"femaleToilets":1,"disabled":false,"diaperTable":false,"emergencyBell":false,"cctv":false,"managerTel":"0337647617","source":"public","category":"public"},{"id":"202541910000100913","name":"치악예술관","lat":37.335424,"lng":127.94466,"roadAddr":"강원특별자치도 원주시 서원대로 331","jibunAddr":"강원특별자치도 원주시 명륜동 589","openHours":"정시","maleToilets":53,"femaleToilets":26,"disabled":true,"diaperTable":false,"emergencyBell":true,"cctv":true,"managerTel":"0337639114","source":"public","category":"public"},{"id":"202541910000100858","name":"희망패트로㈜ 영일주유소","lat":37.337103,"lng":127.95608,"roadAddr":"강원특별자치도 원주시 치악로 1733 (단구동)","jibunAddr":"강원특별자치도 원주시 단구동 499-1","openHours":"정시","maleToilets":2,"femaleToilets":0,"disabled":false,"diaperTable":false,"emergencyBell":false,"cctv":false,"managerTel":"0337612187","source":"public","category":"public"},{"id":"202541910000100745","name":"원주 프리미엄 아울렛(1층)","lat":37.325592,"lng":127.957086,"roadAddr":"강원특별자치도 원주시 서원대로 500(단구동)","jibunAddr":"강원특별자치도 원주시 단구동 1599-4번지","openHours":"정시","maleToilets":4,"femaleToilets":4,"disabled":true,"diaperTable":false,"emergencyBell":false,"cctv":false,"managerTel":"0337617902","source":"public","category":"public"},{"id":"202541910000100591","name":"사랑복지센터요양원 화장실","lat":37.352103,"lng":127.940817,"roadAddr":"강원특별자치도 원주시 학성동 남산로 180","jibunAddr":"강원특별자치도 원주시 학성동 1061-5","openHours":"정시","maleToilets":4,"femaleToilets":4,"disabled":true,"diaperTable":false,"emergencyBell":true,"cctv":true,"managerTel":"0337420995","source":"public","category":"public"},{"id":"202541910000100614","name":"선","lat":37.325513,"lng":127.931438,"roadAddr":"강원특별자치도 원주시 솔우물2길 37-1","jibunAddr":"강원특별자치도 원주시 무실동 1876-3","openHours":"상시","maleToilets":0,"femaleToilets":3,"disabled":false,"diaperTable":false,"emergencyBell":true,"cctv":false,"managerTel":"0337477399","source":"public","category":"public"},{"id":"202541910000100819","name":"지에스칼텍스(주)무실신도시주유소","lat":37.331045,"lng":127.933646,"roadAddr":"강원특별자치도 원주시 시청로 170","jibunAddr":"강원특별자치도 원주시 무실동 1822-5","openHours":"정시","maleToilets":4,"femaleToilets":2,"disabled":false,"diaperTable":false,"emergencyBell":false,"cctv":false,"managerTel":"0337460330","source":"public","category":"public"},{"id":"202541910000100629","name":"연세로얄요양원 화장실","lat":37.345426,"lng":127.943503,"roadAddr":"강원특별자치도 원주시 일산초교길 14-18","jibunAddr":"강원특별자치도 원주시 일산동 291-4","openHours":"정시","maleToilets":17,"femaleToilets":8,"disabled":false,"diaperTable":false,"emergencyBell":true,"cctv":true,"managerTel":"0317330016","source":"public","category":"public"},{"id":"202541910000100605","name":"동순요양원","lat":37.3493,"lng":127.95213,"roadAddr":"강원특별자치도 원주시 평원로 33","jibunAddr":"강원특별자치도 원주시 중앙동 144","openHours":"정시","maleToilets":2,"femaleToilets":1,"disabled":true,"diaperTable":false,"emergencyBell":true,"cctv":false,"managerTel":"0337351600","source":"public","category":"public"},{"id":"202541910000101320","name":"대영빌딩 5층 화장실","lat":37.325735,"lng":127.940562,"roadAddr":"강원특별자치도 원주시 남원로 441-6","jibunAddr":"강원특별자치도 원주시 명륜동 846-1","openHours":"정시","maleToilets":4,"femaleToilets":2,"disabled":false,"diaperTable":false,"emergencyBell":false,"cctv":false,"managerTel":"0337661246","source":"public","category":"public"},{"id":"202541910000100743","name":"하나로마트 원주원예농협 본점(1층)","lat":37.341454,"lng":127.939264,"roadAddr":"강원특별자치도 원주시 무실로 182(단계동)","jibunAddr":"강원특별자치도 원주시 단계동 803-2번지","openHours":"정시","maleToilets":4,"femaleToilets":4,"disabled":true,"diaperTable":false,"emergencyBell":false,"cctv":false,"managerTel":"0337498888","source":"public","category":"public"},{"id":"202541910000100751","name":"중앙근린공원 놀이터 화장실","lat":37.337754,"lng":127.937711,"roadAddr":"강원특별자치도 원주시 무실로 235","jibunAddr":"강원특별자치도 원주시 무실동 1914","openHours":"상시","maleToilets":3,"femaleToilets":4,"disabled":true,"diaperTable":true,"emergencyBell":true,"cctv":true,"managerTel":"0337373621","source":"public","category":"public"},{"id":"202541910000100004","name":"개운동주민센터","lat":37.341049,"lng":127.959952,"roadAddr":"강원특별자치도 원주시 행구로 40","jibunAddr":"강원특별자치도 원주시 개운동 55","openHours":"정시","maleToilets":4,"femaleToilets":3,"disabled":true,"diaperTable":true,"emergencyBell":false,"cctv":false,"managerTel":"0337375512","source":"public","category":"public"},{"id":"202541910000100002","name":"중앙동행정복지센터 화장실","lat":37.352831,"lng":127.947463,"roadAddr":"강원특별자치도 원주시 충정길12","jibunAddr":"강원특별자치도 원주시 학성동 206-6","openHours":"정시","maleToilets":2,"femaleToilets":1,"disabled":true,"diaperTable":false,"emergencyBell":false,"cctv":false,"managerTel":"0337375718","source":"public","category":"public"},{"id":"202541910000100032","name":"봉산동행정복지센터 화장실","lat":37.347542,"lng":127.95696,"roadAddr":"강원특별자치도 원주시 치악로 1868","jibunAddr":"강원특별자치도 원주시 봉산동 1130-8","openHours":"정시","maleToilets":12,"femaleToilets":9,"disabled":true,"diaperTable":false,"emergencyBell":false,"cctv":true,"managerTel":"0337375522","source":"public","category":"public"},{"id":"202541910000100932","name":"국민체육센터(2층)","lat":37.333831,"lng":127.946304,"roadAddr":"강원특별자치도 원주시 남원로 551","jibunAddr":"강원특별자치도 원주시 명륜동 555","openHours":"정시","maleToilets":7,"femaleToilets":2,"disabled":true,"diaperTable":false,"emergencyBell":false,"cctv":false,"managerTel":"0337494700","source":"public","category":"public"},{"id":"202541910000100827","name":"강변주유소","lat":37.332899,"lng":127.960818,"roadAddr":"강원특별자치도 원주시 강변로 283 (단구동)","jibunAddr":"강원특별자치도 원주시 단구동 211-6","openHours":"상시","maleToilets":3,"femaleToilets":2,"disabled":false,"diaperTable":false,"emergencyBell":false,"cctv":false,"managerTel":"0337610082","source":"public","category":"public"},{"id":"202541910000100600","name":"행복둥지 화장실","lat":37.320154,"lng":127.937466,"roadAddr":"강원특별자치도 원주시 판부면 서곡널다리길39","jibunAddr":"강원특별자치도 원주시 판부면 서곡리 454-6","openHours":"상시","maleToilets":0,"femaleToilets":0,"disabled":true,"diaperTable":false,"emergencyBell":true,"cctv":false,"managerTel":"0337657862","source":"public","category":"public"},{"id":"202541910000100630","name":"행복의집","lat":37.310692,"lng":127.965145,"roadAddr":"강원특별자치도 원주시 갈촌길 86","jibunAddr":"강원특별자치도 원주시 관설동 1377-6","openHours":"정시","maleToilets":5,"femaleToilets":5,"disabled":true,"diaperTable":false,"emergencyBell":true,"cctv":false,"managerTel":"0337627040","source":"public","category":"public"},{"id":"202541910000100742","name":"홈플러스 원주점(4층)","lat":37.317721,"lng":127.967313,"roadAddr":"강원특별자치도 원주시 치악로 1489(관설동)","jibunAddr":"강원특별자치도 원주시 관설동 1453번지","openHours":"정시","maleToilets":2,"femaleToilets":2,"disabled":false,"diaperTable":false,"emergencyBell":false,"cctv":true,"managerTel":"0337698703","source":"public","category":"public"},{"id":"202541910000100046","name":"원주의료원 부설주차장","lat":37.333762,"lng":127.949167,"roadAddr":"강원특별자치도 원주시 남원로 562-9","jibunAddr":"강원특별자치도 원주시 개운동 435-3","openHours":"정시","maleToilets":2,"femaleToilets":2,"disabled":true,"diaperTable":false,"emergencyBell":true,"cctv":true,"managerTel":"0337604500","source":"public","category":"public"},{"id":"202541910000100833","name":"제일주유소","lat":37.334776,"lng":127.928403,"roadAddr":"강원특별자치도 원주시북원로 2109 (무실동)","jibunAddr":"강원특별자치도 원주시 무실동 1646","openHours":"정시","maleToilets":3,"femaleToilets":1,"disabled":false,"diaperTable":false,"emergencyBell":false,"cctv":false,"managerTel":"0337314215","source":"public","category":"public"},{"id":"202541910000100718","name":"AK플라자 원주점(2층)","lat":37.34573,"lng":127.92765,"roadAddr":"강원특별자치도 원주시 봉화로 1 (단계동)","jibunAddr":"강원특별자치도 원주시 단계동 1123번지","openHours":"정시","maleToilets":9,"femaleToilets":8,"disabled":true,"diaperTable":false,"emergencyBell":false,"cctv":true,"managerTel":"16611114","source":"public","category":"public"},{"id":"202541910000100919","name":"드림아트홀","lat":37.352103,"lng":127.946642,"roadAddr":"강원특별자치도 원주시 원일로 151","jibunAddr":"강원특별자치도 원주시 일산동 213-1","openHours":"정시","maleToilets":4,"femaleToilets":3,"disabled":false,"diaperTable":false,"emergencyBell":false,"cctv":false,"managerTel":"0337441237","source":"public","category":"public"},{"id":"202541910000100917","name":"어울림소극장","lat":37.346279,"lng":127.953772,"roadAddr":"강원특별자치도 원주시 중앙로 27","jibunAddr":"강원특별자치도 원주시 인동 242-1","openHours":"불규칙","maleToilets":3,"femaleToilets":2,"disabled":false,"diaperTable":false,"emergencyBell":false,"cctv":false,"source":"public","category":"public"},{"id":"202541910000100930","name":"국민체육센터(지하1층)","lat":37.333831,"lng":127.946304,"roadAddr":"강원특별자치도 원주시 남원로 551","jibunAddr":"강원특별자치도 원주시 명륜동 555","openHours":"정시","maleToilets":8,"femaleToilets":2,"disabled":true,"diaperTable":false,"emergencyBell":false,"cctv":false,"managerTel":"0337494700","source":"public","category":"public"},{"id":"202541910000100634","name":"원주의료원 장례식장","lat":37.332805,"lng":127.949041,"roadAddr":"강원특별자치도 원주시 서원대로 387","jibunAddr":"강원특별자치도 원주시 개운동 437","openHours":"상시","maleToilets":29,"femaleToilets":21,"disabled":true,"diaperTable":false,"emergencyBell":false,"cctv":true,"managerTel":"0337604500","source":"public","category":"public"},{"id":"202541910000100916","name":"소공연장B도로","lat":37.348885,"lng":127.951008,"roadAddr":"강원특별자치도 원주시 중앙로 89","jibunAddr":"강원특별자치도 원주시 중앙동 118-3?","openHours":"정시","maleToilets":3,"femaleToilets":1,"disabled":true,"diaperTable":false,"emergencyBell":false,"cctv":false,"managerTel":"0337343688","source":"public","category":"public"},{"id":"202541910000100588","name":"부승노인전문요양원(학성점)","lat":37.353346,"lng":127.945693,"roadAddr":"강원특별자치도 원주시 원일로 173","jibunAddr":"강원특별자치도 원주시 학성동 223-8","openHours":"정시","maleToilets":2,"femaleToilets":1,"disabled":true,"diaperTable":false,"emergencyBell":false,"cctv":false,"managerTel":"0337453366","source":"public","category":"public"},{"id":"202541910000100757","name":"장미공원 화장실","lat":37.346972,"lng":127.93071,"roadAddr":"강원특별자치도 원주시 장미공원길 43-3","jibunAddr":"강원특별자치도 원주시 단계동 854","openHours":"상시","maleToilets":4,"femaleToilets":4,"disabled":true,"diaperTable":false,"emergencyBell":true,"cctv":true,"managerTel":"0337373621","source":"public","category":"public"},{"id":"202541910000100620","name":"휴요양원 화장실","lat":37.344192,"lng":127.9667,"roadAddr":"강원특별자치도 원주시 봉산로117","jibunAddr":"강원특별자치도 원주시 봉산동 820","openHours":"상시","maleToilets":15,"femaleToilets":25,"disabled":true,"diaperTable":false,"emergencyBell":true,"cctv":false,"managerTel":"0337467800","source":"public","category":"public"},{"id":"202541910000100713","name":"원주종합버스터미널 화장실","lat":37.345156,"lng":127.930757,"roadAddr":"강원특별자치도 원주시 서원대로 171","jibunAddr":"강원특별자치도 원주시 단계동 877-1","openHours":"상시","maleToilets":18,"femaleToilets":12,"disabled":true,"diaperTable":true,"emergencyBell":false,"cctv":true,"managerTel":"0337373524","source":"public","category":"public"},{"id":"202541910000100807","name":"(주)이엠지 정상주유소","lat":37.330668,"lng":127.942441,"roadAddr":"강원특별자치도 원주시 한지공원길 42 (명륜동)","jibunAddr":"강원특별자치도 원주시 명륜동 635-16","openHours":"정시","maleToilets":3,"femaleToilets":2,"disabled":false,"diaperTable":false,"emergencyBell":false,"cctv":false,"managerTel":"0337646504","source":"public","category":"public"},{"id":"202541910000100868","name":"CJ대한통운㈜ 무실점주유소","lat":37.338135,"lng":127.930455,"roadAddr":"강원특별자치도 원주시 북원로 2151","jibunAddr":"강원특별자치도 원주시 무실동 370","openHours":"정시","maleToilets":4,"femaleToilets":1,"disabled":false,"diaperTable":false,"emergencyBell":false,"cctv":false,"managerTel":"0337435104","source":"public","category":"public"},{"id":"202541910000100834","name":"남송주유소","lat":37.319366,"lng":127.939849,"roadAddr":"강원특별자치도 원주시 판부면 남원로 380","jibunAddr":"강원특별자치도 원주시 판부면 서곡리 440-4","openHours":"상시","maleToilets":2,"femaleToilets":1,"disabled":false,"diaperTable":false,"emergencyBell":false,"cctv":false,"managerTel":"0337615054","source":"public","category":"public"},{"id":"202541910000100749","name":"원주 프리미엄 아울렛(5층)","lat":37.325592,"lng":127.957086,"roadAddr":"강원특별자치도 원주시 서원대로 500(단구동)","jibunAddr":"강원특별자치도 원주시 단구동 1599-4번지","openHours":"정시","maleToilets":3,"femaleToilets":2,"disabled":false,"diaperTable":false,"emergencyBell":false,"cctv":false,"managerTel":"0337617906","source":"public","category":"public"},{"id":"202541910000100730","name":"자유시장(지하1층)","lat":37.350228,"lng":127.948625,"roadAddr":"강원특별자치도 원주시 중앙시장길 11 (중앙동)","jibunAddr":"강원특별자치도 원주시 중앙동 57번지","openHours":"정시","maleToilets":10,"femaleToilets":10,"disabled":false,"diaperTable":true,"emergencyBell":true,"cctv":true,"managerTel":"0337465037","source":"public","category":"public"},{"id":"202541910000100644","name":"중앙청소년문화의집","lat":37.348885,"lng":127.951008,"roadAddr":"강원특별자치도 원주시 중앙로 89","jibunAddr":"강원특별자치도 원주시 중앙동 118-3?","openHours":"정시","maleToilets":3,"femaleToilets":1,"disabled":true,"diaperTable":false,"emergencyBell":false,"cctv":false,"managerTel":"0337343688","source":"public","category":"public"},{"id":"202541910000100715","name":"AK플라자 원주점(지하3층)","lat":37.34573,"lng":127.92765,"roadAddr":"강원특별자치도 원주시 봉화로 1 (단계동)","jibunAddr":"강원특별자치도 원주시 단계동 1123번지","openHours":"정시","maleToilets":7,"femaleToilets":6,"disabled":true,"diaperTable":false,"emergencyBell":false,"cctv":false,"managerTel":"16611114","source":"public","category":"public"},{"id":"202541910000100898","name":"원주남부 복합체육센터 화장실","lat":37.339763,"lng":127.93012,"roadAddr":"강원특별자치도 원주시 이화5길 70","jibunAddr":"강원특별자치도 원주시 무실동 산48-8","openHours":"정시","maleToilets":10,"femaleToilets":9,"disabled":true,"diaperTable":false,"emergencyBell":true,"cctv":false,"managerTel":"0337374962","source":"public","category":"public"},{"id":"202541910000100744","name":"하나로마트 원주원예농협 본점(2층)","lat":37.341454,"lng":127.939264,"roadAddr":"강원특별자치도 원주시 무실로 182(단계동)","jibunAddr":"강원특별자치도 원주시 단계동 803-2번지","openHours":"정시","maleToilets":2,"femaleToilets":2,"disabled":false,"diaperTable":false,"emergencyBell":false,"cctv":false,"managerTel":"0337498888","source":"public","category":"public"},{"id":"202541910000100017","name":"판부면행정복지센터 화장실","lat":37.318588,"lng":127.96644,"roadAddr":"강원특별자치도 원주시 치악로 1503","jibunAddr":"강원특별자치도 원주시 관설동 1452-9","openHours":"정시","maleToilets":4,"femaleToilets":1,"disabled":true,"diaperTable":false,"emergencyBell":false,"cctv":false,"managerTel":"0337375508","source":"public","category":"public"},{"id":"202541910000100766","name":"학성공원 화장실","lat":37.343252,"lng":127.931615,"roadAddr":"강원특별자치도 원주시 이화5길 6","jibunAddr":"강원특별자치도 원주시 학성동 1065","openHours":"상시","maleToilets":3,"femaleToilets":2,"disabled":true,"diaperTable":true,"emergencyBell":true,"cctv":false,"managerTel":"0337373621","source":"public","category":"public"},{"id":"202541910000100914","name":"댄싱공연장","lat":37.336323,"lng":127.945954,"roadAddr":"강원특별자치도 원주시 단구로170","jibunAddr":"강원특별자치도 원주시 명륜동 345","openHours":"정시","maleToilets":73,"femaleToilets":50,"disabled":true,"diaperTable":false,"emergencyBell":true,"cctv":true,"managerTel":"0337639114","source":"public","category":"public"},{"id":"202541910000100010","name":"원인동 행정복지센터 1층 화장실","lat":37.34562,"lng":127.946793,"roadAddr":"강원특별자치도 원주시 무실로 63","jibunAddr":"강원특별자치도 원주시 원동 253","openHours":"정시","maleToilets":4,"femaleToilets":2,"disabled":true,"diaperTable":false,"emergencyBell":false,"cctv":false,"managerTel":"0337375511","source":"public","category":"public"},{"id":"202541910000100883","name":"원주역충전소","lat":37.313369,"lng":127.931063,"roadAddr":"강원특별자치도 원주시 판부면 남원로 259","jibunAddr":"강원특별자치도 원주시 판부면 서곡리 621-2","openHours":"정시","maleToilets":2,"femaleToilets":1,"disabled":false,"diaperTable":false,"emergencyBell":false,"cctv":false,"managerTel":"0337668600","source":"public","category":"public"},{"id":"202541910000101317","name":"대영빌딩 1층 화장실","lat":37.325735,"lng":127.940562,"roadAddr":"강원특별자치도 원주시 남원로 441-6","jibunAddr":"강원특별자치도 원주시 명륜동 846-1","openHours":"정시","maleToilets":4,"femaleToilets":2,"disabled":false,"diaperTable":false,"emergencyBell":false,"cctv":false,"managerTel":"0337661246","source":"public","category":"public"},{"id":"202541910000100627","name":"원주어르신사랑요양원","lat":37.329512,"lng":127.949785,"roadAddr":"강원특별자치도 원주시 남원로 528-31","jibunAddr":"강원특별자치도 원주시 단구동 1514-3","openHours":"정시","maleToilets":2,"femaleToilets":1,"disabled":false,"diaperTable":false,"emergencyBell":false,"cctv":false,"managerTel":"0337661532","source":"public","category":"public"},{"id":"202541910000100044","name":"원주의료원","lat":37.332805,"lng":127.949041,"roadAddr":"강원특별자치도 원주시 서원대로 387","jibunAddr":"강원특별자치도 원주시 개운동 437","openHours":"정시","maleToilets":19,"femaleToilets":19,"disabled":true,"diaperTable":true,"emergencyBell":true,"cctv":true,"managerTel":"0337604500","source":"public","category":"public"},{"id":"202541910000100753","name":"중앙근린공원 서원주초 인근 둘레길 입구 화장실","lat":37.337754,"lng":127.937711,"roadAddr":"강원특별자치도 원주시 무실로 235","jibunAddr":"강원특별자치도 원주시 무실동 1914","openHours":"상시","maleToilets":3,"femaleToilets":4,"disabled":true,"diaperTable":false,"emergencyBell":true,"cctv":true,"managerTel":"0337373621","source":"public","category":"public"},{"id":"202541910000100018","name":"학성동행정복지센터(1층)","lat":37.353499,"lng":127.944197,"roadAddr":"강원특별자치도 원주시 학성길 116","jibunAddr":"강원특별자치도 원주시 학성동 223-29","openHours":"정시","maleToilets":3,"femaleToilets":2,"disabled":true,"diaperTable":false,"emergencyBell":false,"cctv":false,"managerTel":"0337375809","source":"public","category":"public"},{"id":"202541910000100028","name":"명륜2동 행정복지센터 2층","lat":37.331625,"lng":127.943918,"roadAddr":"강원특별자치도 원주시 황소마을길 30","jibunAddr":"강원특별자치도 원주시 명륜동 640-1","openHours":"정시","maleToilets":3,"femaleToilets":2,"disabled":false,"diaperTable":false,"emergencyBell":false,"cctv":false,"managerTel":"0337375937","source":"public","category":"public"},{"id":"202541910000100037","name":"무실동 행정복지센터(1층)","lat":37.338194,"lng":127.929245,"roadAddr":"강원특별자치도 원주시 만대공원길 14-10","jibunAddr":"강원특별자치도 원주시 무실동 1733-8","openHours":"정시","maleToilets":4,"femaleToilets":3,"disabled":true,"diaperTable":false,"emergencyBell":false,"cctv":true,"managerTel":"0337375895","source":"public","category":"public"},{"id":"202541910000100643","name":"원주청소년문화의집 화장실","lat":37.352446,"lng":127.936811,"roadAddr":"강원특별자치도 원주시 백간길119","jibunAddr":"강원특별자치도 원주시 학성동 1064-2","openHours":"정시","maleToilets":4,"femaleToilets":2,"disabled":true,"diaperTable":false,"emergencyBell":true,"cctv":false,"managerTel":"0337450873","source":"public","category":"public"},{"id":"202541910000100750","name":"롯데슈퍼 원주점(1층)","lat":37.341366,"lng":127.954856,"roadAddr":"강원특별자치도 원주시 치악로 1781(개운동)","jibunAddr":"강원특별자치도 원주시 개운동 118-2번지","openHours":"정시","maleToilets":6,"femaleToilets":3,"disabled":true,"diaperTable":false,"emergencyBell":false,"cctv":false,"managerTel":"0337641148","source":"public","category":"public"},{"id":"202541910000101309","name":"한국불교치악산관음사","lat":37.341628,"lng":127.960417,"roadAddr":"강원특별자치도 원주시 행구로 41","jibunAddr":"강원특별자치도 원주시 행구동 41","openHours":"상시","maleToilets":5,"femaleToilets":4,"disabled":true,"diaperTable":false,"emergencyBell":true,"cctv":true,"source":"public","category":"public"},{"id":"202541910000100756","name":"남산근린공원 화장실","lat":37.343322,"lng":127.949957,"roadAddr":"강원특별자치도 원주시 남산고개길 55","jibunAddr":"강원특별자치도 원주시 명륜동 산2-4","openHours":"상시","maleToilets":2,"femaleToilets":2,"disabled":true,"diaperTable":true,"emergencyBell":true,"cctv":true,"managerTel":"0337373621","source":"public","category":"public"},{"id":"202541910000100615","name":"남,녀 화장실","lat":37.352103,"lng":127.940817,"roadAddr":"강원특별자치도 원주시 남산로 180","jibunAddr":"강원특별자치도 원주시학성동 1061-5","openHours":"상시","maleToilets":4,"femaleToilets":3,"disabled":true,"diaperTable":false,"emergencyBell":true,"cctv":false,"managerTel":"0337326080","source":"public","category":"public"},{"id":"202541910000100926","name":"종합운동장 통로(1층)","lat":37.336848,"lng":127.943672,"roadAddr":"강원특별자치도 원주시 서원대로 311","jibunAddr":"강원특별자치도 원주시 명륜동 342","openHours":"상시","maleToilets":5,"femaleToilets":2,"disabled":true,"diaperTable":false,"emergencyBell":true,"cctv":false,"managerTel":"0337494719","source":"public","category":"public"},{"id":"202541910000100732","name":"중앙시장(1층)","lat":37.350073,"lng":127.94878,"roadAddr":"강원특별자치도 원주시 중앙시장길 2 (중앙동)","jibunAddr":"강원특별자치도 원주시 중앙동 60-1번지","openHours":"정시","maleToilets":0,"femaleToilets":2,"disabled":false,"diaperTable":false,"emergencyBell":true,"cctv":false,"managerTel":"0337435270","source":"public","category":"public"},{"id":"202541910000100642","name":"원주시청소년수련관 화장실","lat":37.340962,"lng":127.935636,"roadAddr":"강원특별자치도 원주시 서원대로 234","jibunAddr":"강원특별자치도 원주시 단계동 909","openHours":"정시","maleToilets":41,"femaleToilets":20,"disabled":true,"diaperTable":false,"emergencyBell":true,"cctv":false,"managerTel":"0337429997","source":"public","category":"public"},{"id":"202541910000100724","name":"롯데마트 원주점(지하1층)","lat":37.34573,"lng":127.92765,"roadAddr":"강원특별자치도 원주시 봉화로 1 (단계동)","jibunAddr":"강원특별자치도 원주시 단계동 1123번지","openHours":"정시","maleToilets":7,"femaleToilets":6,"disabled":true,"diaperTable":false,"emergencyBell":false,"cctv":false,"managerTel":"0337492500","source":"public","category":"public"},{"id":"202541910000100746","name":"원주 프리미엄 아울렛(2층)","lat":37.325592,"lng":127.957086,"roadAddr":"강원특별자치도 원주시 서원대로 500(단구동)","jibunAddr":"강원특별자치도 원주시 단구동 1599-4번지","openHours":"정시","maleToilets":7,"femaleToilets":6,"disabled":false,"diaperTable":false,"emergencyBell":false,"cctv":false,"managerTel":"0337617903","source":"public","category":"public"},{"id":"202541910000100722","name":"AK플라자 원주점(6층)","lat":37.34573,"lng":127.92765,"roadAddr":"강원특별자치도 원주시 봉화로 1 (단계동)","jibunAddr":"강원특별자치도 원주시 단계동 1123번지","openHours":"정시","maleToilets":9,"femaleToilets":8,"disabled":true,"diaperTable":false,"emergencyBell":false,"cctv":true,"managerTel":"16611114","source":"public","category":"public"},{"id":"202541910000100760","name":"단계조각공원 화장실","lat":37.341395,"lng":127.938371,"roadAddr":"강원특별자치도 원주시 무실로 176번길 11-8","jibunAddr":"강원특별자치도 원주시 단계동 341-53","openHours":"상시","maleToilets":1,"femaleToilets":1,"disabled":true,"diaperTable":true,"emergencyBell":true,"cctv":true,"managerTel":"0337373621","source":"public","category":"public"},{"id":"202541910000100617","name":"원주로얄요양원","lat":37.345088,"lng":127.94336,"roadAddr":"강원특별자치도 원주시 남산로 80-1","jibunAddr":"강원특별자치도 원주시 일산동 291-28","openHours":"정시","maleToilets":1,"femaleToilets":0,"disabled":true,"diaperTable":false,"emergencyBell":true,"cctv":true,"managerTel":"0337360082","source":"public","category":"public"},{"id":"202541910000100586","name":"가온은빛봄날요양원 화장실","lat":37.329512,"lng":127.949785,"roadAddr":"강원특별자치도 원주시 남원로 528-31","jibunAddr":"강원특별자치도 원주시 단구동 1514-3","openHours":"상시","maleToilets":0,"femaleToilets":0,"disabled":true,"diaperTable":false,"emergencyBell":true,"cctv":false,"managerTel":"0337453321","source":"public","category":"public"},{"id":"202541910000100739","name":"홈플러스 원주점(1층)","lat":37.317721,"lng":127.967313,"roadAddr":"강원특별자치도 원주시 치악로 1489(관설동)","jibunAddr":"강원특별자치도 원주시 관설동 1453번지","openHours":"정시","maleToilets":7,"femaleToilets":6,"disabled":true,"diaperTable":false,"emergencyBell":false,"cctv":true,"managerTel":"0337698700","source":"public","category":"public"},{"id":"202541910000100752","name":"중앙근린공원 지하주차장 화장실","lat":37.337754,"lng":127.937711,"roadAddr":"강원특별자치도 원주시 무실로 235","jibunAddr":"강원특별자치도 원주시 무실동 1914","openHours":"상시","maleToilets":2,"femaleToilets":2,"disabled":true,"diaperTable":false,"emergencyBell":true,"cctv":true,"managerTel":"0337373621","source":"public","category":"public"},{"id":"202541910000100781","name":"개운주유소","lat":37.341331,"lng":127.961421,"roadAddr":"강원특별자치도 원주시 행구로 50","jibunAddr":"강원특별자치도 원주시 개운동 37-7","openHours":"상시","maleToilets":1,"femaleToilets":0,"disabled":false,"diaperTable":false,"emergencyBell":false,"cctv":false,"managerTel":"0337617176","source":"public","category":"public"},{"id":"202541910000100011","name":"일산동행정복지센터(1층) 화장실","lat":37.349664,"lng":127.942151,"roadAddr":"강원특별자치도 원주시 천사로 159","jibunAddr":"강원특별자치도 원주시 일산동 219-17","openHours":"정시","maleToilets":3,"femaleToilets":3,"disabled":false,"diaperTable":false,"emergencyBell":false,"cctv":false,"managerTel":"0337375516","source":"public","category":"public"},{"id":"202541910000100612","name":"믿음요양원 1층화장실","lat":37.333796,"lng":127.949928,"roadAddr":"강원특별자치도 원주시 송림길 18","jibunAddr":"강원특별자치도 원주시 개운동 436-1","openHours":"상시","maleToilets":2,"femaleToilets":3,"disabled":true,"diaperTable":false,"emergencyBell":true,"cctv":true,"managerTel":"0337642235","source":"public","category":"public"},{"id":"202541910000100717","name":"AK플라자 원주점(2층 4호기)","lat":37.34573,"lng":127.92765,"roadAddr":"강원특별자치도 원주시 봉화로 1 (단계동)","jibunAddr":"강원특별자치도 원주시 단계동 1123번지","openHours":"정시","maleToilets":5,"femaleToilets":5,"disabled":true,"diaperTable":false,"emergencyBell":false,"cctv":true,"managerTel":"16611114","source":"public","category":"public"},{"id":"202541910000100603","name":"모아요양원","lat":37.348636,"lng":127.9498,"roadAddr":"강원특별자치도 원주시 원일로 89","jibunAddr":"강원특별자치도 원주시 일산동 53-2","openHours":"정시","maleToilets":6,"femaleToilets":3,"disabled":false,"diaperTable":true,"emergencyBell":true,"cctv":true,"managerTel":"0337461100","source":"public","category":"public"},{"id":"202541910000100731","name":"자유시장(2층)","lat":37.350228,"lng":127.948625,"roadAddr":"강원특별자치도 원주시 중앙시장길 11 (중앙동)","jibunAddr":"강원특별자치도 원주시 중앙동 57번지","openHours":"정시","maleToilets":11,"femaleToilets":8,"disabled":false,"diaperTable":false,"emergencyBell":true,"cctv":false,"managerTel":"0337465037","source":"public","category":"public"},{"id":"202541910000100584","name":"원주그림책도서관","lat":37.341063,"lng":127.949287,"roadAddr":"강원특별자치도 원주시 향교길 77","jibunAddr":"강원특별자치도 원주시 명륜동 138","openHours":"정시","maleToilets":11,"femaleToilets":9,"disabled":true,"diaperTable":false,"emergencyBell":true,"cctv":false,"managerTel":"0337375485","source":"public","category":"public"},{"id":"202541910000100598","name":"연세요양센터","lat":37.339763,"lng":127.951853,"roadAddr":"강원특별자치도 원주시 남원로 631","jibunAddr":"강원특별자치도 원주시 명륜동 120-1","openHours":"상시","maleToilets":0,"femaleToilets":0,"disabled":false,"diaperTable":false,"emergencyBell":true,"cctv":true,"managerTel":"0337696150","source":"public","category":"public"},{"id":"202541910000100765","name":"이화공원 화장실","lat":37.343252,"lng":127.931615,"roadAddr":"강원특별자치도 원주시 이화5길 6","jibunAddr":"강원특별자치도 원주시 단계동 1223","openHours":"상시","maleToilets":2,"femaleToilets":1,"disabled":true,"diaperTable":true,"emergencyBell":true,"cctv":true,"managerTel":"0337373621","source":"public","category":"public"},{"id":"202541910000100582","name":"원주시립도서관","lat":37.326515,"lng":127.953844,"roadAddr":"강원특별자치도 원주시 서원대로 472-12","jibunAddr":"강원특별자치도 원주시 단구동 990","openHours":"정시","maleToilets":25,"femaleToilets":14,"disabled":true,"diaperTable":false,"emergencyBell":true,"cctv":false,"managerTel":"0337374583","source":"public","category":"public"},{"id":"202541910000100733","name":"중앙시장(2층)","lat":37.350073,"lng":127.94878,"roadAddr":"강원특별자치도 원주시 중앙시장길 2 (중앙동)","jibunAddr":"강원특별자치도 원주시 중앙동 60-1번지","openHours":"정시","maleToilets":15,"femaleToilets":8,"disabled":false,"diaperTable":false,"emergencyBell":true,"cctv":false,"managerTel":"0337435270","source":"public","category":"public"},{"id":"202541910000100723","name":"AK플라자 원주점(7층)","lat":37.34573,"lng":127.92765,"roadAddr":"강원특별자치도 원주시 봉화로 1 (단계동)","jibunAddr":"강원특별자치도 원주시 단계동 1123번지","openHours":"정시","maleToilets":5,"femaleToilets":3,"disabled":true,"diaperTable":false,"emergencyBell":false,"cctv":true,"managerTel":"16611114","source":"public","category":"public"},{"id":"202541910000100593","name":"사랑나눔의집2 화장실","lat":37.3185,"lng":127.965872,"roadAddr":"강원특별자치도 원주시 나비허리길 169","jibunAddr":"강원특별자치도 원주시 관설동 145","openHours":"상시","maleToilets":1,"femaleToilets":1,"disabled":false,"diaperTable":false,"emergencyBell":true,"cctv":true,"managerTel":"0337613585","source":"public","category":"public"},{"id":"202541910000100809","name":"남부시장주유소","lat":37.339341,"lng":127.951971,"roadAddr":"강원특별자치도 원주시 남원로 629 (명륜동)","jibunAddr":"강원특별자치도 원주시 명륜동 268","openHours":"정시","maleToilets":1,"femaleToilets":0,"disabled":false,"diaperTable":false,"emergencyBell":false,"cctv":false,"managerTel":"0337655144","source":"public","category":"public"},{"id":"202541910000100720","name":"AK플라자 원주점(4층)","lat":37.34573,"lng":127.92765,"roadAddr":"강원특별자치도 원주시 봉화로 1 (단계동)","jibunAddr":"강원특별자치도 원주시 단계동 1123번지","openHours":"정시","maleToilets":9,"femaleToilets":8,"disabled":true,"diaperTable":false,"emergencyBell":false,"cctv":true,"managerTel":"16611114","source":"public","category":"public"},{"id":"202541910000100020","name":"단구동 행정복지센터 화장실","lat":37.326095,"lng":127.960274,"roadAddr":"강원특별자치도 원주시 치악로 1605(단구동)","jibunAddr":"강원특별자치도 원주시 단구동 145","openHours":"정시","maleToilets":10,"femaleToilets":10,"disabled":true,"diaperTable":false,"emergencyBell":false,"cctv":false,"managerTel":"0337375183","source":"public","category":"public"},{"id":"202541910000100813","name":"청용3주유소","lat":37.35177,"lng":127.955285,"roadAddr":"강원특별자치도 원주시 치악로 1913 (봉산동)","jibunAddr":"강원특별자치도 원주시 봉산동 1033-4","openHours":"상시","maleToilets":1,"femaleToilets":0,"disabled":false,"diaperTable":false,"emergencyBell":false,"cctv":false,"managerTel":"0337452811","source":"public","category":"public"},{"id":"202541910000100027","name":"명륜2동 행정복지센터 1층","lat":37.331625,"lng":127.943918,"roadAddr":"강원특별자치도 원주시 황소마을길 30","jibunAddr":"강원특별자치도 원주시 명륜동 640-1","openHours":"정시","maleToilets":5,"femaleToilets":3,"disabled":true,"diaperTable":false,"emergencyBell":true,"cctv":true,"managerTel":"0337375937","source":"public","category":"public"},{"id":"202541910000100849","name":"HD현대오일뱅크㈜직영 평원현대주유소","lat":37.352757,"lng":127.949759,"roadAddr":"강원특별자치도 원주시 천사로 235 (평원동)","jibunAddr":"강원특별자치도 원주시 평원동 184-3","openHours":"정시","maleToilets":3,"femaleToilets":1,"disabled":false,"diaperTable":false,"emergencyBell":false,"cctv":false,"managerTel":"0337463131","source":"public","category":"public"},{"id":"202541910000100023","name":"단계동행정복지센터 3층","lat":37.352634,"lng":127.934459,"roadAddr":"강원특별자치도 원주시 북원로 2321","jibunAddr":"강원특별자치도 원주시 단계동 1081-3","openHours":"정시","maleToilets":4,"femaleToilets":4,"disabled":true,"diaperTable":false,"emergencyBell":true,"cctv":false,"managerTel":"0337375817","source":"public","category":"public"},{"id":"202541910000100738","name":"중앙시민전통시장(1층)","lat":37.35155,"lng":127.949754,"roadAddr":"강원특별자치도 원주시 중앙시장길 35-4 (중앙동)","jibunAddr":"강원특별자치도 원주시 중앙동 42-6번지","openHours":"정시","maleToilets":6,"femaleToilets":4,"disabled":true,"diaperTable":true,"emergencyBell":true,"cctv":false,"managerTel":"0337326501","source":"public","category":"public"},{"id":"202541910000100721","name":"AK플라자 원주점(5층)","lat":37.34573,"lng":127.92765,"roadAddr":"강원특별자치도 원주시 봉화로 1 (단계동)","jibunAddr":"강원특별자치도 원주시 단계동 1123번지","openHours":"정시","maleToilets":9,"femaleToilets":8,"disabled":true,"diaperTable":false,"emergencyBell":false,"cctv":true,"managerTel":"16611114","source":"public","category":"public"},{"id":"202541910000100747","name":"원주 프리미엄 아울렛(3층)","lat":37.325592,"lng":127.957086,"roadAddr":"강원특별자치도 원주시 서원대로 500(단구동)","jibunAddr":"강원특별자치도 원주시 단구동 1599-4번지","openHours":"정시","maleToilets":7,"femaleToilets":6,"disabled":false,"diaperTable":false,"emergencyBell":false,"cctv":false,"managerTel":"0337617904","source":"public","category":"public"},{"id":"202541910000100895","name":"(주)성림이앤에스","lat":37.350909,"lng":127.934254,"roadAddr":"강원특별자치도 원주시 북원로 2302  (단계동)","jibunAddr":"강원특별자치도 원주시 단계동 199","openHours":"정시","maleToilets":2,"femaleToilets":1,"disabled":false,"diaperTable":false,"emergencyBell":false,"cctv":false,"managerTel":"0337421112","source":"public","category":"public"},{"id":"202541910000100755","name":"일산근린공원 화장실","lat":37.347399,"lng":127.940004,"jibunAddr":"강원특별자치도 원주시 일산동 367","openHours":"상시","maleToilets":2,"femaleToilets":2,"disabled":true,"diaperTable":true,"emergencyBell":true,"cctv":true,"managerTel":"0337373621","source":"public","category":"public"},{"id":"202541910000100737","name":"남부시장(1층)","lat":37.343115,"lng":127.954481,"roadAddr":"강원특별자치도 원주시 치악로 1803 (명륜동)","jibunAddr":"강원특별자치도 원주시 명륜동 26번지","openHours":"정시","maleToilets":6,"femaleToilets":4,"disabled":false,"diaperTable":false,"emergencyBell":false,"cctv":false,"managerTel":"0337661110","source":"public","category":"public"},{"id":"202541910000100748","name":"원주 프리미엄 아울렛(4층)","lat":37.325592,"lng":127.957086,"roadAddr":"강원특별자치도 원주시 서원대로 500(단구동)","jibunAddr":"강원특별자치도 원주시 단구동 1599-4번지","openHours":"정시","maleToilets":7,"femaleToilets":6,"disabled":false,"diaperTable":false,"emergencyBell":false,"cctv":false,"managerTel":"0337617905","source":"public","category":"public"},{"id":"202541910000100019","name":"학성동행정복지센터(2층)","lat":37.353499,"lng":127.944197,"roadAddr":"강원특별자치도 원주시 학성길 116","jibunAddr":"강원특별자치도 원주시 학성동 223-29","openHours":"정시","maleToilets":4,"femaleToilets":1,"disabled":false,"diaperTable":false,"emergencyBell":false,"cctv":false,"managerTel":"0337375809","source":"public","category":"public"},{"id":"202541910000100772","name":"유원주유소","lat":37.352351,"lng":127.928223,"roadAddr":"강원특별자치도 원주시 봉화로 87 (단계동)","jibunAddr":"강원특별자치도 원주시 단계동 455-16","openHours":"정시","maleToilets":3,"femaleToilets":1,"disabled":false,"diaperTable":false,"emergencyBell":false,"cctv":false,"managerTel":"0337315257","source":"public","category":"public"},{"id":"202541910000100716","name":"AK플라자 원주점(1층)","lat":37.34573,"lng":127.92765,"roadAddr":"강원특별자치도 원주시 봉화로 1 (단계동)","jibunAddr":"강원특별자치도 원주시 단계동 1123번지","openHours":"정시","maleToilets":9,"femaleToilets":9,"disabled":true,"diaperTable":false,"emergencyBell":false,"cctv":true,"managerTel":"16611114","source":"public","category":"public"},{"id":"202541910000100758","name":"만대공원 화장실","lat":37.338995,"lng":127.927156,"roadAddr":"강원특별자치도 원주시 만대공원길 30-7","jibunAddr":"강원특별자치도 원주시 무실동 1768-1","openHours":"상시","maleToilets":3,"femaleToilets":1,"disabled":false,"diaperTable":false,"emergencyBell":true,"cctv":true,"managerTel":"0337373621","source":"public","category":"public"},{"id":"202541910000100608","name":"서울연세요앙원","lat":37.340865,"lng":127.953745,"roadAddr":"강원특별자치도 원주시 남원로 652","jibunAddr":"강원특별자치도 원주시 개운동 277-17","openHours":"정시","maleToilets":0,"femaleToilets":0,"disabled":true,"diaperTable":false,"emergencyBell":true,"cctv":false,"managerTel":"0337615800","source":"public","category":"public"},{"id":"202541910000100931","name":"국민체육센터(1층)","lat":37.333831,"lng":127.946304,"roadAddr":"강원특별자치도 원주시 남원로 551","jibunAddr":"강원특별자치도 원주시 명륜동 555","openHours":"정시","maleToilets":7,"femaleToilets":2,"disabled":true,"diaperTable":false,"emergencyBell":false,"cctv":true,"managerTel":"0337494700","source":"public","category":"public"},{"id":"202541910000100899","name":"원주배드민턴전용경기장 화장실","lat":37.333243,"lng":127.936285,"roadAddr":"강원특별자치도 원주시 한지공원길 117-2","jibunAddr":"강원특별자치도 원주시 무실동 1918","openHours":"정시","maleToilets":4,"femaleToilets":4,"disabled":true,"diaperTable":false,"emergencyBell":true,"cctv":false,"managerTel":"0337374630","source":"public","category":"public"},{"id":"202541910000100933","name":"국민체육센터(3층)","lat":37.333831,"lng":127.946304,"roadAddr":"강원특별자치도 원주시 남원로 551","jibunAddr":"강원특별자치도 원주시 명륜동 555","openHours":"정시","maleToilets":2,"femaleToilets":1,"disabled":false,"diaperTable":false,"emergencyBell":false,"cctv":false,"managerTel":"0337494700","source":"public","category":"public"},{"id":"202541910000100021","name":"단계동행정복지센터 1층","lat":37.352634,"lng":127.934459,"roadAddr":"강원특별자치도 원주시 북원로 2321","jibunAddr":"강원특별자치도 원주시 단계동 1081-3","openHours":"정시","maleToilets":4,"femaleToilets":4,"disabled":true,"diaperTable":false,"emergencyBell":true,"cctv":false,"managerTel":"0337375817","source":"public","category":"public"},{"id":"202541910000100628","name":"천사노인요양원","lat":37.350574,"lng":127.968074,"roadAddr":"강원특별자치도 원주시 개륜1길 63","jibunAddr":"강원특별자치도 원주시 봉산동 753-1","openHours":"정시","maleToilets":4,"femaleToilets":3,"disabled":true,"diaperTable":false,"emergencyBell":true,"cctv":false,"managerTel":"0337478555","source":"public","category":"public"},{"id":"202541910000100848","name":"원주강가주유소","lat":37.344259,"lng":127.928199,"roadAddr":"강원특별자치도 원주시 서원대로 154 (단계동)","jibunAddr":"강원특별자치도 원주시 단계동 879-1","openHours":"상시","maleToilets":3,"femaleToilets":2,"disabled":false,"diaperTable":false,"emergencyBell":false,"cctv":false,"managerTel":"0337437814","source":"public","category":"public"},{"id":"202541910000100039","name":"무실동 행정복지센터(3층)","lat":37.338194,"lng":127.929245,"roadAddr":"강원특별자치도 원주시 만대공원길 14-10","jibunAddr":"강원특별자치도 원주시 무실동 1733-8","openHours":"정시","maleToilets":4,"femaleToilets":3,"disabled":false,"diaperTable":false,"emergencyBell":false,"cctv":false,"managerTel":"0337375895","source":"public","category":"public"},{"id":"202541910000100626","name":"행복요양원","lat":37.333796,"lng":127.949928,"roadAddr":"강원특별자치도 원주시 송림길18","jibunAddr":"강원특별자치도 원주시 개운동 436-1","openHours":"정시","maleToilets":0,"femaleToilets":4,"disabled":true,"diaperTable":false,"emergencyBell":true,"cctv":false,"managerTel":"0337650555","source":"public","category":"public"}]