[{"id":"202441700000100665","name":"양동체육공원 화장실","lat":37.406564,"lng":127.754266,"roadAddr":"경기도 양평군 양동면 원양2로 832","openHours":"정시","maleToilets":4,"femaleToilets":8,"disabled":true,"diaperTable":false,"emergencyBell":true,"cctv":true,"managerTel":"0317703253","source":"public","category":"public"},{"id":"202441700000100667","name":"양동주민자치센터","lat":37.425122,"lng":127.751188,"roadAddr":"경기도 양평군 양동면 학둔지아래길 20 (석곡리, 양동면사무소)","openHours":"정시","maleToilets":21,"femaleToilets":9,"disabled":true,"diaperTable":false,"emergencyBell":false,"cctv":false,"managerTel":"0317703252","source":"public","category":"public"},{"id":"202441700000100661","name":"삼산보건진료소","lat":37.404068,"lng":127.770546,"roadAddr":"경기도 양평군 양동면 도소리길 33","openHours":"정시","maleToilets":2,"femaleToilets":1,"disabled":true,"diaperTable":true,"emergencyBell":true,"cctv":false,"managerTel":"0317703506","source":"public","category":"public"},{"id":"202441700000100668","name":"양동보건지소","lat":37.425066,"lng":127.750925,"roadAddr":"경기도 양평군 양동면 학둔지아래길 22","openHours":"정시","maleToilets":3,"femaleToilets":2,"disabled":true,"diaperTable":false,"emergencyBell":false,"cctv":false,"managerTel":"0317703556","source":"public","category":"public"},{"id":"202441700000100663","name":"양동친환경화장실(산책로)","lat":37.419102,"lng":127.752596,"roadAddr":"경기도 양평군 양동면 양동역길 2","openHours":"정시","maleToilets":4,"femaleToilets":2,"disabled":true,"diaperTable":false,"emergencyBell":true,"cctv":true,"managerTel":"0317703253","source":"public","category":"public"},{"id":"202441700000100669","name":"양동도서관","lat":37.419223,"lng":127.754641,"roadAddr":"경기도 양평군 양동면 학둔지아래길 93","openHours":"정시","maleToilets":9,"femaleToilets":9,"disabled":true,"diaperTable":false,"emergencyBell":false,"cctv":false,"managerTel":"0317702571","source":"public","category":"public"}]