[{"id":"202457000000100630","name":"북내면사무소화장실","lat":37.329055,"lng":127.67908,"roadAddr":"경기도 여주시 북내면 여양2로 301, 북내면사무소","jibunAddr":"경기도 여주시 북내면 당우리 165-5","openHours":"정시","maleToilets":4,"femaleToilets":2,"disabled":false,"diaperTable":false,"emergencyBell":false,"cctv":false,"managerTel":"0318873953","source":"public","category":"public"},{"id":"202457000000100631","name":"석봉주유소·충전소화장실","lat":37.35182,"lng":127.669398,"roadAddr":"경기도 여주시 북내면 여양2로 567","jibunAddr":"경기도 여주시 북내면 외룡리 506-3","openHours":"정시","maleToilets":2,"femaleToilets":1,"disabled":false,"diaperTable":false,"emergencyBell":false,"cctv":false,"managerTel":"0318865133","source":"public","category":"public"},{"id":"202457000000100629","name":"여강주유소·충전소화장실","lat":37.318957,"lng":127.676141,"roadAddr":"경기도 여주시 북내면 여양2로 170","jibunAddr":"경기도 여주시 북내면 신남리 265-2","openHours":"정시","maleToilets":3,"femaleToilets":1,"disabled":false,"diaperTable":false,"emergencyBell":false,"cctv":false,"managerTel":"0318851494","source":"public","category":"public"},{"id":"202457000000100627","name":"신접주유소·충전소화장실","lat":37.332813,"lng":127.695048,"roadAddr":"경기도 여주시 북내면 당전로 153","jibunAddr":"경기도 여주시 북내면 신접리 6-5","openHours":"정시","maleToilets":2,"femaleToilets":1,"disabled":false,"diaperTable":false,"emergencyBell":false,"cctv":false,"managerTel":"0318844438","source":"public","category":"public"},{"id":"202457000000100628","name":"금당주유소·충전소화장실","lat":37.327422,"lng":127.683955,"roadAddr":"경기도 여주시 북내면 당전로 27","jibunAddr":"경기도 여주시 북내면 신접리 208-1","openHours":"정시","maleToilets":3,"femaleToilets":2,"disabled":false,"diaperTable":false,"emergencyBell":false,"cctv":false,"managerTel":"0318848488","source":"public","category":"public"},{"id":"202457000000100626","name":"북내체육공원화장실","lat":37.336988,"lng":127.677867,"roadAddr":"경기도 여주시 북내면 금당로 260-3","jibunAddr":"경기도 여주시 북내면 당우리 317-18","openHours":"정시","maleToilets":5,"femaleToilets":2,"disabled":true,"diaperTable":true,"emergencyBell":false,"cctv":true,"managerTel":"0318873953","source":"public","category":"public"}]