[{"id":"202457000000100554","name":"강천체육공원실내화장실","lat":37.273898,"lng":127.705261,"roadAddr":"경기도 여주시 강천면 귀안골길 23","jibunAddr":"경기도 여주시 강천면 간매리 171","openHours":"08:00~18:00","maleToilets":4,"femaleToilets":3,"disabled":false,"diaperTable":false,"emergencyBell":false,"cctv":false,"managerTel":"0318873982","source":"public","category":"public"},{"id":"202457000000100551","name":"여주온천화장실","lat":37.271174,"lng":127.727509,"roadAddr":"경기도 여주시 강천면 강문로 864, 여주온천","jibunAddr":"경기도 여주시 강천면 부평리 411-8","openHours":"09:00~21:00","maleToilets":5,"femaleToilets":3,"disabled":false,"diaperTable":false,"emergencyBell":false,"cctv":false,"source":"public","category":"public"},{"id":"202457000000100555","name":"강천체육공원화장실","lat":37.273898,"lng":127.705261,"roadAddr":"경기도 여주시 강천면 귀안골길 23","jibunAddr":"경기도 여주시 강천면 간매리 171","openHours":"08:00~18:00","maleToilets":5,"femaleToilets":4,"disabled":false,"diaperTable":false,"emergencyBell":false,"cctv":false,"managerTel":"0318873982","source":"public","category":"public"},{"id":"202457000000100556","name":"강천면사무소화장실","lat":37.272846,"lng":127.711073,"roadAddr":"경기도 여주시 강천면 긴등길 5, 강천면사무소","jibunAddr":"경기도 여주시 강천면 간매리 311-2","openHours":"08:00~18:00","maleToilets":2,"femaleToilets":1,"disabled":false,"diaperTable":false,"emergencyBell":false,"cctv":false,"source":"public","category":"public"},{"id":"202457000000100757","name":"캐슬파인골프장화장실","lat":37.298241,"lng":127.743417,"roadAddr":"경기도 여주시 강천면 부평로 580, 캐슬파인골프클럽","jibunAddr":"경기도 여주시 강천면 부평리 산 47-1","openHours":"06:00~20:00","maleToilets":9,"femaleToilets":6,"disabled":false,"diaperTable":false,"emergencyBell":false,"cctv":false,"managerTel":"0318868656","source":"public","category":"public"},{"id":"202457000000100550","name":"강천면주민자치센터화장실","lat":37.272125,"lng":127.712302,"roadAddr":"경기도 여주시 강천면 강문로 586, 강천면보건소","jibunAddr":"경기도 여주시 강천면 간매리 271-1","openHours":"08:00~18:00","maleToilets":5,"femaleToilets":4,"disabled":false,"diaperTable":false,"emergencyBell":false,"cctv":false,"managerTel":"0318873982","source":"public","category":"public"}]