[{"id":"202541910000100690","name":"성문안CC 클럽하우스 락카","lat":37.394519,"lng":127.834946,"roadAddr":"강원특별자치도 원주시 월송석화로 431","jibunAddr":"강원특별자치도 원주시 지정면 월송리 1219","openHours":"평일,주말: 06:00~24:00","maleToilets":1,"femaleToilets":1,"disabled":false,"diaperTable":false,"emergencyBell":false,"cctv":false,"managerTel":"15887676","source":"public","category":"public"},{"id":"202541910000100694","name":"성문안CC OUT코스 티하우스","lat":37.394519,"lng":127.834946,"roadAddr":"강원특별자치도 원주시 월송석화로 431","jibunAddr":"강원특별자치도 원주시 지정면 월송리 1219","openHours":"평일,주말: 06:00~24:00","maleToilets":2,"femaleToilets":2,"disabled":true,"diaperTable":false,"emergencyBell":false,"cctv":false,"managerTel":"15887676","source":"public","category":"public"},{"id":"202541910000100689","name":"성문안CC 클럽하우스 락카 입구","lat":37.394519,"lng":127.834946,"roadAddr":"강원특별자치도 원주시 월송석화로 431","jibunAddr":"강원특별자치도 원주시 지정면 월송리 1219","openHours":"평일,주말: 06:00~24:00","maleToilets":10,"femaleToilets":8,"disabled":true,"diaperTable":false,"emergencyBell":false,"cctv":false,"managerTel":"15887676","source":"public","category":"public"},{"id":"202541910000100701","name":"제2 주차장 화장실(통합건축물)","lat":37.362312,"lng":127.836371,"jibunAddr":"강원특별자치도 원주시 지정면 간현리 1027","openHours":"09:00~18:00","maleToilets":4,"femaleToilets":4,"disabled":true,"diaperTable":true,"emergencyBell":false,"cctv":false,"managerTel":"0337494860","source":"public","category":"public"},{"id":"202541910000100700","name":"제1 주차장 화장실","lat":37.364793,"lng":127.834539,"jibunAddr":"강원특별자치도 원주시 지정면 간현리 1056-1","openHours":"상시","maleToilets":12,"femaleToilets":10,"disabled":true,"diaperTable":false,"emergencyBell":true,"cctv":false,"managerTel":"0337494860","source":"public","category":"public"},{"id":"202541910000100702","name":"제4주차장 화장실(우드마운틴)","lat":37.36339,"lng":127.833369,"jibunAddr":"강원특별자치도 원주시지정면 간현리 1034","openHours":"상시","maleToilets":11,"femaleToilets":10,"disabled":true,"diaperTable":true,"emergencyBell":true,"cctv":false,"managerTel":"0337494860","source":"public","category":"public"},{"id":"202541910000100712","name":"하늘정원 화장실","lat":37.367142,"lng":127.818999,"jibunAddr":"강원특별자치도 원주시 지정면 간현리 산 116-1","openHours":"09:00~18:00","maleToilets":3,"femaleToilets":3,"disabled":false,"diaperTable":false,"emergencyBell":true,"cctv":false,"managerTel":"0337494860","source":"public","category":"public"},{"id":"202541910000100704","name":"남매바위 화장실","lat":37.362921,"lng":127.830493,"jibunAddr":"강원특별자치도 원주시 지정면 안창리 2-2","openHours":"09:00~18:00","maleToilets":7,"femaleToilets":3,"disabled":false,"diaperTable":true,"emergencyBell":true,"cctv":false,"managerTel":"0337494860","source":"public","category":"public"},{"id":"202541910000100920","name":"유알컬처파크","lat":37.358539,"lng":127.801412,"roadAddr":"강원특별자치도 원주시 지정면 지정로 912","jibunAddr":"강원특별자치도 원주시 지정면 안창리 595-14","openHours":"09시~20시","maleToilets":6,"femaleToilets":3,"disabled":true,"diaperTable":false,"emergencyBell":false,"cctv":false,"managerTel":"0337481476","source":"public","category":"public"},{"id":"202541910000100711","name":"포레스트 화장실","lat":37.367142,"lng":127.818999,"roadAddr":"강원특별자치도 원주시 지정면 소금산길 168","jibunAddr":"강원특별자치도 원주시 지정면 간현리 산 116-1","openHours":"09:00~18:00","maleToilets":7,"femaleToilets":3,"disabled":false,"diaperTable":true,"emergencyBell":true,"cctv":false,"managerTel":"0337494860","source":"public","category":"public"},{"id":"202541910000100708","name":"오형제 화장실","lat":37.367444,"lng":127.82389,"jibunAddr":"강원특별자치도 원주시 지정면 간현리 1108-4","openHours":"09:00~18:00","maleToilets":10,"femaleToilets":6,"disabled":true,"diaperTable":true,"emergencyBell":true,"cctv":false,"managerTel":"0337494860","source":"public","category":"public"},{"id":"202541910000100692","name":"성문안CC 피오레토 PDR NO.1 ROOM","lat":37.394519,"lng":127.834946,"roadAddr":"강원특별자치도 원주시 월송석화로 431","jibunAddr":"강원특별자치도 원주시 지정면 월송리 1219","openHours":"평일,주말: 06:00~24:00","maleToilets":0,"femaleToilets":0,"disabled":false,"diaperTable":false,"emergencyBell":false,"cctv":false,"managerTel":"15887676","source":"public","category":"public"},{"id":"202541910000100703","name":"울렁다리 화장실","lat":37.36555,"lng":127.821335,"roadAddr":"강원특별자치도 원주시 지정면 소금산길 165-1","jibunAddr":"강원특별자치도 원주시 지정면 간현리 1108-35","openHours":"09:00~18:00","maleToilets":4,"femaleToilets":4,"disabled":false,"diaperTable":false,"emergencyBell":true,"cctv":false,"managerTel":"0337494860","source":"public","category":"public"},{"id":"202541910000100695","name":"성문안CC IN코스 티하우스","lat":37.394519,"lng":127.834946,"roadAddr":"강원특별자치도 원주시 월송석화로 431","jibunAddr":"강원특별자치도 원주시 지정면 월송리 1219","openHours":"평일,주말: 06:00~24:00","maleToilets":2,"femaleToilets":2,"disabled":true,"diaperTable":false,"emergencyBell":false,"cctv":false,"managerTel":"15887676","source":"public","category":"public"},{"id":"202541910000100691","name":"성문안CC 클럽하우스 VIP 락카","lat":37.394519,"lng":127.834946,"roadAddr":"강원특별자치도 원주시 월송석화로 431","jibunAddr":"강원특별자치도 원주시 지정면 월송리 1219","openHours":"평일,주말: 06:00~24:00","maleToilets":0,"femaleToilets":0,"disabled":false,"diaperTable":false,"emergencyBell":false,"cctv":false,"managerTel":"15887676","source":"public","category":"public"},{"id":"202541910000100693","name":"성문안CC 스타트하우스","lat":37.394519,"lng":127.834946,"roadAddr":"강원특별자치도 원주시 월송석화로 431","jibunAddr":"강원특별자치도 원주시 지정면 월송리 1219","openHours":"평일,주말: 06:00~24:00","maleToilets":4,"femaleToilets":3,"disabled":true,"diaperTable":false,"emergencyBell":false,"cctv":false,"managerTel":"15887676","source":"public","category":"public"},{"id":"202541910000100705","name":"간현교 화장실","lat":37.366201,"lng":127.831,"jibunAddr":"강원특별자치도 원주시 지정면 간현리 1067-3","openHours":"09:00~18:00","maleToilets":6,"femaleToilets":13,"disabled":true,"diaperTable":true,"emergencyBell":true,"cctv":false,"managerTel":"0337494860","source":"public","category":"public"},{"id":"202541910000100706","name":"가는골 화장실","lat":37.368562,"lng":127.826152,"roadAddr":"강원특별자치도 원주시 지정면 간현리 소금산길100","jibunAddr":"강원특별자치도 원주시 지정면 간현리 1108","openHours":"09:00~18:00","maleToilets":6,"femaleToilets":11,"disabled":false,"diaperTable":false,"emergencyBell":true,"cctv":false,"managerTel":"0337494860","source":"public","category":"public"}]