[{"id":"202442610000100076","name":"서원파출소","lat":37.486903,"lng":127.848713,"roadAddr":"강원특별자치도 횡성군 서원면 서원로 143","jibunAddr":"강원특별자치도 횡성군 서원면 창촌리588-1","openHours":"정시","maleToilets":2,"femaleToilets":0,"disabled":true,"diaperTable":true,"emergencyBell":true,"cctv":false,"source":"public","category":"public"},{"id":"202442610000100127","name":"창촌 공중화장실","lat":37.486254,"lng":127.850299,"jibunAddr":"강원특별자치도 횡성군 서원면 창촌리 549-3(1)","openHours":"정시","maleToilets":6,"femaleToilets":4,"disabled":true,"diaperTable":false,"emergencyBell":true,"cctv":false,"source":"public","category":"public"},{"id":"202442610000100073","name":"서원면사무소","lat":37.486771,"lng":127.850001,"jibunAddr":"강원특별자치도 횡성군 서원면 창촌리582-10","openHours":"정시","maleToilets":4,"femaleToilets":2,"disabled":true,"diaperTable":false,"emergencyBell":false,"cctv":false,"source":"public","category":"public"},{"id":"202442610000100074","name":"서원우체국","lat":37.486528,"lng":127.849264,"jibunAddr":"강원특별자치도 횡성군 서원면 창촌리584-1","openHours":"정시","maleToilets":0,"femaleToilets":0,"disabled":false,"diaperTable":false,"emergencyBell":false,"cctv":false,"source":"public","category":"public"},{"id":"202442610000100069","name":"서원119지역대","lat":37.48636,"lng":127.850813,"roadAddr":"강원특별자치도 횡성군 서원면 서원로 164","openHours":"정시","maleToilets":2,"femaleToilets":0,"disabled":false,"diaperTable":false,"emergencyBell":false,"cctv":false,"source":"public","category":"public"},{"id":"202442610000100070","name":"서원농협","lat":37.486771,"lng":127.850001,"jibunAddr":"강원특별자치도 횡성군 서원면 창촌리582-10","openHours":"정시","maleToilets":8,"femaleToilets":4,"disabled":false,"diaperTable":false,"emergencyBell":false,"cctv":false,"source":"public","category":"public"}]