[{"id":"202441700000100851","name":"차차차휴게소","lat":37.580135,"lng":127.749073,"roadAddr":"경기도 양평군 청운면 설악로 475","openHours":"정시","maleToilets":28,"femaleToilets":14,"disabled":false,"diaperTable":false,"emergencyBell":false,"cctv":true,"managerTel":"0317716931","source":"public","category":"public"},{"id":"202542510000100127","name":"홍천휴게소","lat":37.590492,"lng":127.757183,"roadAddr":"강원특별자치도 홍천군 남면 설악로 6","jibunAddr":"강원특별자치도 홍천군 남면 유목정리 363","openHours":"정시","maleToilets":21,"femaleToilets":18,"disabled":false,"diaperTable":false,"emergencyBell":false,"cctv":false,"managerTel":"0334322779","source":"public","category":"public"},{"id":"202542510000100064","name":"동구나무어린이공원","lat":37.613888,"lng":127.767224,"jibunAddr":"강원특별자치도 홍천군 남면 양덕원리 151-8","openHours":"정시","maleToilets":2,"femaleToilets":2,"disabled":false,"diaperTable":false,"emergencyBell":true,"cctv":true,"managerTel":"0334302768","source":"public","category":"public"},{"id":"202542510000100196","name":"홍천휴게주유소","lat":37.590492,"lng":127.757183,"roadAddr":"강원특별자치도 홍천군 남면 설악로 6","jibunAddr":"강원특별자치도 홍천군 남면 유목정리 367-1","openHours":"정시","maleToilets":0,"femaleToilets":0,"disabled":false,"diaperTable":false,"emergencyBell":false,"cctv":false,"source":"public","category":"public"},{"id":"202542510000100009","name":"강원특별자치도 홍천소방서 양덕원119안전센터","lat":37.61152,"lng":127.770386,"roadAddr":"강원특별자치도 홍천군 남면 시동로 46","jibunAddr":"강원특별자치도 홍천군 남면 양덕원리 52-11","openHours":"정시","maleToilets":8,"femaleToilets":4,"disabled":true,"diaperTable":false,"emergencyBell":false,"cctv":false,"managerTel":"0334324119","source":"public","category":"public"},{"id":"202542510000100160","name":"팔봉산주유소","lat":37.599687,"lng":127.762293,"roadAddr":"강원특별자치도 홍천군 남면 설악로 124","jibunAddr":"강원특별자치도 홍천군 남면 유목정리 296","openHours":"정시","maleToilets":2,"femaleToilets":1,"disabled":false,"diaperTable":false,"emergencyBell":false,"cctv":false,"managerTel":"0334324036","source":"public","category":"public"},{"id":"202542510000100003","name":"남면파출소","lat":37.617076,"lng":127.768473,"roadAddr":"강원특별자치도 홍천군 남면 양덕원로 86","jibunAddr":"강원특별자치도 홍천군 남면 양덕원리 194-9","openHours":"정시","maleToilets":2,"femaleToilets":0,"disabled":true,"diaperTable":false,"emergencyBell":false,"cctv":false,"managerTel":"0334324112","source":"public","category":"public"},{"id":"202542510000100043","name":"홍천군농업기술센터 남부지소","lat":37.611199,"lng":127.770851,"roadAddr":"강원특별자치도 홍천군 남면 시동로 50 (양덕원리)","jibunAddr":"강원특별자치도 홍천군 남면 양덕원리 52-2","openHours":"정시","maleToilets":2,"femaleToilets":1,"disabled":true,"diaperTable":false,"emergencyBell":false,"cctv":false,"managerTel":"0334304153","source":"public","category":"public"},{"id":"202542510000100159","name":"양덕원주유소","lat":37.616094,"lng":127.76851,"roadAddr":"강원특별자치도 홍천군 남면 양덕원로 72","jibunAddr":"강원특별자치도 홍천군 남면 양덕원리 191-3","openHours":"정시","maleToilets":1,"femaleToilets":1,"disabled":false,"diaperTable":false,"emergencyBell":false,"cctv":false,"managerTel":"0334324220","source":"public","category":"public"},{"id":"202542510000100386","name":"유목정1리 수녀원앞 간이화장실","lat":37.60744,"lng":127.784289,"jibunAddr":"강원특별자치도 홍천군 남면 유목정리 산7-1","openHours":"상시","maleToilets":2,"femaleToilets":1,"disabled":false,"diaperTable":false,"emergencyBell":false,"cctv":false,"managerTel":"0334304571","source":"public","category":"public"},{"id":"202542510000100103","name":"남면터미널","lat":37.616548,"lng":127.768357,"roadAddr":"강원특별자치도 홍천군 남면 양덕원로 82","jibunAddr":"강원특별자치도 홍천군 남면 양덕원리 191-1","openHours":"정시","maleToilets":3,"femaleToilets":2,"disabled":false,"diaperTable":false,"emergencyBell":false,"cctv":false,"managerTel":"0334324102","source":"public","category":"public"},{"id":"202542510000100388","name":"양덕원1리 정자각옆 간이화장실","lat":37.613451,"lng":127.771109,"jibunAddr":"강원특별자치도 홍천군 남면 양덕원리 산27-1","openHours":"상시","maleToilets":1,"femaleToilets":1,"disabled":false,"diaperTable":false,"emergencyBell":false,"cctv":false,"managerTel":"0334304571","source":"public","category":"public"}]