[{"id":"202441700000100626","name":"단월레포츠공원 2","lat":37.543945,"lng":127.671554,"roadAddr":"경기도 양평군 단월면 보룡리 산 11(다목적강당 앞)","openHours":"13시간","maleToilets":5,"femaleToilets":5,"disabled":false,"diaperTable":false,"emergencyBell":true,"cctv":true,"managerTel":"0317703191","source":"public","category":"public"},{"id":"202441700000100847","name":"밤골유원지내(1)","lat":37.536638,"lng":127.695769,"roadAddr":"경기도 양평군 청운면 비룡리 898","openHours":"24시간","maleToilets":2,"femaleToilets":1,"disabled":false,"diaperTable":false,"emergencyBell":false,"cctv":true,"managerTel":"0317703225","source":"public","category":"public"},{"id":"202441700000100622","name":"단월주유소","lat":37.541196,"lng":127.676641,"roadAddr":"경기도 양평군 단월면 단월로 59","openHours":"16시간","maleToilets":2,"femaleToilets":1,"disabled":false,"diaperTable":false,"emergencyBell":false,"cctv":false,"managerTel":"0317735020","source":"public","category":"public"},{"id":"202441700000100862","name":"청운체육공원","lat":37.553146,"lng":127.702307,"roadAddr":"경기도 양평군 청운면 청운체육공원길 50-17","openHours":"13시간","maleToilets":8,"femaleToilets":8,"disabled":false,"diaperTable":false,"emergencyBell":true,"cctv":true,"managerTel":"0317703225","source":"public","category":"public"},{"id":"202441700000100848","name":"밤골유원지내(2)","lat":37.536638,"lng":127.695769,"roadAddr":"경기도 양평군 청운면 비룡리 898","openHours":"24시간","maleToilets":2,"femaleToilets":1,"disabled":true,"diaperTable":false,"emergencyBell":false,"cctv":true,"managerTel":"0317703225","source":"public","category":"public"},{"id":"202441700000100857","name":"신청운주유소","lat":37.550361,"lng":127.704679,"roadAddr":"경기도 양평군 청운면 용두로 81 (용두리, 신청운주유소)","openHours":"24시간","maleToilets":4,"femaleToilets":2,"disabled":false,"diaperTable":false,"emergencyBell":false,"cctv":true,"managerTel":"0317745164","source":"public","category":"public"},{"id":"202441700000100625","name":"단월보건지소","lat":37.538824,"lng":127.673423,"roadAddr":"경기도 양평군 단월면 보룡길 53-4","openHours":"9시간","maleToilets":5,"femaleToilets":5,"disabled":false,"diaperTable":false,"emergencyBell":false,"cctv":true,"managerTel":"0317703554","source":"public","category":"public"},{"id":"202441700000100624","name":"단월면사무소","lat":37.538559,"lng":127.672992,"roadAddr":"경기도 양평군 단월면 보룡길 53(1층)","openHours":"24시간","maleToilets":4,"femaleToilets":2,"disabled":true,"diaperTable":true,"emergencyBell":true,"cctv":true,"managerTel":"0317703191","source":"public","category":"public"},{"id":"202441700000100623","name":"단월면 복지회관 1층","lat":37.538069,"lng":127.674506,"roadAddr":"경기도 양평군 단월면 보룡길 44-1 (보룡리,1층)","openHours":"12시간","maleToilets":7,"femaleToilets":4,"disabled":true,"diaperTable":false,"emergencyBell":false,"cctv":true,"managerTel":"0317703191","source":"public","category":"public"},{"id":"202441700000100842","name":"평화주유소","lat":37.543097,"lng":127.695927,"roadAddr":"경기도 양평군 청운면 경강로 4087 (비룡리)","openHours":"24시간","maleToilets":4,"femaleToilets":2,"disabled":false,"diaperTable":false,"emergencyBell":false,"cctv":true,"managerTel":"0317715125","source":"public","category":"public"},{"id":"202441700000100630","name":"단월버스영업소","lat":37.532742,"lng":127.675383,"roadAddr":"경기도 양평군 단월면 재인동길 236 (보룡리)","openHours":"24시간","maleToilets":2,"femaleToilets":1,"disabled":false,"diaperTable":false,"emergencyBell":false,"cctv":true,"managerTel":"0317703192","source":"public","category":"public"},{"id":"202441700000100627","name":"단월레포츠공원 3","lat":37.543945,"lng":127.671554,"roadAddr":"경기도 양평군 단월면 보룡리 산 11(족구장 뒤)","openHours":"24시간","maleToilets":5,"femaleToilets":3,"disabled":false,"diaperTable":false,"emergencyBell":true,"cctv":true,"managerTel":"0317703191","source":"public","category":"public"},{"id":"202441700000100631","name":"단월우체국","lat":37.532689,"lng":127.674066,"roadAddr":"경기도 양평군 단월면 재인동길 2-8","openHours":"24시간","maleToilets":2,"femaleToilets":1,"disabled":false,"diaperTable":false,"emergencyBell":false,"cctv":true,"managerTel":"0317300203","source":"public","category":"public"},{"id":"202441700000100621","name":"부안보건진료소","lat":37.563451,"lng":127.669547,"roadAddr":"경기도 양평군 단월면 단월로 326","openHours":"9시간","maleToilets":1,"femaleToilets":1,"disabled":false,"diaperTable":false,"emergencyBell":false,"cctv":false,"managerTel":"0317703457","source":"public","category":"public"}]