[{"id":"202439900000101249","name":"호평 천마산-1[호평-2]","lat":37.689789,"lng":127.269943,"jibunAddr":"경기도 남양주시 오남읍 팔현리 산14","openHours":"상시","maleToilets":4,"femaleToilets":3,"disabled":false,"diaperTable":false,"emergencyBell":false,"cctv":false,"managerTel":"0315904743","source":"public","category":"public"},{"id":"202439900000101246","name":"천마산(야영장)[묵현-2]","lat":37.668985,"lng":127.28559,"roadAddr":"경기도 남양주시 화도읍 묵현로 105-39","jibunAddr":"경기도 남양주시 화도읍 묵현리 산113-1","openHours":"상시","maleToilets":4,"femaleToilets":3,"disabled":false,"diaperTable":false,"emergencyBell":false,"cctv":false,"managerTel":"0315904743","source":"public","category":"public"},{"id":"202439900000101245","name":"천마산 관리사무소[묵현-3]","lat":37.67077,"lng":127.283081,"jibunAddr":"경기도 남양주시 화도읍 묵현리 산62-2","openHours":"상시","maleToilets":4,"femaleToilets":3,"disabled":false,"diaperTable":false,"emergencyBell":false,"cctv":false,"managerTel":"0315904743","source":"public","category":"public"},{"id":"202439900000101247","name":"천마산관리사무소[묵현-1]","lat":37.66656,"lng":127.290189,"roadAddr":"경기도 남양주시 화도읍 묵현로 105-37","jibunAddr":"경기도 남양주시 화도읍 묵현리 173-10","openHours":"상시","maleToilets":2,"femaleToilets":1,"disabled":true,"diaperTable":false,"emergencyBell":false,"cctv":false,"managerTel":"0315904743","source":"public","category":"public"},{"id":"202439900000101530","name":"마석하늘공원 화장실[묵현-6]","lat":37.666872,"lng":127.302668,"jibunAddr":"경기도 남양주시 화도읍 묵현리 24-12","openHours":"상시","maleToilets":1,"femaleToilets":2,"disabled":true,"diaperTable":true,"emergencyBell":true,"cctv":false,"managerTel":"0315904993","source":"public","category":"public"}]