[{"id":"202441600000101088","name":"호명호수(정상)","lat":37.749885,"lng":127.473152,"jibunAddr":"경기도 가평군 청평면 호명리 1-5","openHours":"상시","maleToilets":1,"femaleToilets":1,"disabled":false,"diaperTable":true,"emergencyBell":true,"cctv":false,"managerTel":"0315802517","source":"public","category":"public"},{"id":"202441600000101087","name":"호명호수(제1주차장)","lat":37.761011,"lng":127.483374,"jibunAddr":"경기도 가평군 청평면 상천리 1519-16","openHours":"상시","maleToilets":3,"femaleToilets":3,"disabled":true,"diaperTable":false,"emergencyBell":true,"cctv":false,"managerTel":"0315802517","source":"public","category":"public"},{"id":"202441600000100965","name":"가평대박주유소","lat":37.76349,"lng":127.442189,"roadAddr":"경기도 가평군 청평면?경춘로 1175","openHours":"정시","maleToilets":2,"femaleToilets":1,"disabled":false,"diaperTable":false,"emergencyBell":false,"cctv":false,"managerTel":"0315745155","source":"public","category":"public"},{"id":"202441600000100967","name":"청평하나휴게소","lat":37.7666,"lng":127.447494,"roadAddr":"경기도 가평군 청평면 경춘로 1232","openHours":"정시","maleToilets":4,"femaleToilets":3,"disabled":false,"diaperTable":false,"emergencyBell":false,"cctv":false,"managerTel":"0315851705","source":"public","category":"public"},{"id":"202441600000100966","name":"청평하나오일뱅크","lat":37.7666,"lng":127.447494,"roadAddr":"경기도 가평군 청평면 경춘로 1232","openHours":"정시","maleToilets":5,"femaleToilets":4,"disabled":false,"diaperTable":false,"emergencyBell":false,"cctv":false,"managerTel":"0315851705","source":"public","category":"public"},{"id":"202441600000101090","name":"상천테마공원(주차장)","lat":37.765767,"lng":127.459051,"roadAddr":"경기도 가평군 청평면 상지로 64번길 77","openHours":"상시","maleToilets":3,"femaleToilets":9,"disabled":true,"diaperTable":true,"emergencyBell":true,"cctv":false,"managerTel":"0315802517","source":"public","category":"public"},{"id":"202441600000101089","name":"호명호수(갤러리)","lat":37.749885,"lng":127.473152,"jibunAddr":"경기도 가평군 청평면 호명리 1-5","openHours":"정시","maleToilets":1,"femaleToilets":0,"disabled":false,"diaperTable":false,"emergencyBell":false,"cctv":false,"managerTel":"0315802517","source":"public","category":"public"},{"id":"202441600000100968","name":"벚꽃길(에덴) 주유소","lat":37.779002,"lng":127.464718,"roadAddr":"경기도 가평군 청평면 경춘로 1454","openHours":"정시","maleToilets":3,"femaleToilets":2,"disabled":false,"diaperTable":false,"emergencyBell":false,"cctv":false,"managerTel":"0315813700","source":"public","category":"public"},{"id":"202441600000101170","name":"가평경찰서 민원화장실","lat":37.776376,"lng":127.461521,"roadAddr":"경기도 가평군 청평면 경춘로 1401","openHours":"정시","maleToilets":9,"femaleToilets":4,"disabled":true,"diaperTable":false,"emergencyBell":false,"cctv":false,"managerTel":"0315801230","source":"public","category":"public"}]