[{"id":"202441600000101085","name":"음악역1939","lat":37.82528,"lng":127.512979,"roadAddr":"경기도 가평군 가평읍 석봉로 100","openHours":"운영시간 내","maleToilets":14,"femaleToilets":18,"disabled":true,"diaperTable":true,"emergencyBell":false,"cctv":false,"managerTel":"0315802501","source":"public","category":"public"},{"id":"202441600000101148","name":"종합운동장(4)","lat":37.825431,"lng":127.506125,"roadAddr":"경기도 가평군 가평읍 문화로 131","openHours":"상시","maleToilets":29,"femaleToilets":12,"disabled":true,"diaperTable":true,"emergencyBell":false,"cctv":true,"managerTel":"03180788073","source":"public","category":"public"},{"id":"202441600000101139","name":"자라섬캠핑장3(B사이트)","lat":37.820875,"lng":127.520925,"roadAddr":"경기도 가평군 가평읍 자라섬로 60","openHours":"상시","maleToilets":9,"femaleToilets":6,"disabled":true,"diaperTable":false,"emergencyBell":false,"cctv":false,"managerTel":"03180788093","source":"public","category":"public"},{"id":"202441600000101142","name":"자라섬남도1(강변)","lat":37.820875,"lng":127.520925,"roadAddr":"경기도 가평군 가평읍 자라섬로 60","openHours":"상시","maleToilets":3,"femaleToilets":2,"disabled":true,"diaperTable":true,"emergencyBell":false,"cctv":false,"managerTel":"03180788093","source":"public","category":"public"},{"id":"202441600000101158","name":"가평야구장","lat":37.825431,"lng":127.506125,"roadAddr":"경기도 가평군 가평읍 문화로 131","openHours":"운영시간 내","maleToilets":5,"femaleToilets":2,"disabled":false,"diaperTable":false,"emergencyBell":true,"cctv":true,"managerTel":"03180788076","source":"public","category":"public"},{"id":"202441600000101036","name":"한석봉도서관 3층","lat":37.82969,"lng":127.506433,"roadAddr":"경기도 가평군 가평읍 문화로 187","openHours":"운영시간 내","maleToilets":5,"femaleToilets":5,"disabled":true,"diaperTable":false,"emergencyBell":false,"cctv":false,"managerTel":"0315804049","source":"public","category":"public"},{"id":"202441600000101147","name":"한석봉체육관(4)","lat":37.826397,"lng":127.507862,"roadAddr":"경기도 가평군 가평읍 문화로 153","openHours":"운영시간 내","maleToilets":32,"femaleToilets":31,"disabled":true,"diaperTable":true,"emergencyBell":true,"cctv":false,"managerTel":"03180788310","source":"public","category":"public"},{"id":"202441600000101169","name":"가평","lat":37.81425,"lng":127.511017,"roadAddr":"경기도 가평군 가평읍 문화로 13-42","openHours":"운영시간 내","maleToilets":7,"femaleToilets":8,"disabled":true,"diaperTable":false,"emergencyBell":true,"cctv":true,"managerTel":"15447788","source":"public","category":"public"},{"id":"202441600000101050","name":"가평읍사무소 (1층)","lat":37.825361,"lng":127.516537,"roadAddr":"경기도 가평군 가평읍 가화로 62","openHours":"운영시간 내","maleToilets":5,"femaleToilets":3,"disabled":false,"diaperTable":false,"emergencyBell":true,"cctv":false,"managerTel":"0315804007","source":"public","category":"public"},{"id":"202441600000101029","name":"가평군청 2청사 (4층)","lat":37.832174,"lng":127.508738,"roadAddr":"경기도 가평군 가평읍 석봉로 191번길 10","openHours":"운영시간 내","maleToilets":5,"femaleToilets":5,"disabled":true,"diaperTable":false,"emergencyBell":true,"cctv":false,"managerTel":"0315802939","source":"public","category":"public"},{"id":"202441600000101117","name":"가평근린공원","lat":37.828713,"lng":127.515934,"jibunAddr":"경기도 가평군 가평읍 읍내리 400-9","openHours":"운영시간 내","maleToilets":9,"femaleToilets":8,"disabled":true,"diaperTable":true,"emergencyBell":false,"cctv":false,"managerTel":"0315802372","source":"public","category":"public"},{"id":"202441600000101095","name":"자라섬 수상스포츠 체험센터","lat":37.817807,"lng":127.518123,"jibunAddr":"경기도 가평군 가평읍 대곡리 683","openHours":"상시","maleToilets":8,"femaleToilets":6,"disabled":true,"diaperTable":false,"emergencyBell":true,"cctv":false,"managerTel":"0315804635","source":"public","category":"public"},{"id":"202441600000101017","name":"가평군청 (1층 B-C)","lat":37.83132,"lng":127.509705,"roadAddr":"경기도 가평군 가평읍 석봉로 181","openHours":"운영시간 내","maleToilets":5,"femaleToilets":3,"disabled":true,"diaperTable":false,"emergencyBell":true,"cctv":false,"managerTel":"0315802939","source":"public","category":"public"},{"id":"202441600000101016","name":"가평군청 (1층 A-B)","lat":37.83132,"lng":127.509705,"roadAddr":"경기도 가평군 가평읍 석봉로 181","openHours":"운영시간 내","maleToilets":6,"femaleToilets":3,"disabled":true,"diaperTable":false,"emergencyBell":true,"cctv":false,"managerTel":"0315802939","source":"public","category":"public"},{"id":"202441600000101022","name":"가평군청 (3층 A-B)","lat":37.83132,"lng":127.509705,"roadAddr":"경기도 가평군 가평읍 석봉로 181","openHours":"운영시간 내","maleToilets":6,"femaleToilets":4,"disabled":false,"diaperTable":false,"emergencyBell":true,"cctv":false,"managerTel":"0315802939","source":"public","category":"public"},{"id":"202441600000100969","name":"이화주유소","lat":37.813101,"lng":127.499099,"roadAddr":"경기도 가평군 가평읍 경춘로 2021","openHours":"운영시간 내","maleToilets":2,"femaleToilets":1,"disabled":false,"diaperTable":false,"emergencyBell":false,"cctv":false,"managerTel":"0315815149","source":"public","category":"public"},{"id":"202441600000101086","name":"문화창작공간","lat":37.821887,"lng":127.506334,"roadAddr":"경기도 가평군 가평읍 문화로 107-61","openHours":"운영시간 내","maleToilets":3,"femaleToilets":4,"disabled":false,"diaperTable":false,"emergencyBell":false,"cctv":false,"managerTel":"0315802501","source":"public","category":"public"},{"id":"202441600000101156","name":"수상클럽 하우스","lat":37.820875,"lng":127.520925,"roadAddr":"경기도 가평군 가평읍 자라섬로 60","openHours":"운영시간 내","maleToilets":6,"femaleToilets":5,"disabled":true,"diaperTable":false,"emergencyBell":false,"cctv":false,"managerTel":"03180788076","source":"public","category":"public"},{"id":"202441600000100970","name":"가평셀프주유소","lat":37.815937,"lng":127.502115,"roadAddr":"경기도 가평군 가평읍 경춘로 2065","openHours":"운영시간 내","maleToilets":4,"femaleToilets":3,"disabled":false,"diaperTable":false,"emergencyBell":false,"cctv":false,"managerTel":"0315818770","source":"public","category":"public"},{"id":"202441600000101140","name":"자라섬서도(인라인)","lat":37.820875,"lng":127.520925,"roadAddr":"경기도 가평군 가평읍 자라섬로 60","openHours":"상시","maleToilets":3,"femaleToilets":3,"disabled":false,"diaperTable":false,"emergencyBell":true,"cctv":false,"managerTel":"03180788093","source":"public","category":"public"},{"id":"202441600000101028","name":"가평군청 2청사 (3층)","lat":37.832174,"lng":127.508738,"roadAddr":"경기도 가평군 가평읍 석봉로 191번길 10","openHours":"운영시간 내","maleToilets":5,"femaleToilets":5,"disabled":true,"diaperTable":false,"emergencyBell":true,"cctv":false,"managerTel":"0315802939","source":"public","category":"public"},{"id":"202441600000101143","name":"자라섬남도2(짚라인)","lat":37.820875,"lng":127.520925,"roadAddr":"경기도 가평군 가평읍 자라섬로 60","openHours":"상시","maleToilets":4,"femaleToilets":4,"disabled":false,"diaperTable":false,"emergencyBell":false,"cctv":false,"managerTel":"03180788093","source":"public","category":"public"},{"id":"202441600000101013","name":"가평고등학교","lat":37.818284,"lng":127.513086,"roadAddr":"경기도 가평군 가평읍 호반로 2601","openHours":"미개방","maleToilets":40,"femaleToilets":28,"disabled":true,"diaperTable":false,"emergencyBell":false,"cctv":false,"managerTel":"0315807008","source":"public","category":"public"},{"id":"202441600000101171","name":"가평우체국 1층","lat":37.83108,"lng":127.510795,"roadAddr":"경기도 가평군 가평읍 보납로 2","openHours":"운영시간 내","maleToilets":5,"femaleToilets":2,"disabled":true,"diaperTable":false,"emergencyBell":false,"cctv":true,"managerTel":"0315822009","source":"public","category":"public"},{"id":"202441600000101051","name":"가평읍사무소 (2층)","lat":37.825361,"lng":127.516537,"roadAddr":"경기도 가평군 가평읍 가화로 62","openHours":"운영시간 내","maleToilets":5,"femaleToilets":2,"disabled":false,"diaperTable":false,"emergencyBell":true,"cctv":false,"managerTel":"0315804007","source":"public","category":"public"},{"id":"202441600000101026","name":"가평군청 2청사 (1층)","lat":37.832174,"lng":127.508738,"roadAddr":"경기도 가평군 가평읍 석봉로 191번길 10","openHours":"운영시간 내","maleToilets":5,"femaleToilets":5,"disabled":true,"diaperTable":false,"emergencyBell":true,"cctv":false,"managerTel":"0315802939","source":"public","category":"public"},{"id":"202441600000101123","name":"가평공영버스터미널화장실","lat":37.824585,"lng":127.51547,"roadAddr":"경기도 가평군 가평읍 가화로 51","openHours":"운영시간 내","maleToilets":8,"femaleToilets":8,"disabled":true,"diaperTable":false,"emergencyBell":false,"cctv":false,"managerTel":"0315802208","source":"public","category":"public"},{"id":"202441600000101018","name":"가평군청 (1층 C-D)","lat":37.83132,"lng":127.509705,"roadAddr":"경기도 가평군 가평읍 석봉로 181","openHours":"운영시간 내","maleToilets":5,"femaleToilets":2,"disabled":true,"diaperTable":false,"emergencyBell":true,"cctv":false,"managerTel":"0315802939","source":"public","category":"public"},{"id":"202441600000101019","name":"가평군청 (2층 A-B)","lat":37.83132,"lng":127.509705,"roadAddr":"경기도 가평군 가평읍 석봉로 181","openHours":"운영시간 내","maleToilets":6,"femaleToilets":4,"disabled":false,"diaperTable":false,"emergencyBell":true,"cctv":false,"managerTel":"0315802939","source":"public","category":"public"},{"id":"202441600000101137","name":"자라섬캠핑장1(오토)","lat":37.820875,"lng":127.520925,"roadAddr":"경기도 가평군 가평읍 자라섬로 60","openHours":"상시","maleToilets":9,"femaleToilets":6,"disabled":true,"diaperTable":false,"emergencyBell":false,"cctv":false,"managerTel":"03180788093","source":"public","category":"public"},{"id":"202441600000101138","name":"자라섬캠핑장2(A사이트)","lat":37.820875,"lng":127.520925,"roadAddr":"경기도 가평군 가평읍 자라섬로 60","openHours":"상시","maleToilets":9,"femaleToilets":6,"disabled":true,"diaperTable":false,"emergencyBell":false,"cctv":false,"managerTel":"03180788093","source":"public","category":"public"},{"id":"202441600000101049","name":"가평군 상수도사업소","lat":37.807453,"lng":127.512661,"roadAddr":"경기도 가평군 가평읍 호반로 2463-41","openHours":"운영시간 내","maleToilets":4,"femaleToilets":2,"disabled":true,"diaperTable":false,"emergencyBell":false,"cctv":false,"managerTel":"0315804401","source":"public","category":"public"},{"id":"202441600000101021","name":"가평군청 (2층 C-D)","lat":37.83132,"lng":127.509705,"roadAddr":"경기도 가평군 가평읍 석봉로 181","openHours":"운영시간 내","maleToilets":6,"femaleToilets":3,"disabled":false,"diaperTable":false,"emergencyBell":true,"cctv":false,"managerTel":"0315802939","source":"public","category":"public"},{"id":"202441600000101149","name":"가평체육관","lat":37.825431,"lng":127.506125,"roadAddr":"경기도 가평군 가평읍 문화로 131","openHours":"운영시간 내","maleToilets":18,"femaleToilets":10,"disabled":true,"diaperTable":false,"emergencyBell":false,"cctv":false,"managerTel":"03180788083","source":"public","category":"public"},{"id":"202441600000101141","name":"자라섬남도입구(목조)","lat":37.820875,"lng":127.520925,"roadAddr":"경기도 가평군 가평읍 자라섬로 60","openHours":"상시","maleToilets":3,"femaleToilets":3,"disabled":false,"diaperTable":false,"emergencyBell":false,"cctv":false,"managerTel":"03180788093","source":"public","category":"public"},{"id":"202441600000101165","name":"자라섬 주차장","lat":37.820875,"lng":127.520925,"roadAddr":"경기도 가평군 가평읍 자라섬로 60","openHours":"운영시간 내","maleToilets":4,"femaleToilets":3,"disabled":false,"diaperTable":false,"emergencyBell":false,"cctv":false,"managerTel":"03180788069","source":"public","category":"public"},{"id":"202441600000101162","name":"잣고을시장 창업경제타운","lat":37.829717,"lng":127.515208,"roadAddr":"경기도 가평군 가평읍 장터2길 12","openHours":"운영시간 내","maleToilets":9,"femaleToilets":18,"disabled":true,"diaperTable":false,"emergencyBell":true,"cctv":false,"managerTel":"03151758815","source":"public","category":"public"},{"id":"202441600000101161","name":"행복축구전용구장","lat":37.825431,"lng":127.506125,"roadAddr":"경기도 가평군 가평읍 문화로 131","openHours":"운영시간 내","maleToilets":4,"femaleToilets":4,"disabled":false,"diaperTable":false,"emergencyBell":true,"cctv":false,"managerTel":"03180788073","source":"public","category":"public"},{"id":"202441600000101027","name":"가평군청 2청사 (2층)","lat":37.832174,"lng":127.508738,"roadAddr":"경기도 가평군 가평읍 석봉로 191번길 10","openHours":"운영시간 내","maleToilets":4,"femaleToilets":4,"disabled":true,"diaperTable":false,"emergencyBell":true,"cctv":false,"managerTel":"0315802939","source":"public","category":"public"},{"id":"202441600000101015","name":"가평군청 (지하1층)","lat":37.83132,"lng":127.509705,"roadAddr":"경기도 가평군 가평읍 석봉로 181","openHours":"운영시간 내","maleToilets":6,"femaleToilets":2,"disabled":false,"diaperTable":false,"emergencyBell":true,"cctv":false,"managerTel":"0315802939","source":"public","category":"public"},{"id":"202441600000101119","name":"자라목공원","lat":37.831915,"lng":127.518726,"roadAddr":"경기도 가평군 가평읍 보납로 73 일원","openHours":"상시","maleToilets":1,"femaleToilets":1,"disabled":true,"diaperTable":false,"emergencyBell":false,"cctv":false,"managerTel":"0315802380","source":"public","category":"public"},{"id":"202441600000101176","name":"국립농산물품질관리원 경기지원 가평사무소 1층","lat":37.833482,"lng":127.510001,"roadAddr":"경기도 가평군 가평읍 석봉로 200-21","openHours":"운영시간 내","maleToilets":4,"femaleToilets":2,"disabled":true,"diaperTable":false,"emergencyBell":false,"cctv":false,"managerTel":"0315893900","source":"public","category":"public"},{"id":"202441600000101024","name":"가평군청 (3층 C-D)","lat":37.83132,"lng":127.509705,"roadAddr":"경기도 가평군 가평읍 석봉로 181","openHours":"운영시간 내","maleToilets":7,"femaleToilets":3,"disabled":false,"diaperTable":false,"emergencyBell":true,"cctv":false,"managerTel":"0315802939","source":"public","category":"public"},{"id":"202441600000101160","name":"희망축구전용구장","lat":37.825431,"lng":127.506125,"roadAddr":"경기도 가평군 가평읍 문화로 131","openHours":"운영시간 내","maleToilets":5,"femaleToilets":8,"disabled":true,"diaperTable":false,"emergencyBell":true,"cctv":false,"managerTel":"03180788073","source":"public","category":"public"},{"id":"202441600000101030","name":"가평군 보건소","lat":37.833503,"lng":127.510601,"roadAddr":"경기도 가평군 가평읍 가화로 155-18","openHours":"운영시간 내","maleToilets":5,"femaleToilets":2,"disabled":false,"diaperTable":false,"emergencyBell":true,"cctv":false,"managerTel":"0315802811","source":"public","category":"public"},{"id":"202441600000101025","name":"가평군청 (4층)","lat":37.83132,"lng":127.509705,"roadAddr":"경기도 가평군 가평읍 석봉로 181","openHours":"운영시간 내","maleToilets":2,"femaleToilets":1,"disabled":false,"diaperTable":false,"emergencyBell":true,"cctv":false,"managerTel":"0315802939","source":"public","category":"public"},{"id":"202441600000101116","name":"북한강 자전거도로 공중화장실","lat":37.810501,"lng":127.497902,"jibunAddr":"경기도 가평군 가평읍 하색리 245-3","openHours":"상시","maleToilets":3,"femaleToilets":2,"disabled":false,"diaperTable":false,"emergencyBell":false,"cctv":false,"managerTel":"0315802438","source":"public","category":"public"},{"id":"202441600000101118","name":"가평레일바이크 화장실","lat":37.828971,"lng":127.515854,"roadAddr":"경기도 가평군 가평읍 장터길 14","openHours":"운영시간 내","maleToilets":12,"femaleToilets":9,"disabled":true,"diaperTable":false,"emergencyBell":false,"cctv":false,"managerTel":"0315802372","source":"public","category":"public"},{"id":"202441600000101035","name":"한석봉도서관 2층","lat":37.82969,"lng":127.506433,"roadAddr":"경기도 가평군 가평읍 문화로 187","openHours":"운영시간 내","maleToilets":5,"femaleToilets":3,"disabled":true,"diaperTable":false,"emergencyBell":false,"cctv":false,"managerTel":"0315804049","source":"public","category":"public"},{"id":"202441600000101034","name":"한석봉도서관 1층","lat":37.82969,"lng":127.506433,"roadAddr":"경기도 가평군 가평읍 문화로 187","openHours":"운영시간 내","maleToilets":5,"femaleToilets":4,"disabled":true,"diaperTable":false,"emergencyBell":false,"cctv":false,"managerTel":"0315804049","source":"public","category":"public"},{"id":"202441600000101151","name":"문화예술회관","lat":37.825431,"lng":127.506125,"roadAddr":"경기도 가평군 가평읍 문화로 131","openHours":"운영시간 내","maleToilets":17,"femaleToilets":11,"disabled":true,"diaperTable":true,"emergencyBell":true,"cctv":false,"managerTel":"03180788076","source":"public","category":"public"},{"id":"202441600000101150","name":"가평테니스장","lat":37.825431,"lng":127.506125,"roadAddr":"경기도 가평군 가평읍 문화로 131","openHours":"운영시간 내","maleToilets":4,"femaleToilets":3,"disabled":true,"diaperTable":false,"emergencyBell":false,"cctv":false,"managerTel":"03180788087","source":"public","category":"public"},{"id":"202441600000101020","name":"가평군청 (2층 B-C)","lat":37.83132,"lng":127.509705,"roadAddr":"경기도 가평군 가평읍 석봉로 181","openHours":"운영시간 내","maleToilets":6,"femaleToilets":4,"disabled":false,"diaperTable":false,"emergencyBell":true,"cctv":false,"managerTel":"0315802939","source":"public","category":"public"},{"id":"202441600000101048","name":"청소년 문화센터","lat":37.823894,"lng":127.509506,"roadAddr":"경기도 가평군 가평읍 문화로 120","openHours":"운영시간 내","maleToilets":5,"femaleToilets":3,"disabled":false,"diaperTable":false,"emergencyBell":false,"cctv":false,"managerTel":"0315802466","source":"public","category":"public"},{"id":"202441600000101164","name":"자라섬캠핑장 안내소","lat":37.820875,"lng":127.520925,"roadAddr":"경기도 가평군 가평읍 자라섬로 60","openHours":"운영시간 내","maleToilets":3,"femaleToilets":3,"disabled":true,"diaperTable":false,"emergencyBell":false,"cctv":false,"managerTel":"03180788069","source":"public","category":"public"},{"id":"202441600000101014","name":"가평교육지원청","lat":37.829458,"lng":127.508239,"roadAddr":"경기도 가평군 가평읍 향교로 17","openHours":"운영시간 내","maleToilets":21,"femaleToilets":12,"disabled":true,"diaperTable":false,"emergencyBell":false,"cctv":false,"managerTel":"0315805115","source":"public","category":"public"},{"id":"202441600000101023","name":"가평군청 (3층 B-C)","lat":37.83132,"lng":127.509705,"roadAddr":"경기도 가평군 가평읍 석봉로 181","openHours":"운영시간 내","maleToilets":6,"femaleToilets":3,"disabled":false,"diaperTable":false,"emergencyBell":true,"cctv":false,"managerTel":"0315802939","source":"public","category":"public"}]