[{"id":"202441810000100437","name":"남산농협주유소","lat":37.786615,"lng":127.64859,"roadAddr":"강원특별자치도 춘천시 남산면 강촌로 395-1","jibunAddr":"강원특별자치도 춘천시 남산면 강촌로 395-1","openHours":"정시","maleToilets":1,"femaleToilets":0,"disabled":true,"diaperTable":false,"emergencyBell":false,"cctv":true,"managerTel":"0332628787","source":"public","category":"public"},{"id":"202441810000100436","name":"남산파출소","lat":37.791674,"lng":127.646658,"roadAddr":"강원특별자치도 춘천시 남산면 한치로 77","jibunAddr":"강원특별자치도 춘천시 남산면 한치로 77","openHours":"정시","maleToilets":2,"femaleToilets":0,"disabled":true,"diaperTable":false,"emergencyBell":false,"cctv":false,"managerTel":"0332450781","source":"public","category":"public"},{"id":"202441810000100322","name":"춘천소방서 강촌119안전센터","lat":37.785223,"lng":127.647542,"roadAddr":"강원특별자치도 춘천시 소주고개로 680","jibunAddr":"강원특별자치도 춘천시 남산면 창촌리610-27","openHours":"정시","maleToilets":2,"femaleToilets":0,"disabled":true,"diaperTable":false,"emergencyBell":false,"cctv":false,"managerTel":"0332489221","source":"public","category":"public"},{"id":"202441810000100592","name":"남산면보건지소","lat":37.791682,"lng":127.644918,"roadAddr":"강원특별자치도 춘천시 남산면 강촌로 331","jibunAddr":"강원특별자치도 춘천시 남산면 창촌리 610-4","openHours":"정시","maleToilets":1,"femaleToilets":0,"disabled":true,"diaperTable":false,"emergencyBell":true,"cctv":false,"managerTel":"0332503886","source":"public","category":"public"},{"id":"202441810000100593","name":"남산면 행정복지센터","lat":37.791861,"lng":127.646189,"roadAddr":"강원특별자치도 춘천시 남산면 한치로 73","jibunAddr":"강원특별자치도 춘천시 남산면 창촌리 67-3","openHours":"정시","maleToilets":0,"femaleToilets":0,"disabled":true,"diaperTable":false,"emergencyBell":true,"cctv":false,"managerTel":"0332503607","source":"public","category":"public"}]