[{"id":"202542510000100425","name":"화촌면 대진교강변(게이트볼장2)","lat":37.750726,"lng":127.957146,"roadAddr":"강원특별자치도 홍천군 화촌면 구룡령로 145-12","jibunAddr":"강원특별자치도 홍천군 화촌면 외삼포리 1415-2","openHours":"상시","maleToilets":2,"femaleToilets":1,"disabled":false,"diaperTable":false,"emergencyBell":false,"cctv":false,"managerTel":"0334304521","source":"public","category":"public"},{"id":"202542510000100142","name":"화촌면행정복지센터","lat":37.770957,"lng":127.966901,"roadAddr":"강원특별자치도 홍천군 화촌면 성산로 143","jibunAddr":"강원특별자치도 홍천군 화촌면 성산리 461-1","openHours":"09:00~18:00","maleToilets":10,"femaleToilets":8,"disabled":true,"diaperTable":false,"emergencyBell":false,"cctv":false,"managerTel":"0334304521","source":"public","category":"public"},{"id":"202542510000100177","name":"드림주유소","lat":37.753918,"lng":127.950276,"roadAddr":"강원특별자치도 홍천군 화촌면 설악로 2696","jibunAddr":"강원특별자치도 홍천군 화촌면 구성포리 67-1","openHours":"08:00~20:00","maleToilets":4,"femaleToilets":2,"disabled":false,"diaperTable":false,"emergencyBell":false,"cctv":false,"managerTel":"0334359889","source":"public","category":"public"},{"id":"202542510000100006","name":"화촌지구대","lat":37.771442,"lng":127.96743,"roadAddr":"강원특별자치도 홍천군 화촌면 성산로 149","jibunAddr":"강원특별자치도 홍천군 화촌면 성산리 460-5","openHours":"09:00~18:00","maleToilets":2,"femaleToilets":0,"disabled":false,"diaperTable":false,"emergencyBell":false,"cctv":false,"managerTel":"0334322112","source":"public","category":"public"},{"id":"202542510000100442","name":"화촌면 구성포1리 퀴노아 앞","lat":37.752834,"lng":127.94074,"roadAddr":"강원특별자치도 홍천군 화촌면 가락재로 1579","jibunAddr":"강원특별자치도 홍천군 화촌면 구성포리 590-16","openHours":"상시","maleToilets":2,"femaleToilets":1,"disabled":false,"diaperTable":false,"emergencyBell":false,"cctv":false,"managerTel":"0334304521","source":"public","category":"public"},{"id":"202542510000100082","name":"성산우체국","lat":37.770669,"lng":127.966737,"roadAddr":"강원특별자치도 홍천군 화촌면 성산로 139","jibunAddr":"강원특별자치도 홍천군 화촌면 성산리 457-1","openHours":"09:00~18:00","maleToilets":1,"femaleToilets":1,"disabled":false,"diaperTable":false,"emergencyBell":false,"cctv":false,"managerTel":"0334322001","source":"public","category":"public"},{"id":"202542510000100018","name":"홍천소방서화촌119지역대","lat":37.770731,"lng":127.966406,"roadAddr":"강원특별자치도 홍천군 화촌면 성산로 137-6","jibunAddr":"강원특별자치도 홍천군 화촌면 성산리 461-1","openHours":"09:00~18:00","maleToilets":4,"femaleToilets":4,"disabled":false,"diaperTable":false,"emergencyBell":false,"cctv":false,"managerTel":"0334329119","source":"public","category":"public"},{"id":"202542510000100115","name":"삼포휴게소","lat":37.753918,"lng":127.950276,"roadAddr":"강원특별자치도 홍천군 화촌면 설악로 2696","jibunAddr":"강원특별자치도 홍천군 화촌면 구성포리 67-1","openHours":"08:00~20:00","maleToilets":4,"femaleToilets":10,"disabled":false,"diaperTable":false,"emergencyBell":false,"cctv":false,"managerTel":"0334320300","source":"public","category":"public"},{"id":"202542510000100443","name":"성산2리(버섯재배사 옆)","lat":37.773442,"lng":127.967176,"roadAddr":"강원특별자치도 홍천군 화촌면 성산로 159번길 26","jibunAddr":"강원특별자치도 홍천군 화촌면 성산리 835-1","openHours":"상시","maleToilets":2,"femaleToilets":0,"disabled":false,"diaperTable":false,"emergencyBell":false,"cctv":false,"managerTel":"0334304521","source":"public","category":"public"},{"id":"202542510000100202","name":"삼포주유소","lat":37.753918,"lng":127.950276,"roadAddr":"강원특별자치도 홍천군 화촌면 설악로 2696","jibunAddr":"강원특별자치도 홍천군 화촌면 구성포리 67-2","openHours":"08:00~20:00","maleToilets":4,"femaleToilets":2,"disabled":false,"diaperTable":false,"emergencyBell":false,"cctv":false,"managerTel":"0334359889","source":"public","category":"public"}]