[{"id":"202542510000100387","name":"용수리 물류센터앞 간이화장실","lat":37.655553,"lng":127.763879,"jibunAddr":"강원특별자치도 홍천군 남면 용수리 산15-1","openHours":"상시","maleToilets":2,"femaleToilets":1,"disabled":false,"diaperTable":false,"emergencyBell":false,"cctv":false,"managerTel":"0334304571","source":"public","category":"public"},{"id":"202542510000100157","name":"명동주유소","lat":37.637863,"lng":127.772484,"roadAddr":"강원특별자치도 홍천군 남면 남노일로 226","jibunAddr":"강원특별자치도 홍천군 남면 명동리 6-1","openHours":"08:00~20:00","maleToilets":3,"femaleToilets":1,"disabled":false,"diaperTable":false,"emergencyBell":false,"cctv":false,"managerTel":"0334323555","source":"public","category":"public"},{"id":"202542510000100389","name":"명동리 명동주요소부근 간이화장실","lat":37.637473,"lng":127.770777,"jibunAddr":"강원특별자치도 홍천군 남면 명동리 735","openHours":"상시","maleToilets":2,"femaleToilets":1,"disabled":false,"diaperTable":false,"emergencyBell":false,"cctv":false,"managerTel":"0334304571","source":"public","category":"public"},{"id":"202542510000100139","name":"남면행정복지센터","lat":37.61829,"lng":127.767657,"roadAddr":"강원특별자치도 홍천군 남면 양덕원로 97","jibunAddr":"강원특별자치도 홍천군 남면 양덕원리 178-1","openHours":"09:00~18:00","maleToilets":10,"femaleToilets":2,"disabled":true,"diaperTable":false,"emergencyBell":true,"cctv":false,"managerTel":"0334304571","source":"public","category":"public"},{"id":"202542510000100072","name":"양덕원우체국","lat":37.617343,"lng":127.768275,"roadAddr":"강원특별자치도 홍천군 남면 양덕원로 88","jibunAddr":"강원특별자치도 홍천군 남면 양덕원리 182-2","openHours":"09:00~18:00","maleToilets":2,"femaleToilets":1,"disabled":false,"diaperTable":false,"emergencyBell":false,"cctv":false,"managerTel":"0334324001","source":"public","category":"public"},{"id":"202542510000100385","name":"제곡리 승강장옆 간이화장실","lat":37.649245,"lng":127.772729,"jibunAddr":"강원특별자치도 홍천군 남면 제곡리 87-3","openHours":"상시","maleToilets":2,"femaleToilets":1,"disabled":false,"diaperTable":false,"emergencyBell":false,"cctv":false,"managerTel":"0334304571","source":"public","category":"public"},{"id":"202542510000100390","name":"명동리 오수처리장앞 간이화장실","lat":37.622762,"lng":127.762986,"jibunAddr":"강원특별자치도 홍천군 남면 명동리 205","openHours":"상시","maleToilets":2,"femaleToilets":1,"disabled":false,"diaperTable":false,"emergencyBell":false,"cctv":false,"managerTel":"0334304571","source":"public","category":"public"}]