[{"id":"202441810000100588","name":"느치골 제1주차장","lat":37.947367,"lng":127.804918,"roadAddr":"강원특별자치도 춘천시 신북읍 신샘밭로 1003","jibunAddr":"강원특별자치도 춘천시 신북읍 천전리 산73-7","openHours":"상시","maleToilets":2,"femaleToilets":0,"disabled":true,"diaperTable":false,"emergencyBell":true,"cctv":false,"managerTel":"0332401695","source":"public","category":"public"},{"id":"202441810000100549","name":"소양댐 주차장(정상)","lat":37.952019,"lng":127.814745,"roadAddr":"강원특별자치도 춘천시 북산면 청평리 산 205-12","jibunAddr":"강원특별자치도 춘천시 북산면 청평리 산 205-12","openHours":"상시","maleToilets":3,"femaleToilets":0,"disabled":true,"diaperTable":true,"emergencyBell":true,"cctv":false,"managerTel":"0332401563","source":"public","category":"public"},{"id":"202441810000100543","name":"시민의숲","lat":37.938507,"lng":127.801882,"roadAddr":"강원특별자치도 춘천시 신북읍 천전리 신샘밭로 859-2","jibunAddr":"강원특별자치도 춘천시 신북읍 천전리 11-7","openHours":"상시","maleToilets":1,"femaleToilets":0,"disabled":true,"diaperTable":false,"emergencyBell":true,"cctv":false,"managerTel":"0332401657","source":"public","category":"public"},{"id":"202441810000100548","name":"소양댐시민숲공원","lat":37.937258,"lng":127.801292,"roadAddr":"강원특별자치도 춘천시 신북읍 천전리 15-4","jibunAddr":"강원특별자치도 춘천시 신북읍 천전리 15-4","openHours":"상시","maleToilets":0,"femaleToilets":0,"disabled":true,"diaperTable":false,"emergencyBell":true,"cctv":false,"managerTel":"0332503223","source":"public","category":"public"},{"id":"202441810000100545","name":"소양호 뱃터","lat":37.949881,"lng":127.814827,"roadAddr":"강원특별자치도 춘천시 북산면 신샘밭로 1137","jibunAddr":"강원특별자치도 춘천시 북산면 청평리 산205-5","openHours":"상시","maleToilets":2,"femaleToilets":0,"disabled":true,"diaperTable":true,"emergencyBell":true,"cctv":false,"managerTel":"0332401563","source":"public","category":"public"}]