[{"id":"202441810000100590","name":"농업기술센터 본관동","lat":37.949306,"lng":127.750511,"roadAddr":"강원특별자치도 춘천시 신북읍 신북로 262","jibunAddr":"강원특별자치도 춘천시 신북읍 산천리 342-2","openHours":"9:00~18:00","maleToilets":0,"femaleToilets":0,"disabled":true,"diaperTable":false,"emergencyBell":true,"cctv":false,"managerTel":"0332503371","source":"public","category":"public"},{"id":"202441810000100504","name":"춘천막국수체험박물관","lat":37.948797,"lng":127.749781,"roadAddr":"강원특별자치도 춘천시 신북로 264","jibunAddr":"강원특별자치도 춘천시 신북읍 산천리 342-1","openHours":"10:00~17:00","maleToilets":1,"femaleToilets":0,"disabled":true,"diaperTable":true,"emergencyBell":true,"cctv":false,"managerTel":"0332448869","source":"public","category":"public"},{"id":"202441810000100321","name":"춘천소방서 신북119안전센터","lat":37.928508,"lng":127.751262,"roadAddr":"강원특별자치도 춘천시 신북로35","jibunAddr":"강원특별자치도 신북읍 율문리264-68","openHours":"09:00~18:00","maleToilets":4,"femaleToilets":0,"disabled":true,"diaperTable":false,"emergencyBell":false,"cctv":false,"managerTel":"0332489221","source":"public","category":"public"},{"id":"202441810000100336","name":"강원특별자치도 농업기술원(본관동1층)","lat":37.949578,"lng":127.757461,"roadAddr":"강원특별자치도 춘천시 신북읍 장본길 40","openHours":"정시(09:00~18:00)","maleToilets":2,"femaleToilets":0,"disabled":true,"diaperTable":true,"emergencyBell":false,"cctv":false,"source":"public","category":"public"},{"id":"202441810000100589","name":"농업기술센터 연구동","lat":37.949363,"lng":127.751014,"roadAddr":"강원특별자치도 춘천시 신북읍 신북로 261","jibunAddr":"강원특별자치도 춘천시 신북읍 산천리 342-2","openHours":"9:00~18:00","maleToilets":0,"femaleToilets":0,"disabled":true,"diaperTable":false,"emergencyBell":true,"cctv":false,"managerTel":"0332503371","source":"public","category":"public"},{"id":"202441810000100532","name":"오동보건진료소","lat":37.945503,"lng":127.752232,"roadAddr":"강원특별자치도 춘천시 신북읍 샘뜨락길 37","jibunAddr":"강원특별자치도 춘천시 신북읍 산천리 215-1","openHours":"9:00~18:00","maleToilets":2,"femaleToilets":0,"disabled":true,"diaperTable":false,"emergencyBell":true,"cctv":false,"managerTel":"0332416962","source":"public","category":"public"},{"id":"202541810000100001","name":"천전리 자전거도로","lat":37.92787,"lng":127.768867,"jibunAddr":"강원특별자치도 춘천시 신북읍 천전리 1259-1","openHours":"상시","maleToilets":2,"femaleToilets":1,"disabled":true,"diaperTable":false,"emergencyBell":true,"cctv":false,"managerTel":"0332501563","source":"public","category":"public"},{"id":"202441810000100401","name":"쌍둥이주유소","lat":37.93,"lng":127.763375,"roadAddr":"강원특별자치도 춘천시 신북읍 신샘밭로 485","jibunAddr":"강원특별자치도 춘천시 신북읍 신샘밭로 485","openHours":"9:00~18:00","maleToilets":0,"femaleToilets":0,"disabled":true,"diaperTable":false,"emergencyBell":false,"cctv":false,"managerTel":"0332411411","source":"public","category":"public"},{"id":"202441810000100407","name":"소양댐주유소","lat":37.930048,"lng":127.774629,"roadAddr":"강원특별자치도 춘천시 신북읍 신샘밭로 586","jibunAddr":"강원특별자치도 춘천시 신북읍 신샘밭로 586","openHours":"9:00~18:00","maleToilets":0,"femaleToilets":0,"disabled":true,"diaperTable":false,"emergencyBell":false,"cctv":false,"managerTel":"0332428251","source":"public","category":"public"}]