[{"id":"202441810000100382","name":"춘천강동농협주유소","lat":37.893428,"lng":127.756731,"roadAddr":"강원특별자치도 춘천시 동면 장학리 809-1(춘천시 동면 춘천로 469)","jibunAddr":"강원특별자치도 춘천시 동면 장학리 809-1(춘천시 동면 춘천로 469)","openHours":"정시","maleToilets":0,"femaleToilets":0,"disabled":true,"diaperTable":false,"emergencyBell":false,"cctv":false,"managerTel":"0332540058","source":"public","category":"public"},{"id":"202441810000100578","name":"동면주민자치센터","lat":37.910388,"lng":127.781096,"roadAddr":"강원특별자치도 춘천시 동면 가산로 69","jibunAddr":"강원특별자치도 춘천시 동면 지내리 209-15","openHours":"정시","maleToilets":1,"femaleToilets":0,"disabled":true,"diaperTable":false,"emergencyBell":true,"cctv":false,"managerTel":"0332503602","source":"public","category":"public"},{"id":"202541810000100002","name":"장학리 자전거도로","lat":37.923765,"lng":127.76235,"jibunAddr":"강원특별자치도 춘천시 동면 장학리 896-2","openHours":"상시","maleToilets":4,"femaleToilets":3,"disabled":true,"diaperTable":false,"emergencyBell":true,"cctv":false,"managerTel":"0332501563","source":"public","category":"public"},{"id":"202441810000100579","name":"동면보건지소","lat":37.910042,"lng":127.781177,"roadAddr":"강원특별자치도 춘천시 동면 가산로 67","jibunAddr":"강원특별자치도 춘천시 동면 지내리 209-3","openHours":"정시","maleToilets":1,"femaleToilets":0,"disabled":true,"diaperTable":true,"emergencyBell":true,"cctv":false,"managerTel":"0332504614","source":"public","category":"public"},{"id":"202441810000100580","name":"동면 행정복지센터(1층)","lat":37.910388,"lng":127.781096,"roadAddr":"강원특별자치도 춘천시 동면 가산로 69","jibunAddr":"강원특별자치도 춘천시 동면 지내리 209-15","openHours":"정시","maleToilets":2,"femaleToilets":0,"disabled":true,"diaperTable":false,"emergencyBell":true,"cctv":false,"managerTel":"0332455313","source":"public","category":"public"},{"id":"202441810000100391","name":"장학충전소","lat":37.919883,"lng":127.750298,"roadAddr":"강원특별자치도 춘천시 동면 춘천순환로 913","jibunAddr":"강원특별자치도 춘천시 동면 춘천순환로 913","openHours":"정시","maleToilets":2,"femaleToilets":0,"disabled":true,"diaperTable":false,"emergencyBell":false,"cctv":true,"source":"public","category":"public"},{"id":"202441810000100413","name":"새만천주유소","lat":37.882275,"lng":127.75894,"roadAddr":"강원특별자치도 춘천시 동면 만천로 139","jibunAddr":"강원특별자치도 춘천시 동면 만천로 139","openHours":"정시","maleToilets":0,"femaleToilets":0,"disabled":true,"diaperTable":false,"emergencyBell":false,"cctv":false,"managerTel":"0332641251","source":"public","category":"public"},{"id":"202441810000100335","name":"공무원교육원 운동장","lat":37.881922,"lng":127.777978,"roadAddr":"강원특별자치도 춘천시 동면 순환대로1122","openHours":"정시","maleToilets":0,"femaleToilets":0,"disabled":true,"diaperTable":false,"emergencyBell":false,"cctv":false,"managerTel":"0332486235","source":"public","category":"public"},{"id":"202441810000100462","name":"(합)경춘가스충전소","lat":37.895969,"lng":127.761632,"roadAddr":"강원특별자치도 춘천시 동면 춘천로 523","jibunAddr":"강원특별자치도 춘천시 동면 춘천로 523","openHours":"상시","maleToilets":2,"femaleToilets":0,"disabled":true,"diaperTable":false,"emergencyBell":false,"cctv":false,"managerTel":"0332557070","source":"public","category":"public"},{"id":"202441810000100560","name":"상고대전망대","lat":37.897836,"lng":127.749771,"roadAddr":"강원특별자치도 춘천시 동면 장학리 791-92","jibunAddr":"강원특별자치도 춘천시 동면 장학리 791-92","openHours":"정시","maleToilets":2,"femaleToilets":0,"disabled":true,"diaperTable":false,"emergencyBell":true,"cctv":false,"managerTel":"0332401563","source":"public","category":"public"},{"id":"202441810000100350","name":"현대오일뱅크㈜직영 춘천주유소","lat":37.889804,"lng":127.752177,"roadAddr":"강원특별자치도 춘천시 춘천로 412 (후평동)","jibunAddr":"강원특별자치도 춘천시 춘천로 412 (후평동)","openHours":"정시","maleToilets":0,"femaleToilets":0,"disabled":true,"diaperTable":false,"emergencyBell":false,"cctv":false,"managerTel":"0332526004","source":"public","category":"public"},{"id":"202441810000100591","name":"너울숲공원","lat":37.894083,"lng":127.753008,"roadAddr":"강원특별자치도 춘천시 동면 장학리 1000","jibunAddr":"강원특별자치도 춘천시 동면 장학리 1000","openHours":"상시","maleToilets":0,"femaleToilets":0,"disabled":true,"diaperTable":false,"emergencyBell":true,"cctv":false,"managerTel":"0332503223","source":"public","category":"public"}]