[{"id":"202542510000100438","name":"화촌면 야시대1리(벌촌경로당앞)","lat":37.799656,"lng":127.9618,"roadAddr":"강원특별자치도 홍천군 화촌면 야시대로 360","jibunAddr":"강원특별자치도 홍천군 화촌면 야시대리 264-1","openHours":"상시","maleToilets":1,"femaleToilets":1,"disabled":false,"diaperTable":false,"emergencyBell":false,"cctv":false,"managerTel":"0334304521","source":"public","category":"public"},{"id":"202542510000100426","name":"화촌면 야시대2리 5(품걸교아래)","lat":37.8305,"lng":127.954917,"jibunAddr":"강원특별자치도 홍천군 화촌면 야시대리","openHours":"상시","maleToilets":1,"femaleToilets":1,"disabled":false,"diaperTable":false,"emergencyBell":false,"cctv":false,"managerTel":"0334304521","source":"public","category":"public"},{"id":"202542510000100437","name":"화촌면 야시대2리 2(경로당위 가막교)","lat":37.819589,"lng":127.962454,"jibunAddr":"강원특별자치도 홍천군 화촌면 야시대리 388","openHours":"상시","maleToilets":1,"femaleToilets":1,"disabled":false,"diaperTable":false,"emergencyBell":false,"cctv":false,"managerTel":"0334304521","source":"public","category":"public"},{"id":"202542510000100439","name":"화촌면 야시대2리 6(품걸교)","lat":37.8305,"lng":127.954917,"jibunAddr":"강원특별자치도 홍천군 화촌면 야시대리","openHours":"상시","maleToilets":1,"femaleToilets":1,"disabled":false,"diaperTable":false,"emergencyBell":false,"cctv":false,"managerTel":"0334304521","source":"public","category":"public"},{"id":"202542510000100427","name":"화촌면 야시대2리 3(품걸교아래)","lat":37.833898,"lng":127.964935,"roadAddr":"강원특별자치도 홍천군 화촌면 야시대로 738번길 164","jibunAddr":"강원특별자치도 홍천군 화촌면 야시대리 산1-1","openHours":"상시","maleToilets":1,"femaleToilets":1,"disabled":false,"diaperTable":false,"emergencyBell":false,"cctv":false,"managerTel":"0334304521","source":"public","category":"public"},{"id":"202542510000100436","name":"화촌면 야시대2리 4","lat":37.820561,"lng":127.938169,"jibunAddr":"강원특별자치도 홍천군 화촌면 야시대리 738","openHours":"상시","maleToilets":1,"femaleToilets":1,"disabled":false,"diaperTable":false,"emergencyBell":false,"cctv":false,"managerTel":"0334304521","source":"public","category":"public"},{"id":"202542510000100434","name":"화촌면 야시대2리 1(안산1교)","lat":37.814764,"lng":127.959854,"jibunAddr":"강원특별자치도 홍천군 화촌면 야시대리 산58-3","openHours":"상시","maleToilets":1,"femaleToilets":1,"disabled":false,"diaperTable":false,"emergencyBell":false,"cctv":false,"managerTel":"0334304521","source":"public","category":"public"},{"id":"202542510000100435","name":"화촌면 야시대2리 버스정류장","lat":37.824795,"lng":127.957202,"jibunAddr":"강원특별자치도 홍천군 화촌면 야시대리 산2-3","openHours":"상시","maleToilets":1,"femaleToilets":1,"disabled":false,"diaperTable":false,"emergencyBell":false,"cctv":false,"managerTel":"0334304521","source":"public","category":"public"}]