[{"id":"202441810000100417","name":"만천주유소","lat":37.875985,"lng":127.776593,"roadAddr":"강원특별자치도 춘천시 동면 순환대로 1077","jibunAddr":"강원특별자치도 춘천시 동면 순환대로 1077","openHours":"정시","maleToilets":1,"femaleToilets":0,"disabled":true,"diaperTable":false,"emergencyBell":false,"cctv":false,"managerTel":"0332525673","source":"public","category":"public"},{"id":"202441810000100412","name":"새춘천주유소","lat":37.860854,"lng":127.75944,"roadAddr":"강원특별자치도 춘천시 동내면 거두리 세실로 38","jibunAddr":"강원특별자치도 춘천시 동내면 거두리 세실로 38","openHours":"정시","maleToilets":1,"femaleToilets":0,"disabled":true,"diaperTable":false,"emergencyBell":false,"cctv":false,"managerTel":"0332645133","source":"public","category":"public"},{"id":"202441810000100513","name":"종합체육회관","lat":37.863454,"lng":127.755601,"roadAddr":"강원특별자치도 춘천시 우석로 102-2","jibunAddr":"강원특별자치도 춘천시 석사동 산29-3","openHours":"상시","maleToilets":1,"femaleToilets":0,"disabled":true,"diaperTable":false,"emergencyBell":true,"cctv":false,"managerTel":"0332401788","source":"public","category":"public"},{"id":"202441810000100327","name":"강원특별자치도여성가족연구원 청사","lat":37.856954,"lng":127.75123,"roadAddr":"강원특별자치도 춘천시 외솔길","jibunAddr":"강원특별자치도 춘천시 석사동","openHours":"정시","maleToilets":4,"femaleToilets":0,"disabled":true,"diaperTable":false,"emergencyBell":false,"cctv":false,"managerTel":"0332486300","source":"public","category":"public"},{"id":"202441810000100319","name":"춘천소방서 대룡119안전센터","lat":37.846206,"lng":127.771124,"roadAddr":"강원특별자치도 춘천시 동내면 고은길 9","openHours":"정시","maleToilets":2,"femaleToilets":0,"disabled":true,"diaperTable":false,"emergencyBell":false,"cctv":false,"managerTel":"0332489221","source":"public","category":"public"},{"id":"202441810000100443","name":"구름다리주유소","lat":37.878267,"lng":127.759552,"roadAddr":"강원특별자치도 춘천시 동면 후만로 137","jibunAddr":"강원특별자치도 춘천시 동면 후만로 137","openHours":"정시","maleToilets":1,"femaleToilets":0,"disabled":true,"diaperTable":false,"emergencyBell":false,"cctv":false,"managerTel":"0332647601","source":"public","category":"public"},{"id":"202441810000100458","name":"SK직영 OK주유소","lat":37.879766,"lng":127.750259,"roadAddr":"강원특별자치도 춘천시 후석로 322 (후평동)","jibunAddr":"강원특별자치도 춘천시 후석로 322 (후평동)","openHours":"정시","maleToilets":0,"femaleToilets":0,"disabled":true,"diaperTable":false,"emergencyBell":false,"cctv":false,"managerTel":"0332534951","source":"public","category":"public"},{"id":"202441810000100457","name":"SK직영 부안주유소","lat":37.872857,"lng":127.752427,"roadAddr":"강원특별자치도 춘천시 후석로 239 (후평동)","jibunAddr":"강원특별자치도 춘천시 후석로 239 (후평동)","openHours":"정시","maleToilets":0,"femaleToilets":0,"disabled":true,"diaperTable":false,"emergencyBell":false,"cctv":false,"managerTel":"0332575151","source":"public","category":"public"},{"id":"202441810000100332","name":"강원특별자치도 여성가족연구원(1층)","lat":37.857303,"lng":127.750996,"roadAddr":"강원특별자치도 춘천시 외솔길 25","openHours":"정시","maleToilets":1,"femaleToilets":0,"disabled":true,"diaperTable":false,"emergencyBell":false,"cctv":false,"managerTel":"0332486300","source":"public","category":"public"},{"id":"202441810000100460","name":"IOZEN(이오젠)","lat":37.84794,"lng":127.771534,"roadAddr":"강원특별자치도 춘천시 동내면 순환대로 758","jibunAddr":"강원특별자치도 춘천시 동내면 순환대로 758","openHours":"상시","maleToilets":1,"femaleToilets":0,"disabled":true,"diaperTable":false,"emergencyBell":false,"cctv":false,"source":"public","category":"public"},{"id":"202441810000100469","name":"후평2동 행정복지센터","lat":37.877499,"lng":127.750478,"roadAddr":"강원특별자치도 춘천시 부안길6번길 45","jibunAddr":"강원특별자치도 춘천시 후평동 792-1","openHours":"정시","maleToilets":2,"femaleToilets":0,"disabled":true,"diaperTable":false,"emergencyBell":true,"cctv":false,"managerTel":"0332503617","source":"public","category":"public"},{"id":"202441810000100553","name":"석사동 산책로","lat":37.848749,"lng":127.755809,"roadAddr":"강원특별자치도 춘천시 석사동 141-4","jibunAddr":"강원특별자치도 춘천시 석사동 141-4","openHours":"정시","maleToilets":2,"femaleToilets":0,"disabled":true,"diaperTable":true,"emergencyBell":true,"cctv":false,"managerTel":"0332401563","source":"public","category":"public"},{"id":"202441810000100494","name":"춘천시장애인종합복지관","lat":37.845752,"lng":127.755983,"roadAddr":"강원특별자치도 춘천시 영서로 1925-21","jibunAddr":"강원특별자치도 춘천시 석사동 136","openHours":"정시","maleToilets":1,"femaleToilets":0,"disabled":true,"diaperTable":false,"emergencyBell":true,"cctv":true,"managerTel":"0332620035","source":"public","category":"public"},{"id":"202441810000100474","name":"호반테니스장","lat":37.864592,"lng":127.755943,"roadAddr":"강원특별자치도 춘천시 우석로 102-1","jibunAddr":"강원특별자치도 춘천시 석사동 77","openHours":"정시","maleToilets":2,"femaleToilets":0,"disabled":true,"diaperTable":false,"emergencyBell":true,"cctv":false,"managerTel":"0332401782","source":"public","category":"public"},{"id":"202441810000100419","name":"로데오상가","lat":37.854323,"lng":127.749738,"roadAddr":"강원특별자치도 춘천시 공지로 87","jibunAddr":"강원특별자치도 춘천시 공지로 87","openHours":"정시","maleToilets":3,"femaleToilets":0,"disabled":true,"diaperTable":false,"emergencyBell":false,"cctv":false,"managerTel":"0332619333","source":"public","category":"public"},{"id":"202441810000100351","name":"현대오일뱅크㈜직영 춘천제일주유소","lat":37.847276,"lng":127.755062,"roadAddr":"강원특별자치도 춘천시 영서로 1923 (석사동)","jibunAddr":"강원특별자치도 춘천시 영서로 1923 (석사동)","openHours":"정시","maleToilets":0,"femaleToilets":0,"disabled":true,"diaperTable":false,"emergencyBell":false,"cctv":false,"managerTel":"0332625198","source":"public","category":"public"},{"id":"202441810000100386","name":"지에스칼텍스㈜ 춘천씨티주유소","lat":37.859422,"lng":127.760462,"roadAddr":"강원특별자치도 춘천시 동내면 세실로 20","jibunAddr":"강원특별자치도 춘천시 동내면 세실로 20","openHours":"정시","maleToilets":1,"femaleToilets":0,"disabled":true,"diaperTable":false,"emergencyBell":false,"cctv":true,"managerTel":"0332622410","source":"public","category":"public"},{"id":"202441810000100584","name":"대룡관 게이트볼장","lat":37.851862,"lng":127.754828,"roadAddr":"강원특별자치도 춘천시 동내면 거두리 993번지","jibunAddr":"강원특별자치도 춘천시 동내면 거두리 993번지","openHours":"정시","maleToilets":1,"femaleToilets":0,"disabled":true,"diaperTable":false,"emergencyBell":true,"cctv":false,"managerTel":"0332401563","source":"public","category":"public"},{"id":"202441810000100583","name":"대룡산주차장(간이화장실)","lat":37.848297,"lng":127.781504,"roadAddr":"강원특별자치도 춘천시 동내면 고은리 583","jibunAddr":"강원특별자치도 춘천시 동내면 고은리 583","openHours":"정시","maleToilets":1,"femaleToilets":0,"disabled":true,"diaperTable":false,"emergencyBell":false,"cctv":false,"managerTel":"0332455395","source":"public","category":"public"},{"id":"202441810000100486","name":"카플 주차장","lat":37.846314,"lng":127.755998,"roadAddr":"강원특별자치도 춘천시 석사동 137-2","jibunAddr":"강원특별자치도 춘천시 석사동 137-2","openHours":"정시","maleToilets":1,"femaleToilets":0,"disabled":true,"diaperTable":true,"emergencyBell":false,"cctv":false,"managerTel":"0332401563","source":"public","category":"public"},{"id":"202441810000100475","name":"호반체육관","lat":37.863852,"lng":127.757362,"roadAddr":"강원특별자치도 춘천시 우석로 102","jibunAddr":"강원특별자치도 춘천시 석사동 산29-3","openHours":"정시","maleToilets":1,"femaleToilets":0,"disabled":true,"diaperTable":true,"emergencyBell":true,"cctv":true,"managerTel":"0332401784","source":"public","category":"public"},{"id":"202441810000100468","name":"후평3동 행정복지센터","lat":37.876501,"lng":127.753859,"roadAddr":"강원특별자치도 춘천시 후만로 83","jibunAddr":"강원특별자치도 춘천시 후평동 805-1","openHours":"정시","maleToilets":0,"femaleToilets":0,"disabled":true,"diaperTable":false,"emergencyBell":true,"cctv":false,"managerTel":"0332455687","source":"public","category":"public"},{"id":"202441810000100465","name":"(주)석사주유소","lat":37.851898,"lng":127.751728,"roadAddr":"강원특별자치도 춘천시 공지로 49","jibunAddr":"강원특별자치도 춘천시 공지로 49","openHours":"정시","maleToilets":1,"femaleToilets":0,"disabled":true,"diaperTable":false,"emergencyBell":false,"cctv":false,"managerTel":"0332612706","source":"public","category":"public"},{"id":"202441810000100581","name":"동내면행정복지센터","lat":37.847938,"lng":127.761184,"roadAddr":"강원특별자치도 춘천시 동내면 동내로 78","jibunAddr":"강원특별자치도 춘천시 동내면 신촌리 583-1","openHours":"정시","maleToilets":2,"femaleToilets":0,"disabled":true,"diaperTable":false,"emergencyBell":true,"cctv":false,"managerTel":"0332455395","source":"public","category":"public"},{"id":"202441810000100344","name":"후평3동 우체국","lat":37.872879,"lng":127.752936,"roadAddr":"강원특별자치도 춘천시 후석로 240","jibunAddr":"강원특별자치도 춘천시 후석로 240","openHours":"정시","maleToilets":4,"femaleToilets":0,"disabled":true,"diaperTable":false,"emergencyBell":false,"cctv":true,"managerTel":"0332569914","source":"public","category":"public"},{"id":"202441810000100535","name":"애막골 등산로 입구","lat":37.868529,"lng":127.765536,"roadAddr":"강원특별자치도 춘천시 석사동 산1-1","jibunAddr":"강원특별자치도 춘천시 석사동 산1-1","openHours":"정시","maleToilets":1,"femaleToilets":0,"disabled":true,"diaperTable":false,"emergencyBell":false,"cctv":false,"managerTel":"0332401563","source":"public","category":"public"},{"id":"202441810000100414","name":"베스트주유소","lat":37.878712,"lng":127.762263,"roadAddr":"강원특별자치도 춘천시 후만로 162","jibunAddr":"강원특별자치도 춘천시 후만로 162","openHours":"정시","maleToilets":1,"femaleToilets":0,"disabled":true,"diaperTable":false,"emergencyBell":false,"cctv":false,"managerTel":"0332416886","source":"public","category":"public"},{"id":"202441810000100485","name":"큰골공원","lat":37.855484,"lng":127.758348,"roadAddr":"강원특별자치도 춘천시 동내면 거두택지길 67","jibunAddr":"강원특별자치도 춘천시 동내면 거두리 1115","openHours":"정시","maleToilets":0,"femaleToilets":0,"disabled":true,"diaperTable":false,"emergencyBell":true,"cctv":false,"managerTel":"0332503223","source":"public","category":"public"},{"id":"202441810000100452","name":"강원지방경찰청","lat":37.861894,"lng":127.757293,"roadAddr":"강원특별자치도 춘천시 동내면 세실로 49","jibunAddr":"강원특별자치도 춘천시 동내면 세실로 49","openHours":"정시","maleToilets":3,"femaleToilets":0,"disabled":true,"diaperTable":false,"emergencyBell":false,"cctv":true,"managerTel":"0332480423","source":"public","category":"public"},{"id":"202441810000100497","name":"춘천시립도서관","lat":37.862039,"lng":127.754987,"roadAddr":"강원특별자치도 춘천시 우석로 100","jibunAddr":"강원특별자치도 춘천시 석사동 산32-1","openHours":"정시","maleToilets":10,"femaleToilets":5,"disabled":true,"diaperTable":true,"emergencyBell":true,"cctv":false,"managerTel":"0332455065","source":"public","category":"public"},{"id":"202441810000100575","name":"만천게이트볼장","lat":37.879916,"lng":127.757879,"roadAddr":"강원특별자치도 춘천시 세실로 250","jibunAddr":"강원특별자치도 춘천시 동면 만천리 893-3","openHours":"정시","maleToilets":2,"femaleToilets":0,"disabled":true,"diaperTable":false,"emergencyBell":true,"cctv":false,"managerTel":"0332401782","source":"public","category":"public"},{"id":"202441810000100429","name":"대룡산주유소","lat":37.841017,"lng":127.764934,"roadAddr":"강원특별자치도 춘천시 동내면 순환대로 660","jibunAddr":"강원특별자치도 춘천시 동내면 순환대로 660","openHours":"정시","maleToilets":0,"femaleToilets":0,"disabled":true,"diaperTable":false,"emergencyBell":false,"cctv":false,"managerTel":"0332615185","source":"public","category":"public"},{"id":"202441810000100601","name":"국민체육센터","lat":37.86262,"lng":127.756678,"roadAddr":"강원특별자치도 춘천시 우석로 102-3","jibunAddr":"강원특별자치도 춘천시 석사동 산29-3","openHours":"정시","maleToilets":3,"femaleToilets":0,"disabled":true,"diaperTable":false,"emergencyBell":true,"cctv":false,"managerTel":"0332401776","source":"public","category":"public"},{"id":"202441810000100615","name":"거두리잔디구장","lat":37.864537,"lng":127.781872,"roadAddr":"강원특별자치도 춘천시 동내면 거두단지 2길 40","jibunAddr":"강원특별자치도 춘천시 동내면 거두리 1156","openHours":"상시","maleToilets":1,"femaleToilets":0,"disabled":true,"diaperTable":false,"emergencyBell":true,"cctv":false,"managerTel":"0332501563","source":"public","category":"public"},{"id":"202441810000100450","name":"거두주유소","lat":37.855798,"lng":127.750331,"roadAddr":"강원특별자치도 춘천시 동내면 춘천순환로 59","jibunAddr":"강원특별자치도 춘천시 동내면 춘천순환로 59","openHours":"정시","maleToilets":1,"femaleToilets":0,"disabled":true,"diaperTable":false,"emergencyBell":false,"cctv":true,"managerTel":"0332578778","source":"public","category":"public"},{"id":"202441810000100420","name":"동춘천농협클린주유소","lat":37.837711,"lng":127.760424,"roadAddr":"강원특별자치도 춘천시 동내면 학곡동2길 11","jibunAddr":"강원특별자치도 춘천시 동내면 학곡동2길 11","openHours":"정시","maleToilets":1,"femaleToilets":0,"disabled":true,"diaperTable":false,"emergencyBell":false,"cctv":true,"managerTel":"0332618911","source":"public","category":"public"}]