[{"id":"202351200000100239","name":"서울대학교병원 인재원","lat":36.724172,"lng":128.11597,"jibunAddr":"경상북도 문경시 문경읍 마원리 942-4","openHours":"상시","maleToilets":3,"femaleToilets":2,"disabled":false,"diaperTable":false,"emergencyBell":true,"cctv":false,"managerTel":"0545508511","source":"public","category":"public"},{"id":"202351200000100053","name":"주흘문화센터","lat":36.733852,"lng":128.10593,"roadAddr":"경상북도 문경시 문경읍 새재로 469","jibunAddr":"경상북도 문경시 문경읍 하리 149-2","openHours":"09:00~18:00","maleToilets":11,"femaleToilets":7,"disabled":true,"diaperTable":false,"emergencyBell":false,"cctv":false,"managerTel":"0545508515","source":"public","category":"public"},{"id":"202351200000100141","name":"문희도서관","lat":36.73715,"lng":128.102059,"roadAddr":"경상북도 문경시 문경읍 체육관길 11","jibunAddr":"경상북도 문경시 문경읍 상리 491","openHours":"09:00~22:00","maleToilets":17,"femaleToilets":5,"disabled":true,"diaperTable":false,"emergencyBell":false,"cctv":false,"managerTel":"0545508412","source":"public","category":"public"},{"id":"202351200000100130","name":"문경전통시장","lat":36.735546,"lng":128.107708,"roadAddr":"경상북도 문경시 문경읍 주흘로31-13","jibunAddr":"경상북도 문경시 문경읍 하리 88-2","openHours":"09:00~18:00","maleToilets":6,"femaleToilets":3,"disabled":true,"diaperTable":false,"emergencyBell":true,"cctv":false,"managerTel":"0545506235","source":"public","category":"public"},{"id":"202351200000100246","name":"마원성지","lat":36.723711,"lng":128.101155,"roadAddr":"경상북도 문경시 문경읍 오서길 73","jibunAddr":"경상북도 문경시 문경읍 마원리 685-4","openHours":"상시","maleToilets":4,"femaleToilets":4,"disabled":false,"diaperTable":false,"emergencyBell":true,"cctv":false,"managerTel":"0545508511","source":"public","category":"public"},{"id":"202351200000100244","name":"문경택시 승강장","lat":36.733558,"lng":128.107967,"jibunAddr":"경상북도 문경시 문경읍 하리 207-11","openHours":"상시","maleToilets":2,"femaleToilets":2,"disabled":false,"diaperTable":false,"emergencyBell":true,"cctv":false,"managerTel":"0545508511","source":"public","category":"public"},{"id":"202351200000100407","name":"졸음쉼터(양평방향)","lat":36.717863,"lng":128.104187,"jibunAddr":"경상북도 문경시 문경읍 마원리 428-27","openHours":"상시","maleToilets":3,"femaleToilets":2,"disabled":false,"diaperTable":false,"emergencyBell":false,"cctv":false,"managerTel":"0437216000","source":"public","category":"public"},{"id":"202351200000100242","name":"문경버스터미널","lat":36.733729,"lng":128.107506,"roadAddr":"경상북도 문경시 문경읍 문경읍 새재로 458","jibunAddr":"경상북도 문경시 문경읍 하리 202-1","openHours":"상시","maleToilets":6,"femaleToilets":4,"disabled":true,"diaperTable":false,"emergencyBell":true,"cctv":false,"managerTel":"0545508511","source":"public","category":"public"},{"id":"202351200000100444","name":"문경새재IC주유소","lat":36.719821,"lng":128.106426,"roadAddr":"경상북도 문경시 문경읍 문경대로 2094","jibunAddr":"경상북도 문경시 문경읍 마원리 426","openHours":"08:00~20:00","maleToilets":5,"femaleToilets":3,"disabled":false,"diaperTable":false,"emergencyBell":false,"cctv":false,"managerTel":"0545715502","source":"public","category":"public"},{"id":"202351200000100225","name":"문경새재우체국","lat":36.733246,"lng":128.107909,"roadAddr":"경상북도 문경시 문경읍 문희로 9","jibunAddr":"경상북도 문경시 문경읍 하리 199-3","openHours":"09:00~18:00,12:00~13:00 미개방","maleToilets":2,"femaleToilets":0,"disabled":false,"diaperTable":false,"emergencyBell":false,"cctv":false,"managerTel":"0545711500","source":"public","category":"public"},{"id":"202351200000100397","name":"문경온천 1공원","lat":36.730846,"lng":128.111487,"jibunAddr":"경상북도 문경시 문경읍 하리 388","openHours":"상시","maleToilets":2,"femaleToilets":0,"disabled":false,"diaperTable":false,"emergencyBell":false,"cctv":false,"managerTel":"0545508511","source":"public","category":"public"},{"id":"202351200000100204","name":"문경119안전센터","lat":36.725301,"lng":128.107752,"roadAddr":"경상북도 문경시 새재로 356","jibunAddr":"경상북도 문경시 문경읍 하리 402-4","openHours":"09:00~18:00","maleToilets":6,"femaleToilets":2,"disabled":true,"diaperTable":false,"emergencyBell":true,"cctv":false,"managerTel":"0545710119","source":"public","category":"public"},{"id":"202351200000100446","name":"문경주유소","lat":36.724935,"lng":128.10726,"roadAddr":"경상북도 문경시 문경읍 새재로 355","jibunAddr":"경상북도 문경시 문경읍 하리 305-7","openHours":"08:00~20:00","maleToilets":2,"femaleToilets":2,"disabled":false,"diaperTable":false,"emergencyBell":false,"cctv":false,"managerTel":"0545720089","source":"public","category":"public"},{"id":"202351200000100448","name":"문희주유소","lat":36.736705,"lng":128.106229,"roadAddr":"경상북도 문경시 문경읍 청운로 47","jibunAddr":"경상북도 문경시 문경읍 하리 105-1","openHours":"08:00~20:00","maleToilets":3,"femaleToilets":3,"disabled":false,"diaperTable":false,"emergencyBell":false,"cctv":false,"managerTel":"0545715182","source":"public","category":"public"},{"id":"202351200000100054","name":"생활문화센터","lat":36.734728,"lng":128.107218,"roadAddr":"경상북도 문경시 문경읍 주흘1길 2","jibunAddr":"경상북도 문경시 문경읍 하리 94","openHours":"09:00~18:00","maleToilets":4,"femaleToilets":2,"disabled":true,"diaperTable":false,"emergencyBell":false,"cctv":false,"managerTel":"0545508515","source":"public","category":"public"},{"id":"202351200000100453","name":"새재IC주유소","lat":36.709153,"lng":128.121754,"roadAddr":"경상북도 문경시 마성면 봉명길 83","jibunAddr":"경상북도 문경시 마성면 남호리 152-2","openHours":"08:00~20:00","maleToilets":5,"femaleToilets":3,"disabled":false,"diaperTable":false,"emergencyBell":false,"cctv":false,"managerTel":"0545723051","source":"public","category":"public"},{"id":"202351200000100052","name":"문경읍농업인상담소","lat":36.73735,"lng":128.112541,"roadAddr":"경상북도 문경시 문경읍 청운로 103","jibunAddr":"경상북도 문경시 문경읍 교촌리 147-1","openHours":"09:00~18:00","maleToilets":2,"femaleToilets":1,"disabled":false,"diaperTable":false,"emergencyBell":false,"cctv":false,"managerTel":"0545508281","source":"public","category":"public"},{"id":"202351200000100211","name":"문경파출소","lat":36.737545,"lng":128.107164,"roadAddr":"경상북도 문경시 문경읍 문희로 61","jibunAddr":"경상북도 문경시 문경읍 상리 454-4","openHours":"상시","maleToilets":2,"femaleToilets":1,"disabled":false,"diaperTable":false,"emergencyBell":false,"cctv":false,"managerTel":"0545507325","source":"public","category":"public"},{"id":"202351200000100245","name":"문경게이트볼장","lat":36.732569,"lng":128.105986,"jibunAddr":"경상북도 문경시 문경읍 하리 175-4","openHours":"상시","maleToilets":2,"femaleToilets":2,"disabled":false,"diaperTable":false,"emergencyBell":false,"cctv":false,"managerTel":"0545508511","source":"public","category":"public"},{"id":"202351200000100051","name":"문경읍행정복지센터","lat":36.737301,"lng":128.106802,"roadAddr":"경상북도 문경시 문경읍 청운로 55","jibunAddr":"경상북도 문경시 문경읍 상리 447-1","openHours":"09:00~18:00","maleToilets":7,"femaleToilets":3,"disabled":true,"diaperTable":false,"emergencyBell":false,"cctv":false,"managerTel":"0545508511","source":"public","category":"public"},{"id":"202351200000100243","name":"하리2리 어린이공원","lat":36.732835,"lng":128.11011,"roadAddr":"경상북도 문경시 문경읍 온천5길 20","jibunAddr":"경상북도 문경시 문경읍 하리 357-1","openHours":"상시","maleToilets":0,"femaleToilets":2,"disabled":true,"diaperTable":false,"emergencyBell":true,"cctv":false,"managerTel":"0545508511","source":"public","category":"public"},{"id":"202351200000100424","name":"시립문경요양병원","lat":36.731829,"lng":128.111683,"roadAddr":"경상북도 문경시 문경읍 여우목로 31","jibunAddr":"경상북도 문경시 문경읍 하리 360","openHours":"09:00~20:00","maleToilets":10,"femaleToilets":5,"disabled":true,"diaperTable":false,"emergencyBell":false,"cctv":false,"managerTel":"0545507000","source":"public","category":"public"},{"id":"202351200000100398","name":"문경온천 2공원","lat":36.727856,"lng":128.107673,"jibunAddr":"경상북도 문경시 문경읍 하리 396-3","openHours":"상시","maleToilets":6,"femaleToilets":0,"disabled":false,"diaperTable":false,"emergencyBell":false,"cctv":false,"managerTel":"0545508511","source":"public","category":"public"},{"id":"202351200000100463","name":"중앙주유소","lat":36.732841,"lng":128.107918,"roadAddr":"경상북도 문경시 문경읍 새재로 444","jibunAddr":"경상북도 문경시 문경읍 하리 200-1","openHours":"08:00~20:00","maleToilets":2,"femaleToilets":0,"disabled":false,"diaperTable":false,"emergencyBell":false,"cctv":false,"managerTel":"0545715151","source":"public","category":"public"},{"id":"202351200000100055","name":"문경문화체육센터","lat":36.73794,"lng":128.10241,"roadAddr":"경상북도 문경시 문경읍 체육관길 15","jibunAddr":"경상북도 문경시 문경읍 상리 289-2","openHours":"체육행사시","maleToilets":14,"femaleToilets":7,"disabled":true,"diaperTable":false,"emergencyBell":false,"cctv":false,"managerTel":"0545508515","source":"public","category":"public"},{"id":"202351200000100146","name":"문경보건지소","lat":36.737301,"lng":128.106802,"roadAddr":"경상북도 문경시 문경읍 청운로 55","jibunAddr":"경상북도 문경시 문경읍 상리 447-1","openHours":"주말 미개방","maleToilets":2,"femaleToilets":2,"disabled":true,"diaperTable":true,"emergencyBell":true,"cctv":true,"managerTel":"0545508141","source":"public","category":"public"}]