[{"id":"202351200000100056","name":"가은행정복지센터","lat":36.642691,"lng":128.062069,"roadAddr":"경상북도 문경시 가은읍 가은로123","jibunAddr":"경상북도 가은읍 왕능리 360-5","openHours":"정시","maleToilets":5,"femaleToilets":2,"disabled":true,"diaperTable":false,"emergencyBell":false,"cctv":true,"managerTel":"0545508552","source":"public","category":"public"},{"id":"202351200000100147","name":"가은보건지소","lat":36.644325,"lng":128.061755,"roadAddr":"경상북도 문경시 가은읍 가은1길 21","jibunAddr":"경상북도 문경시 가은읍 왕능리 275-85","openHours":"미개방","maleToilets":3,"femaleToilets":2,"disabled":false,"diaperTable":true,"emergencyBell":true,"cctv":false,"managerTel":"0545508055","source":"public","category":"public"},{"id":"202351200000100423","name":"공공도서관 가은분관","lat":36.644288,"lng":128.06242,"roadAddr":"경상북도 문경시 가은읍 대야로 2508","jibunAddr":"경상북도 문경시 가은읍 왕능리 292-2","openHours":"정시","maleToilets":7,"femaleToilets":4,"disabled":true,"diaperTable":false,"emergencyBell":false,"cctv":false,"managerTel":"0545720309","source":"public","category":"public"},{"id":"202351200000100266","name":"가은팜스테이션(가은역)","lat":36.649521,"lng":128.060485,"roadAddr":"경상북도 문경시 가은읍 대야로2441","jibunAddr":"경상북도 문경시 가은읍 왕능리 536","openHours":"상시","maleToilets":5,"femaleToilets":3,"disabled":true,"diaperTable":false,"emergencyBell":true,"cctv":false,"managerTel":"0545508551","source":"public","category":"public"},{"id":"202351200000100257","name":"왕능2리 소공원","lat":36.644614,"lng":128.066133,"jibunAddr":"경상북도 문경시 가은읍 왕능리 309-8","openHours":"상시","maleToilets":3,"femaleToilets":3,"disabled":false,"diaperTable":false,"emergencyBell":true,"cctv":false,"managerTel":"0545508551","source":"public","category":"public"},{"id":"202351200000100060","name":"가은양산문화센터","lat":36.64415,"lng":128.060185,"roadAddr":"경상북도 문경시 가은읍 가은2길5","jibunAddr":"경상북도 가은읍 왕능리 364","openHours":"정시","maleToilets":12,"femaleToilets":9,"disabled":true,"diaperTable":false,"emergencyBell":false,"cctv":false,"managerTel":"0545508551","source":"public","category":"public"},{"id":"202351200000100230","name":"문경가은우체국","lat":36.645338,"lng":128.062138,"roadAddr":"경상북도 문경시 가은읍 대야로 2492","jibunAddr":"경상북도 문경시 가은읍 왕능리 275-91","openHours":"정시","maleToilets":2,"femaleToilets":0,"disabled":false,"diaperTable":false,"emergencyBell":false,"cctv":false,"managerTel":"0545716000","source":"public","category":"public"},{"id":"202351200000100431","name":"고려주유소","lat":36.648907,"lng":128.080579,"roadAddr":"경상북도 문경시 마성면 은성로 1028","jibunAddr":"경상북도 문경시 마성면 하내리 607-10","openHours":"정시","maleToilets":2,"femaleToilets":0,"disabled":false,"diaperTable":false,"emergencyBell":false,"cctv":false,"managerTel":"0545715400","source":"public","category":"public"},{"id":"202351200000100133","name":"가은아자개장터","lat":36.646609,"lng":128.060989,"roadAddr":"경상북도 문경시 가은5길 7","jibunAddr":"경상북도 문경시 가은읍 왕능리 275-26","openHours":"정시","maleToilets":5,"femaleToilets":5,"disabled":true,"diaperTable":false,"emergencyBell":true,"cctv":false,"managerTel":"0545506235","source":"public","category":"public"},{"id":"202351200000100410","name":"서문경농협 가은지점","lat":36.646202,"lng":128.062172,"roadAddr":"경상북도 문경시 가은읍 대야로 2483","jibunAddr":"경상북도 문경시 가은읍 왕능리 273-9","openHours":"정시","maleToilets":6,"femaleToilets":2,"disabled":false,"diaperTable":false,"emergencyBell":false,"cctv":false,"managerTel":"0545536060","source":"public","category":"public"},{"id":"202351200000100205","name":"가은119안전센터","lat":36.642222,"lng":128.062685,"roadAddr":"경상북도 문경시 가은로 126","jibunAddr":"경상북도 문경시 가은읍 왕능리 358-1","openHours":"정시","maleToilets":4,"femaleToilets":1,"disabled":false,"diaperTable":false,"emergencyBell":false,"cctv":false,"managerTel":"0545715119","source":"public","category":"public"},{"id":"202351200000100059","name":"가은읍예비군중대","lat":36.642517,"lng":128.06176,"roadAddr":"경상북도 문경시 가은읍 가은로121-6","jibunAddr":"경상북도 가은읍 왕능리 359-3","openHours":"정시","maleToilets":1,"femaleToilets":0,"disabled":false,"diaperTable":false,"emergencyBell":false,"cctv":false,"managerTel":"0545716113","source":"public","category":"public"},{"id":"202351200000100215","name":"가은파출소","lat":36.642991,"lng":128.063758,"roadAddr":"경상북도 문경시 가은읍 가은로 137","jibunAddr":"경상북도 문경시 가은읍 왕능리 336-4","openHours":"상시","maleToilets":2,"femaleToilets":1,"disabled":false,"diaperTable":false,"emergencyBell":true,"cctv":false,"managerTel":"0545507325","source":"public","category":"public"},{"id":"202351200000100248","name":"갈전리 소공원","lat":36.639486,"lng":128.06907,"jibunAddr":"경상북도 문경시 가은읍 갈전리 1014-9","openHours":"상시","maleToilets":2,"femaleToilets":1,"disabled":false,"diaperTable":false,"emergencyBell":false,"cctv":false,"managerTel":"0545508551","source":"public","category":"public"},{"id":"202351200000100057","name":"가은농업인상담소","lat":36.642517,"lng":128.06176,"roadAddr":"경상북도 문경시 가은읍 가은로121-6","jibunAddr":"경상북도 가은읍 왕능리 359-3","openHours":"정시","maleToilets":2,"femaleToilets":1,"disabled":false,"diaperTable":false,"emergencyBell":false,"cctv":false,"managerTel":"0545721087","source":"public","category":"public"},{"id":"202351200000100422","name":"가은버스터미널","lat":36.646772,"lng":128.061891,"roadAddr":"경상북도 문경시 가은읍 대야로 2475","jibunAddr":"경상북도 문경시 가은읍 왕능리 271-5","openHours":"상시","maleToilets":2,"femaleToilets":0,"disabled":false,"diaperTable":false,"emergencyBell":false,"cctv":false,"managerTel":"0545506237","source":"public","category":"public"}]