[{"id":"202351200000100306","name":"간송도로변","lat":36.733232,"lng":128.308493,"jibunAddr":"경상북도 문경시 동로면 간송리 950-2","openHours":"상시","maleToilets":3,"femaleToilets":1,"disabled":false,"diaperTable":false,"emergencyBell":false,"cctv":false,"managerTel":"0545508710","source":"public","category":"public"},{"id":"202351200000100301","name":"용지수상(물빛광장)","lat":36.71194,"lng":128.302489,"roadAddr":"경상북도 문경시 동로면 금천로 1704","jibunAddr":"경상북도 문경시 동로면 인곡리 789","openHours":"상시","maleToilets":4,"femaleToilets":2,"disabled":false,"diaperTable":false,"emergencyBell":true,"cctv":false,"managerTel":"0545508710","source":"public","category":"public"},{"id":"202351200000100304","name":"금천교","lat":36.721902,"lng":128.305656,"jibunAddr":"경상북도 문경시 동로면 수평리 산42-2","openHours":"상시","maleToilets":3,"femaleToilets":2,"disabled":false,"diaperTable":false,"emergencyBell":true,"cctv":false,"managerTel":"0545508710","source":"public","category":"public"},{"id":"202351200000100303","name":"용지(수상)식당","lat":36.717809,"lng":128.299915,"roadAddr":"경상북도 문경시 동로면 금천로 1802","jibunAddr":"경상북도 문경시 동로면 수평리 463","openHours":"상시","maleToilets":3,"femaleToilets":1,"disabled":false,"diaperTable":false,"emergencyBell":false,"cctv":false,"managerTel":"0545508710","source":"public","category":"public"},{"id":"202351200000100307","name":"천주휴게소","lat":36.737099,"lng":128.311721,"jibunAddr":"경상북도 문경시 동로면 간송리 910-2","openHours":"상시","maleToilets":2,"femaleToilets":1,"disabled":false,"diaperTable":false,"emergencyBell":false,"cctv":false,"managerTel":"0545508710","source":"public","category":"public"},{"id":"202351200000100302","name":"인곡리도로변","lat":36.710813,"lng":128.303511,"roadAddr":"경상북도 문경시 동로면 금천로 1686","jibunAddr":"경상북도 문경시 동로면 인곡리 949","openHours":"상시","maleToilets":2,"femaleToilets":0,"disabled":false,"diaperTable":false,"emergencyBell":false,"cctv":false,"managerTel":"0545508710","source":"public","category":"public"},{"id":"202351200000100305","name":"간송간좌골","lat":36.733209,"lng":128.312491,"jibunAddr":"경상북도 문경시 동로면 간송리 677","openHours":"상시","maleToilets":2,"femaleToilets":1,"disabled":false,"diaperTable":false,"emergencyBell":false,"cctv":false,"managerTel":"0545508710","source":"public","category":"public"}]