[{"id":"202351100000100290","name":"s-oil 승춘에너지","lat":36.579028,"lng":128.19143,"roadAddr":"경상북도 상주시 함창읍 함창로 581","jibunAddr":"경상북도 상주시 함창읍 윤직리 622-8","openHours":"09:00~18:00","maleToilets":2,"femaleToilets":6,"disabled":false,"diaperTable":false,"emergencyBell":false,"cctv":false,"managerTel":"0545530845","source":"public","category":"public"},{"id":"202351200000100199","name":"점촌시외터미널","lat":36.586123,"lng":128.192308,"roadAddr":"경상북도 문경시 모전로 54","jibunAddr":"경상북도 문경시 모전동 115-2","openHours":"05:30~20:20","maleToilets":9,"femaleToilets":6,"disabled":true,"diaperTable":false,"emergencyBell":false,"cctv":false,"managerTel":"0545558532","source":"public","category":"public"},{"id":"202351200000100135","name":"중앙시장 주차타워","lat":36.594205,"lng":128.196913,"roadAddr":"경상북도 문경시 중앙시장1길 12","jibunAddr":"경상북도 문경시 점촌동 195-10","openHours":"09:00~18:00","maleToilets":8,"femaleToilets":4,"disabled":true,"diaperTable":false,"emergencyBell":true,"cctv":false,"managerTel":"0545506235","source":"public","category":"public"},{"id":"202351200000100137","name":"문화예술회관","lat":36.590039,"lng":128.19778,"roadAddr":"경상북도 문경시 신흥로 85","jibunAddr":"경상북도 문경시 점촌동 118","openHours":"09:00~18:00","maleToilets":30,"femaleToilets":16,"disabled":true,"diaperTable":false,"emergencyBell":true,"cctv":false,"managerTel":"0545508395","source":"public","category":"public"},{"id":"202351200000100112","name":"영강체육공원 테니스장","lat":36.604006,"lng":128.213615,"jibunAddr":"경상북도 문경시 흥덕동 28-8","openHours":"상시","maleToilets":8,"femaleToilets":3,"disabled":false,"diaperTable":false,"emergencyBell":false,"cctv":false,"managerTel":"0545506418","source":"public","category":"public"},{"id":"202351200000100409","name":"홈플러스㈜ 문경점","lat":36.58731,"lng":128.190377,"roadAddr":"경상북도 문경시 모전로 65","jibunAddr":"경상북도 문경시 모전동 859-2","openHours":"09:00~22:00","maleToilets":6,"femaleToilets":4,"disabled":false,"diaperTable":false,"emergencyBell":false,"cctv":false,"managerTel":"0545598000","source":"public","category":"public"},{"id":"202351200000100119","name":"청소년문화의집","lat":36.58638,"lng":128.193426,"roadAddr":"경상북도 문경시 신흥로 11","jibunAddr":"경상북도 문경시 모전동 77-13","openHours":"10:00~17:00","maleToilets":4,"femaleToilets":4,"disabled":true,"diaperTable":false,"emergencyBell":false,"cctv":true,"managerTel":"0545506655","source":"public","category":"public"},{"id":"202351200000100400","name":"국민건강보험공단 문경예천지사","lat":36.593559,"lng":128.200398,"roadAddr":"경상북도 문경시 중앙3길 11","jibunAddr":"경상북도 문경시 점촌동 271-35","openHours":"09:00~18:00","maleToilets":14,"femaleToilets":6,"disabled":true,"diaperTable":false,"emergencyBell":false,"cctv":false,"managerTel":"0545505110","source":"public","category":"public"},{"id":"202351200000100113","name":"국제클라이밍센터","lat":36.602742,"lng":128.211611,"roadAddr":"경상북도 문경시 영강공원길 115","jibunAddr":"경상북도 문경시 흥덕동 79-8","openHours":"상시","maleToilets":3,"femaleToilets":1,"disabled":true,"diaperTable":false,"emergencyBell":false,"cctv":false,"managerTel":"0545506418","source":"public","category":"public"},{"id":"202351200000100210","name":"남부파출소","lat":36.59385,"lng":128.188958,"roadAddr":"경상북도 문경시  모전로 144","jibunAddr":"경상북도 문경시 모전동 959-9","openHours":"상시","maleToilets":2,"femaleToilets":1,"disabled":false,"diaperTable":false,"emergencyBell":false,"cctv":false,"managerTel":"0545507325","source":"public","category":"public"},{"id":"202351200000100370","name":"충혼탑","lat":36.600947,"lng":128.197878,"roadAddr":"경상북도 문경시 충혼탑길 11","jibunAddr":"경상북도 문경시 점촌동 산 12-31","openHours":"상시","maleToilets":1,"femaleToilets":1,"disabled":false,"diaperTable":false,"emergencyBell":false,"cctv":false,"managerTel":"0545508802","source":"public","category":"public"},{"id":"202351200000100111","name":"영강체육공원 게이트볼장 뒤","lat":36.604006,"lng":128.213615,"jibunAddr":"경상북도 문경시 흥덕동 28-8","openHours":"상시","maleToilets":3,"femaleToilets":1,"disabled":false,"diaperTable":false,"emergencyBell":false,"cctv":false,"managerTel":"0545506418","source":"public","category":"public"},{"id":"202351200000100233","name":"문경신흥동우체국","lat":36.601431,"lng":128.203609,"roadAddr":"경상북도 문경시 신흥시장길 20","jibunAddr":"경상북도 문경시 흥덕동 793-9","openHours":"09:00~18:00,12:00~13:00 미개방","maleToilets":2,"femaleToilets":0,"disabled":false,"diaperTable":false,"emergencyBell":false,"cctv":false,"managerTel":"0545522252","source":"public","category":"public"},{"id":"202351200000100139","name":"중앙도서관","lat":36.59072,"lng":128.198177,"roadAddr":"경상북도 문경시 신흥로 101","jibunAddr":"경상북도 문경시 점촌동 118","openHours":"09:00~22:00","maleToilets":13,"femaleToilets":5,"disabled":true,"diaperTable":false,"emergencyBell":true,"cctv":false,"managerTel":"0545508402","source":"public","category":"public"},{"id":"202351200000100193","name":"도시재생지원센터 1층","lat":36.595489,"lng":128.202804,"roadAddr":"경상북도 문경시 점촌역길 3","jibunAddr":"경상북도 문경시 점촌동 163-2","openHours":"09:00~18:00","maleToilets":2,"femaleToilets":0,"disabled":false,"diaperTable":false,"emergencyBell":false,"cctv":false,"managerTel":"0549259907","source":"public","category":"public"},{"id":"202351200000100399","name":"국립농산물품질관리원 문경사무소","lat":36.588173,"lng":128.195169,"roadAddr":"경상북도 문경시 남부 4길 26","jibunAddr":"경상북도 문경시 모전동 63-3","openHours":"09:00~18:00","maleToilets":3,"femaleToilets":2,"disabled":true,"diaperTable":false,"emergencyBell":false,"cctv":false,"managerTel":"0545536060","source":"public","category":"public"},{"id":"202351200000100427","name":"점촌역","lat":36.596732,"lng":128.204198,"roadAddr":"경상북도 문경시 신흥로 170","jibunAddr":"경상북도 문경시 점촌동 49-2","openHours":"08:00~20:00","maleToilets":6,"femaleToilets":5,"disabled":true,"diaperTable":false,"emergencyBell":true,"cctv":false,"managerTel":"15447788","source":"public","category":"public"},{"id":"202351200000100391","name":"모전1-1공원","lat":36.584048,"lng":128.190423,"jibunAddr":"경상북도 문경시 모전동 1267","openHours":"상시","maleToilets":3,"femaleToilets":2,"disabled":false,"diaperTable":false,"emergencyBell":true,"cctv":false,"managerTel":"0545508884","source":"public","category":"public"},{"id":"202351200000100086","name":"점촌3동 행정복지센터","lat":36.602997,"lng":128.206504,"roadAddr":"경상북도 문경시 신흥로 254","jibunAddr":"경상북도 문경시 흥덕동 777","openHours":"09:00~18:00","maleToilets":3,"femaleToilets":2,"disabled":false,"diaperTable":false,"emergencyBell":false,"cctv":false,"managerTel":"0545508835","source":"public","category":"public"},{"id":"202351200000100082","name":"점촌1동 행정복지센터","lat":36.598609,"lng":128.197989,"roadAddr":"경상북도 문경시 점촌로 54-3","jibunAddr":"경상북도 문경시 점촌동 409-7","openHours":"09:00~18:00","maleToilets":4,"femaleToilets":2,"disabled":true,"diaperTable":false,"emergencyBell":false,"cctv":false,"managerTel":"0545508802","source":"public","category":"public"},{"id":"202351200000100142","name":"정신건강복지센터 1층","lat":36.596344,"lng":128.198024,"roadAddr":"경상북도 문경시 점촌1길 13","jibunAddr":"경상북도 문경시 점촌동 234-12","openHours":"09:00~18:00","maleToilets":5,"femaleToilets":3,"disabled":true,"diaperTable":false,"emergencyBell":false,"cctv":false,"managerTel":"0545540802","source":"public","category":"public"},{"id":"202351200000100201","name":"점촌시내버스터미널 2층","lat":36.600916,"lng":128.204507,"roadAddr":"경상북도 문경시 흥덕로 16","jibunAddr":"경상북도 문경시 흥덕동 794-4","openHours":"05:30~20:20","maleToilets":5,"femaleToilets":2,"disabled":false,"diaperTable":false,"emergencyBell":false,"cctv":false,"managerTel":"0545532230","source":"public","category":"public"},{"id":"202351200000100200","name":"점촌시내버스터미널 1층","lat":36.600916,"lng":128.204507,"roadAddr":"경상북도 문경시 흥덕로 16","jibunAddr":"경상북도 문경시 흥덕동 794-4","openHours":"05:30~20:20","maleToilets":6,"femaleToilets":3,"disabled":false,"diaperTable":false,"emergencyBell":false,"cctv":true,"managerTel":"0545532230","source":"public","category":"public"},{"id":"202351200000100109","name":"영강체육공원 축구장","lat":36.603718,"lng":128.214883,"jibunAddr":"경상북도 문경시 흥덕동 47","openHours":"상시","maleToilets":5,"femaleToilets":3,"disabled":false,"diaperTable":false,"emergencyBell":false,"cctv":false,"managerTel":"0545506418","source":"public","category":"public"},{"id":"202351200000100209","name":"점촌파출소","lat":36.601796,"lng":128.200899,"roadAddr":"경상북도 문경시 흥덕동 716-14","jibunAddr":"경상북도 문경시 돈달로 142","openHours":"상시","maleToilets":2,"femaleToilets":1,"disabled":false,"diaperTable":false,"emergencyBell":false,"cctv":false,"managerTel":"0545507325","source":"public","category":"public"},{"id":"202351200000100375","name":"신흥경로당","lat":36.60047,"lng":128.203808,"roadAddr":"경상북도 문경시 신흥3길10","jibunAddr":"경상북도 문경시 흥덕동 805","openHours":"상시","maleToilets":2,"femaleToilets":2,"disabled":false,"diaperTable":false,"emergencyBell":true,"cctv":false,"managerTel":"0545508841","source":"public","category":"public"},{"id":"202351200000100461","name":"일광주유소","lat":36.590154,"lng":128.200616,"roadAddr":"경상북도 문경시 경서로 119","jibunAddr":"경상북도 문경시 점촌동 84","openHours":"08:00~20:00","maleToilets":2,"femaleToilets":1,"disabled":false,"diaperTable":false,"emergencyBell":false,"cctv":false,"managerTel":"0545541435","source":"public","category":"public"},{"id":"202351200000100145","name":"문경시보건소 3층","lat":36.596023,"lng":128.197863,"roadAddr":"경상북도 문경시 점촌1길 9","jibunAddr":"경상북도 문경시 점촌동 232","openHours":"09:00~18:00","maleToilets":5,"femaleToilets":3,"disabled":true,"diaperTable":false,"emergencyBell":false,"cctv":false,"managerTel":"0545552033","source":"public","category":"public"},{"id":"202351200000100371","name":"드론연습장","lat":36.59014,"lng":128.212963,"jibunAddr":"경상북도 문경시 영신동 462","openHours":"상시","maleToilets":2,"femaleToilets":1,"disabled":false,"diaperTable":false,"emergencyBell":false,"cctv":false,"managerTel":"0545508823","source":"public","category":"public"},{"id":"202351200000100195","name":"문경문화원 2층","lat":36.596722,"lng":128.197903,"roadAddr":"경상북도 문경시 점촌1길 17","jibunAddr":"경상북도 문경시 점촌동 225-6","openHours":"09:00~18:00","maleToilets":3,"femaleToilets":4,"disabled":true,"diaperTable":false,"emergencyBell":false,"cctv":false,"managerTel":"0545506844","source":"public","category":"public"},{"id":"202351200000100221","name":"문경우체국","lat":36.595799,"lng":128.201344,"roadAddr":"경상북도 문경시 중앙8길 11","jibunAddr":"경상북도 문경시 점촌동 172-3","openHours":"09:00~18:00,12:00~13:00 미개방","maleToilets":3,"femaleToilets":1,"disabled":true,"diaperTable":false,"emergencyBell":false,"cctv":false,"managerTel":"0545501362","source":"public","category":"public"},{"id":"202351200000100143","name":"정신건강복지센터 2층","lat":36.596344,"lng":128.198024,"roadAddr":"경상북도 문경시 점촌1길 13","jibunAddr":"경상북도 문경시 점촌동 234-12","openHours":"09:00~18:00","maleToilets":4,"femaleToilets":3,"disabled":true,"diaperTable":false,"emergencyBell":false,"cctv":false,"managerTel":"0545540802","source":"public","category":"public"},{"id":"202351200000100108","name":"영강체육공원 족구장","lat":36.604689,"lng":128.216349,"jibunAddr":"경상북도 문경시 흥덕동 45","openHours":"상시","maleToilets":6,"femaleToilets":2,"disabled":false,"diaperTable":false,"emergencyBell":false,"cctv":false,"managerTel":"0545506418","source":"public","category":"public"},{"id":"202351200000100132","name":"점촌전통시장","lat":36.6014,"lng":128.204258,"roadAddr":"경상북도 문경시 신흥시장길 19","jibunAddr":"경상북도 문경시 흥덕동 794-1","openHours":"09:00~18:00","maleToilets":9,"femaleToilets":4,"disabled":true,"diaperTable":false,"emergencyBell":true,"cctv":false,"managerTel":"0545506235","source":"public","category":"public"},{"id":"202351200000100110","name":"영강체육공원 론볼장","lat":36.603718,"lng":128.214883,"jibunAddr":"경상북도 문경시 흥덕동 47","openHours":"상시","maleToilets":2,"femaleToilets":1,"disabled":true,"diaperTable":false,"emergencyBell":false,"cctv":false,"managerTel":"0545506418","source":"public","category":"public"},{"id":"202351200000100084","name":"문경시의회","lat":36.589928,"lng":128.196763,"roadAddr":"경상북도 문경시 중앙로 50","jibunAddr":"경상북도 문경시 모전동 59-2","openHours":"09:00~18:00","maleToilets":0,"femaleToilets":0,"disabled":false,"diaperTable":false,"emergencyBell":false,"cctv":true,"managerTel":"0545508032","source":"public","category":"public"},{"id":"202351200000100376","name":"동부공원","lat":36.604351,"lng":128.207351,"roadAddr":"경상북도 문경시 신흥7길9","jibunAddr":"경상북도 문경시 흥덕동 769-1","openHours":"상시","maleToilets":1,"femaleToilets":1,"disabled":true,"diaperTable":false,"emergencyBell":true,"cctv":false,"managerTel":"0545508841","source":"public","category":"public"},{"id":"202351200000100458","name":"알뜰성일주유소","lat":36.592926,"lng":128.1984,"roadAddr":"경상북도 문경시 중앙2길 24","jibunAddr":"경상북도 문경시 점촌동 278-3","openHours":"08:00~20:00","maleToilets":2,"femaleToilets":2,"disabled":false,"diaperTable":false,"emergencyBell":false,"cctv":false,"managerTel":"0545552354","source":"public","category":"public"},{"id":"202351200000100196","name":"문경 노인복지관","lat":36.597504,"lng":128.198407,"roadAddr":"경상북도 문경시 점촌5길20","jibunAddr":"경상북도 문경시 점촌동 224","openHours":"09:00~20:00","maleToilets":4,"femaleToilets":3,"disabled":true,"diaperTable":false,"emergencyBell":false,"cctv":true,"managerTel":"0545506376","source":"public","category":"public"},{"id":"202351200000100194","name":"문경문화원 1층","lat":36.596722,"lng":128.197903,"roadAddr":"경상북도 문경시 점촌1길 17","jibunAddr":"경상북도 문경시 점촌동 225-6","openHours":"09:00~18:00","maleToilets":3,"femaleToilets":4,"disabled":true,"diaperTable":false,"emergencyBell":false,"cctv":false,"managerTel":"0545506844","source":"public","category":"public"},{"id":"202351200000100460","name":"영순농협주유소","lat":36.579529,"lng":128.227933,"roadAddr":"경상북도 문경시 영순면 영순로 181","jibunAddr":"경상북도 문경시 영순면 의곡리 590-2","openHours":"08:00~20:00","maleToilets":2,"femaleToilets":1,"disabled":false,"diaperTable":false,"emergencyBell":false,"cctv":false,"managerTel":"0545545182","source":"public","category":"public"},{"id":"202351200000100419","name":"영신유원지","lat":36.595158,"lng":128.20897,"jibunAddr":"경상북도 문경시 흥덕동 188-1","openHours":"상시","maleToilets":4,"femaleToilets":2,"disabled":true,"diaperTable":false,"emergencyBell":false,"cctv":false,"managerTel":"0545506844","source":"public","category":"public"},{"id":"202351200000100392","name":"반쟁이공원","lat":36.5909,"lng":128.19179,"roadAddr":"경상북도 문경시 반쟁이길 5","jibunAddr":"경상북도 문경시 모전동 977","openHours":"상시","maleToilets":2,"femaleToilets":2,"disabled":true,"diaperTable":false,"emergencyBell":false,"cctv":false,"managerTel":"0545508884","source":"public","category":"public"},{"id":"202351200000100224","name":"문경모전우체국","lat":36.588591,"lng":128.193175,"roadAddr":"경상북도 문경시 중앙로 21","jibunAddr":"경상북도 문경시 모전동 81-18","openHours":"09:00~18:00,12:00~13:00 미개방","maleToilets":2,"femaleToilets":0,"disabled":false,"diaperTable":false,"emergencyBell":false,"cctv":true,"managerTel":"0545528001","source":"public","category":"public"},{"id":"202351200000100390","name":"장미공원","lat":36.585437,"lng":128.189526,"roadAddr":"경상북도 문경시 당교3길 22","jibunAddr":"경상북도 문경시 모전동 865-4","openHours":"상시","maleToilets":2,"femaleToilets":2,"disabled":false,"diaperTable":false,"emergencyBell":true,"cctv":false,"managerTel":"0545508884","source":"public","category":"public"},{"id":"202351200000100372","name":"돈달산3탕 약수터","lat":36.60358,"lng":128.197078,"jibunAddr":"경상북도 문경시 흥덕동 산 18-1","openHours":"상시","maleToilets":1,"femaleToilets":1,"disabled":false,"diaperTable":false,"emergencyBell":false,"cctv":false,"managerTel":"0545508841","source":"public","category":"public"},{"id":"202351200000100136","name":"중앙시장 어울림센터","lat":36.594615,"lng":128.198401,"roadAddr":"경상북도 문경시 상신로 5-3","jibunAddr":"경상북도 문경시 점촌동 158-13","openHours":"09:00~18:00","maleToilets":3,"femaleToilets":3,"disabled":true,"diaperTable":false,"emergencyBell":true,"cctv":false,"managerTel":"0545506235","source":"public","category":"public"},{"id":"202351200000100434","name":"금성주유소","lat":36.597191,"lng":128.191783,"roadAddr":"경상북도 문경시 상신로 70","jibunAddr":"경상북도 문경시 모전동 556-1","openHours":"08:00~20:00","maleToilets":1,"femaleToilets":0,"disabled":false,"diaperTable":false,"emergencyBell":false,"cctv":false,"managerTel":"0545552911","source":"public","category":"public"},{"id":"202351200000100083","name":"점촌2동 행정복지센터","lat":36.589928,"lng":128.196763,"roadAddr":"경상북도 문경시 중앙로 50","jibunAddr":"경상북도 문경시 모전동 59-2","openHours":"09:00~18:00","maleToilets":5,"femaleToilets":2,"disabled":false,"diaperTable":false,"emergencyBell":false,"cctv":true,"managerTel":"0545508823","source":"public","category":"public"},{"id":"202351200000100144","name":"문경시보건소 2층","lat":36.596023,"lng":128.197863,"roadAddr":"경상북도 문경시 점촌1길 9","jibunAddr":"경상북도 문경시 점촌동 232","openHours":"09:00~18:00","maleToilets":5,"femaleToilets":3,"disabled":true,"diaperTable":false,"emergencyBell":false,"cctv":false,"managerTel":"0545552033","source":"public","category":"public"},{"id":"202351200000100134","name":"중앙시장 청년몰","lat":36.593536,"lng":128.197342,"roadAddr":"경상북도 문경시 중앙로 87","jibunAddr":"경상북도 문경시 점촌동 197-14","openHours":"09:00~18:00","maleToilets":3,"femaleToilets":3,"disabled":false,"diaperTable":false,"emergencyBell":true,"cctv":false,"managerTel":"0545506235","source":"public","category":"public"},{"id":"202351200000100138","name":"문희아트홀","lat":36.591278,"lng":128.198089,"roadAddr":"경상북도 문경시 신흥로 103","jibunAddr":"경상북도 문경시 점촌동 118-1","openHours":"09:00~18:00","maleToilets":13,"femaleToilets":10,"disabled":true,"diaperTable":false,"emergencyBell":true,"cctv":false,"managerTel":"0545508395","source":"public","category":"public"},{"id":"202351200000100085","name":"드림스타트","lat":36.589928,"lng":128.196763,"roadAddr":"경상북도 문경시 중앙로 50","jibunAddr":"경상북도 문경시 모전동 59-2","openHours":"09:00~18:00","maleToilets":3,"femaleToilets":2,"disabled":true,"diaperTable":false,"emergencyBell":false,"cctv":true,"managerTel":"0545508964","source":"public","category":"public"}]