[{"id":"202543900000100259","name":"수안보 인공 암벽장 화장실","lat":36.842082,"lng":127.999079,"roadAddr":"충청북도 충주시 수안보면 수안보로 129","jibunAddr":"충청북도 충주시 수안보면 안보리 592-13","openHours":"상시","maleToilets":6,"femaleToilets":3,"disabled":false,"diaperTable":false,"emergencyBell":true,"cctv":false,"managerTel":"0438503903","source":"public","category":"public"},{"id":"202543900000100345","name":"수안보족욕체험장","lat":36.846071,"lng":127.989328,"roadAddr":"충청북도 충주시 수안보면  주정산로 35","jibunAddr":"충청북도 충주시 수안보면 온천리 210-2","openHours":"상시","maleToilets":3,"femaleToilets":2,"disabled":true,"diaperTable":false,"emergencyBell":true,"cctv":true,"managerTel":"0438506762","source":"public","category":"public"},{"id":"202543900000100258","name":"수안보 생활체육공원 화장실","lat":36.840003,"lng":128.005903,"roadAddr":"충청북도 충주시 수안보면 수안보로 72","jibunAddr":"충청북도 충주시 수안보면 안보리 427-4","openHours":"상시","maleToilets":5,"femaleToilets":3,"disabled":false,"diaperTable":false,"emergencyBell":true,"cctv":false,"managerTel":"0438503903","source":"public","category":"public"},{"id":"202543900000100311","name":"수안보 도시생태휴식공간 화장실","lat":36.84182,"lng":128.000802,"roadAddr":"충청북도 충주시 수안보면 대안보1길 2","jibunAddr":"충청북도 충주시 수안보면 안보리 354-2","openHours":"상시","maleToilets":2,"femaleToilets":3,"disabled":true,"diaperTable":false,"emergencyBell":true,"cctv":false,"managerTel":"0438506183","source":"public","category":"public"},{"id":"202543900000100163","name":"충주소방서 수안보안전센터 1층","lat":36.847319,"lng":127.994626,"roadAddr":"충청북도 충주시 수안보면 관동길 9","jibunAddr":"충청북도 충주시 온천리 100","openHours":"정시","maleToilets":1,"femaleToilets":0,"disabled":false,"diaperTable":false,"emergencyBell":false,"cctv":false,"managerTel":"0438413122","source":"public","category":"public"},{"id":"202543900000100346","name":"수안보물탕공원화장실","lat":36.848313,"lng":127.989013,"roadAddr":"충청북도 충주시 수안보면 주정산로 12","jibunAddr":"충청북도 충주시 수안보면 온천리 산295-1","openHours":"상시","maleToilets":8,"femaleToilets":5,"disabled":true,"diaperTable":true,"emergencyBell":true,"cctv":true,"managerTel":"0438506762","source":"public","category":"public"},{"id":"202543900000100192","name":"충주위담통합병원 화장실","lat":36.842082,"lng":127.999079,"roadAddr":"충청북도 충주시 수안보면 수안보로129","jibunAddr":"충청북도 충주시 수안보면 안보리 592-1","openHours":"정시","maleToilets":6,"femaleToilets":4,"disabled":true,"diaperTable":false,"emergencyBell":true,"cctv":true,"managerTel":"0438503495","source":"public","category":"public"},{"id":"202543900000100302","name":"수안보풍물시장 공영주차장 화장실","lat":36.845633,"lng":127.987337,"roadAddr":"충청북도 충주시 수안보면 주정산로 53","jibunAddr":"충청북도 충주시 수안보면 온천리 793-21","openHours":"상시","maleToilets":3,"femaleToilets":4,"disabled":true,"diaperTable":false,"emergencyBell":true,"cctv":false,"managerTel":"0438506372","source":"public","category":"public"},{"id":"202543900000100147","name":"수안보 우체국","lat":36.847635,"lng":127.990368,"roadAddr":"충청북도 충주시 수안보면 온천중앙길 8","openHours":"정시","maleToilets":2,"femaleToilets":1,"disabled":false,"diaperTable":false,"emergencyBell":false,"cctv":false,"managerTel":"0438462922","source":"public","category":"public"},{"id":"202543900000100303","name":"수안보 공영주차장 화장실","lat":36.846903,"lng":127.99032,"roadAddr":"충청북도 충주시 수안보면 장터2길 30-4","jibunAddr":"충청북도 충주시 수안보면 온천리 218-2","openHours":"상시","maleToilets":3,"femaleToilets":3,"disabled":false,"diaperTable":false,"emergencyBell":true,"cctv":false,"managerTel":"0438506372","source":"public","category":"public"},{"id":"202543900000100304","name":"수안보시외버스정류장 공영주차장 화장실","lat":36.847378,"lng":127.992516,"roadAddr":"충청북도 충주시 수안보면 관동길 9-6","jibunAddr":"충청북도 충주시 수안보면 온천리 252-3","openHours":"상시","maleToilets":3,"femaleToilets":3,"disabled":false,"diaperTable":false,"emergencyBell":true,"cctv":false,"managerTel":"0438506372","source":"public","category":"public"},{"id":"202543900000100016","name":"에이스요양병원","lat":36.84496,"lng":127.986951,"roadAddr":"충청북도 충주시 수안보면 조산공원길 9-9","openHours":"정시","maleToilets":18,"femaleToilets":12,"disabled":true,"diaperTable":false,"emergencyBell":false,"cctv":true,"managerTel":"04318007799","source":"public","category":"public"},{"id":"202543900000100239","name":"수안보면 행정복지센터 화장실","lat":36.847328,"lng":127.994311,"roadAddr":"충청북도 충주시 수안보면 관동길 9-9","jibunAddr":"충청북도 충주시 수안보면 온천리 100","openHours":"정시","maleToilets":4,"femaleToilets":2,"disabled":true,"diaperTable":false,"emergencyBell":false,"cctv":false,"managerTel":"0438508237","source":"public","category":"public"},{"id":"202543900000100129","name":"충주경찰서 수안보파출소","lat":36.847799,"lng":127.989997,"roadAddr":"충청북도 충주시 온천중앙길 6","openHours":"정시","maleToilets":1,"femaleToilets":1,"disabled":true,"diaperTable":false,"emergencyBell":false,"cctv":false,"managerTel":"0438806762","source":"public","category":"public"}]