[{"id":"202543900000100171","name":"유기농체험교육센터 복합교육센터","lat":36.908159,"lng":127.976851,"roadAddr":"충청북도 충주시 살미면 매남이길 123","jibunAddr":"충청북도 충주시 살미면 세성리 71-2","openHours":"09:00~18:00","maleToilets":8,"femaleToilets":10,"disabled":true,"diaperTable":true,"emergencyBell":true,"cctv":false,"managerTel":"0438309331","source":"public","category":"public"},{"id":"202543900000100084","name":"푸른솔주유소 화장실","lat":36.890166,"lng":127.985124,"roadAddr":"충청북도 충주시 살미면 중원대로 2144","jibunAddr":"충청북도 충주시 살미면 용천리 267","openHours":"상시","maleToilets":2,"femaleToilets":1,"disabled":false,"diaperTable":false,"emergencyBell":false,"cctv":false,"managerTel":"0438515177","source":"public","category":"public"},{"id":"202543900000100097","name":"국립산림품종관리센터 화장실","lat":36.876899,"lng":127.973243,"roadAddr":"충청북도 충주시 수안보면 수회리로 72","openHours":"09:00~18:00","maleToilets":4,"femaleToilets":2,"disabled":true,"diaperTable":false,"emergencyBell":false,"cctv":false,"managerTel":"0438504111","source":"public","category":"public"},{"id":"202543900000100170","name":"유기농체험교육센터 수라간","lat":36.908159,"lng":127.976851,"roadAddr":"충청북도 충주시 살미면 매남이길 123","jibunAddr":"충청북도 충주시 살미면 세성리 71-2","openHours":"09:00~18:00","maleToilets":1,"femaleToilets":2,"disabled":true,"diaperTable":true,"emergencyBell":true,"cctv":false,"managerTel":"0438309331","source":"public","category":"public"},{"id":"202543900000100169","name":"유기농체험교육센터 체험공방","lat":36.908159,"lng":127.976851,"roadAddr":"충청북도 충주시 살미면 매남이길 123","jibunAddr":"충청북도 충주시 살미면 세성리 66-2","openHours":"09:00~18:00","maleToilets":0,"femaleToilets":0,"disabled":true,"diaperTable":true,"emergencyBell":true,"cctv":false,"managerTel":"0438309331","source":"public","category":"public"},{"id":"202543900000100243","name":"마당바위쉼터화장실(수안보하수처리장)","lat":36.877491,"lng":127.982427,"roadAddr":"충청북도 충주시 수안보면 수회리로 138","jibunAddr":"충청북도 충주시 수안보면 수회리 785-1","openHours":"상시","maleToilets":6,"femaleToilets":6,"disabled":false,"diaperTable":false,"emergencyBell":true,"cctv":false,"managerTel":"0438503594","source":"public","category":"public"},{"id":"202543900000100078","name":"수안보휴게소주유소화장실","lat":36.897833,"lng":127.975306,"roadAddr":"충청북도 충주시 살미면 중원대로 2271","jibunAddr":"충청북도 충주시 살미면 용천리 555","openHours":"상시","maleToilets":2,"femaleToilets":1,"disabled":false,"diaperTable":false,"emergencyBell":false,"cctv":false,"managerTel":"0438461238","source":"public","category":"public"},{"id":"202543900000100168","name":"유기농체험교육센터 방문센터","lat":36.908159,"lng":127.976851,"roadAddr":"충청북도 충주시 살미면 매남이길 123","jibunAddr":"충청북도 충주시 살미면 세성리 1-8","openHours":"09:00~18:00","maleToilets":4,"femaleToilets":5,"disabled":true,"diaperTable":true,"emergencyBell":true,"cctv":false,"managerTel":"0438309331","source":"public","category":"public"}]