[{"id":"202450700000100888","name":"서후면주민복지회관","lat":36.616518,"lng":128.66349,"roadAddr":"경상북도 안동시 서후면 서후중앙길 17","jibunAddr":"경상북도 안동시 서후면 성곡리 130-4","openHours":"정시","maleToilets":4,"femaleToilets":1,"disabled":true,"diaperTable":false,"emergencyBell":true,"cctv":false,"source":"public","category":"public"},{"id":"202450700000100886","name":"능동재사 공중화장실","lat":36.631906,"lng":128.661132,"roadAddr":"경상북도 안동시 서후면 성곡리 394","jibunAddr":"경상북도 안동시 서후면 성곡리 394","openHours":"상시","maleToilets":5,"femaleToilets":2,"disabled":false,"diaperTable":false,"emergencyBell":false,"cctv":false,"source":"public","category":"public"},{"id":"202450700000100887","name":"서후면 행정복지센터","lat":36.616661,"lng":128.663808,"roadAddr":"경상북도 안동시 서후면 서후중앙길 20","jibunAddr":"경상북도 안동시 서후면 성곡리 126-1","openHours":"정시","maleToilets":2,"femaleToilets":1,"disabled":true,"diaperTable":false,"emergencyBell":true,"cctv":false,"source":"public","category":"public"},{"id":"202450700000100885","name":"봉정사 공중화장실","lat":36.648815,"lng":128.662601,"roadAddr":"경상북도 안동시 서후면 봉정사길 224","jibunAddr":"경상북도 안동시 서후면 태장리 산58-1","openHours":"상시","maleToilets":5,"femaleToilets":3,"disabled":false,"diaperTable":false,"emergencyBell":true,"cctv":false,"source":"public","category":"public"},{"id":"202450700000100707","name":"서후면보건지소","lat":36.616688,"lng":128.66347,"roadAddr":"경상북도 안동시 서후면 서후중앙길 19","jibunAddr":"경상북도 안동시 서후면 성곡리 126-8","openHours":"정시","maleToilets":2,"femaleToilets":1,"disabled":true,"diaperTable":false,"emergencyBell":false,"cctv":false,"source":"public","category":"public"}]