[{"id":"202450900000100158","name":"제2가흥교 앞(12번)","lat":36.807107,"lng":128.61372,"roadAddr":"경상북도 영주시 휴천동 642-235","jibunAddr":"경상북도 영주시 휴천동 642-235","openHours":"상시","maleToilets":2,"femaleToilets":1,"disabled":false,"diaperTable":false,"emergencyBell":true,"cctv":false,"managerTel":"0546396804","source":"public","category":"public"},{"id":"202450900000100202","name":"대박시장 내 화장실","lat":36.82349,"lng":128.62617,"roadAddr":"경상북도 영주시 중앙로 80번길 33-12","jibunAddr":"경상북도 영주시 하망동 364-30","openHours":"상시","maleToilets":0,"femaleToilets":6,"disabled":false,"diaperTable":false,"emergencyBell":false,"cctv":false,"source":"public","category":"public"},{"id":"202450900000100238","name":"가흥동영주소방서","lat":36.820783,"lng":128.619011,"roadAddr":"경상북도 영주시 선비로 181","jibunAddr":"경상북도 영주시 가흥동 3-2","openHours":"상시","maleToilets":4,"femaleToilets":1,"disabled":false,"diaperTable":false,"emergencyBell":false,"cctv":false,"managerTel":"0546312119","source":"public","category":"public"},{"id":"202450900000100220","name":"영주세무서","lat":36.819881,"lng":128.618343,"roadAddr":"경상북도 영주시 중앙로 15","jibunAddr":"경상북도 영주시 가흥동 2-15","openHours":"상시","maleToilets":10,"femaleToilets":7,"disabled":true,"diaperTable":false,"emergencyBell":false,"cctv":false,"managerTel":"0546355200","source":"public","category":"public"},{"id":"202450900000100218","name":"인애가영주한방병원","lat":36.814833,"lng":128.619383,"roadAddr":"경상북도 영주시 지천로 164","jibunAddr":"경상북도 영주시 가흥동 1459-3","openHours":"상시","maleToilets":15,"femaleToilets":7,"disabled":false,"diaperTable":false,"emergencyBell":false,"cctv":false,"managerTel":"0546343007","source":"public","category":"public"},{"id":"202450900000100263","name":"제민루(삼판서고택앞)","lat":36.820737,"lng":128.615922,"roadAddr":"경상북도 영주시 선비로 181번길 56-1","jibunAddr":"경상북도 영주시 가흥동 9-2","openHours":"상시","maleToilets":3,"femaleToilets":2,"disabled":false,"diaperTable":false,"emergencyBell":true,"cctv":false,"managerTel":"0546396583","source":"public","category":"public"},{"id":"202450900000100222","name":"새마을회관 2층","lat":36.820248,"lng":128.623013,"roadAddr":"경상북도 영주시 원당로 76","jibunAddr":"경상북도 영주시 휴천동 35","openHours":"상시","maleToilets":6,"femaleToilets":2,"disabled":false,"diaperTable":false,"emergencyBell":false,"cctv":false,"managerTel":"0546361815","source":"public","category":"public"},{"id":"202450900000100156","name":"인라인스케이트장(5번)","lat":36.813678,"lng":128.614081,"roadAddr":"경상북도 영주시 가흥동 330-2","jibunAddr":"경상북도 영주시 가흥동 330-2","openHours":"상시","maleToilets":3,"femaleToilets":3,"disabled":true,"diaperTable":false,"emergencyBell":false,"cctv":false,"managerTel":"0546396804","source":"public","category":"public"},{"id":"202450900000100246","name":"휴천3동 행정복지센터1층","lat":36.817785,"lng":128.625864,"roadAddr":"경상북도 영주시 구성로 273번길 30","jibunAddr":"경상북도 영주시 휴천동 667-2","openHours":"상시","maleToilets":8,"femaleToilets":8,"disabled":true,"diaperTable":false,"emergencyBell":false,"cctv":false,"managerTel":"0546397926","source":"public","category":"public"},{"id":"202450900000100209","name":"성누가병원","lat":36.821391,"lng":128.624654,"roadAddr":"경상북도 영주시 구성로 329","jibunAddr":"경상북도 영주시 영주동 536-4","openHours":"상시","maleToilets":29,"femaleToilets":11,"disabled":true,"diaperTable":false,"emergencyBell":false,"cctv":false,"managerTel":"0546399000","source":"public","category":"public"},{"id":"202450900000100013","name":"영주시청-본관동화장실","lat":36.806219,"lng":128.622901,"roadAddr":"경상북도 영주시 시청로 1","jibunAddr":"경상북도 영주시 휴천동 470","openHours":"상시","maleToilets":18,"femaleToilets":9,"disabled":true,"diaperTable":false,"emergencyBell":true,"cctv":false,"managerTel":"0546396518","source":"public","category":"public"},{"id":"202450900000100213","name":"종합시장2(번개시장)","lat":36.813604,"lng":128.622179,"roadAddr":"경상북도 영주시 선비로 79번길 40-12","jibunAddr":"경상북도 영주시 휴천동 305","openHours":"상시","maleToilets":0,"femaleToilets":7,"disabled":true,"diaperTable":false,"emergencyBell":false,"cctv":false,"managerTel":"0546331089","source":"public","category":"public"},{"id":"202450900000100205","name":"시민회관(본관,별관)","lat":36.823179,"lng":128.61692,"roadAddr":"경상북도 영주시 선비로 213","jibunAddr":"경상북도 영주시 영주동 470-62","openHours":"상시","maleToilets":13,"femaleToilets":6,"disabled":true,"diaperTable":false,"emergencyBell":false,"cctv":false,"managerTel":"0546343124","source":"public","category":"public"},{"id":"202450900000100074","name":"중앙시장2","lat":36.825323,"lng":128.62074,"roadAddr":"경상북도 영주시 구성로 382","jibunAddr":"경상북도 영주시 영주동 547","openHours":"상시","maleToilets":7,"femaleToilets":7,"disabled":true,"diaperTable":false,"emergencyBell":false,"cctv":false,"managerTel":"0546359975","source":"public","category":"public"},{"id":"202450900000100214","name":"종합시장1(번개시장)","lat":36.813604,"lng":128.622179,"roadAddr":"경상북도 영주시 선비로 79번길 40-12","jibunAddr":"경상북도 영주시 휴천동 305","openHours":"상시","maleToilets":7,"femaleToilets":0,"disabled":false,"diaperTable":false,"emergencyBell":false,"cctv":false,"managerTel":"0546331089","source":"public","category":"public"},{"id":"202450900000100096","name":"국민체육센터","lat":36.808457,"lng":128.60772,"roadAddr":"경상북도 영주시 가흥로 109","jibunAddr":"경상북도 영주시 가흥동 900","openHours":"상시","maleToilets":26,"femaleToilets":14,"disabled":true,"diaperTable":false,"emergencyBell":false,"cctv":false,"managerTel":"0546328933","source":"public","category":"public"},{"id":"202450900000100073","name":"중앙시장1","lat":36.825323,"lng":128.62074,"roadAddr":"경상북도 영주시 구성로 382","jibunAddr":"경상북도 영주시 영주동 547","openHours":"상시","maleToilets":2,"femaleToilets":2,"disabled":false,"diaperTable":false,"emergencyBell":false,"cctv":false,"managerTel":"0546359975","source":"public","category":"public"},{"id":"202450900000100217","name":"한정공원 화장실","lat":36.798609,"lng":128.616571,"roadAddr":"경상북도 영주시 한정로 124번길 6","jibunAddr":"경상북도 영주시 문정동 706-2","openHours":"상시","maleToilets":2,"femaleToilets":2,"disabled":true,"diaperTable":false,"emergencyBell":false,"cctv":false,"managerTel":"0546396898","source":"public","category":"public"},{"id":"202450900000100207","name":"영주주유소","lat":36.821601,"lng":128.618556,"roadAddr":"경상북도 영주시 선비로 197","jibunAddr":"경상북도 영주시 영주동 470-125","openHours":"상시","maleToilets":2,"femaleToilets":1,"disabled":false,"diaperTable":false,"emergencyBell":false,"cctv":false,"managerTel":"0546353308","source":"public","category":"public"},{"id":"202450900000100049","name":"영주보건소 1","lat":36.806125,"lng":128.621664,"roadAddr":"경상북도 영주시 시청로 1번길 19","jibunAddr":"경상북도 영주시 휴천동 466-6","openHours":"상시","maleToilets":7,"femaleToilets":5,"disabled":true,"diaperTable":false,"emergencyBell":false,"cctv":false,"managerTel":"0546314000","source":"public","category":"public"},{"id":"202450900000100160","name":"한정교 옆(6번)","lat":36.801715,"lng":128.615313,"roadAddr":"경상북도 영주시 지천로 1번길 51","jibunAddr":"경상북도 영주시 조암동 1398","openHours":"상시","maleToilets":2,"femaleToilets":1,"disabled":false,"diaperTable":false,"emergencyBell":true,"cctv":false,"managerTel":"0546396804","source":"public","category":"public"},{"id":"202450900000100070","name":"영주시 자원봉사센터 3층","lat":36.820248,"lng":128.623013,"roadAddr":"경상북도 영주시 원당로 76","jibunAddr":"경상북도 영주시 휴천동 35","openHours":"상시","maleToilets":6,"femaleToilets":2,"disabled":false,"diaperTable":false,"emergencyBell":false,"cctv":false,"managerTel":"0546361815","source":"public","category":"public"},{"id":"202450900000100260","name":"시립도서관","lat":36.820856,"lng":128.612911,"roadAddr":"경상북도 영주시 가흥로 263","jibunAddr":"경상북도 영주시 가흥동 산45-7","openHours":"상시","maleToilets":6,"femaleToilets":5,"disabled":true,"diaperTable":false,"emergencyBell":false,"cctv":false,"managerTel":"0546382550","source":"public","category":"public"},{"id":"202450900000100261","name":"문화예술회관","lat":36.819814,"lng":128.612834,"roadAddr":"경상북도 영주시 가흥로 257","jibunAddr":"경상북도 영주시 가흥동 385-4","openHours":"상시","maleToilets":11,"femaleToilets":9,"disabled":true,"diaperTable":false,"emergencyBell":false,"cctv":false,"managerTel":"0546395951","source":"public","category":"public"},{"id":"202450900000100069","name":"영주시 자원봉사센터 2층","lat":36.820248,"lng":128.623013,"roadAddr":"경상북도 영주시 원당로 76","jibunAddr":"경상북도 영주시 휴천동 35","openHours":"상시","maleToilets":6,"femaleToilets":2,"disabled":false,"diaperTable":false,"emergencyBell":false,"cctv":false,"managerTel":"0546361815","source":"public","category":"public"},{"id":"202450900000100215","name":"한국국토정보공사 영주지사","lat":36.807402,"lng":128.622418,"roadAddr":"경상북도 영주시 목민로 16","jibunAddr":"경상북도 영주시 휴천동 488-8","openHours":"상시","maleToilets":8,"femaleToilets":1,"disabled":false,"diaperTable":false,"emergencyBell":false,"cctv":false,"managerTel":"0546361600","source":"public","category":"public"},{"id":"202450900000100203","name":"대박시장 안 화장실","lat":36.82349,"lng":128.62617,"roadAddr":"경상북도 영주시 중앙로 80번길 33-12","jibunAddr":"경상북도 영주시 하망동 364-30","openHours":"상시","maleToilets":7,"femaleToilets":6,"disabled":false,"diaperTable":false,"emergencyBell":false,"cctv":false,"source":"public","category":"public"},{"id":"202450900000100249","name":"한국전력공사","lat":36.824466,"lng":128.621974,"roadAddr":"경상북도 영주시 구성로 370","jibunAddr":"경상북도 영주시 영주동 548-4","openHours":"상시","maleToilets":18,"femaleToilets":6,"disabled":true,"diaperTable":false,"emergencyBell":false,"cctv":false,"source":"public","category":"public"},{"id":"202450900000100026","name":"국유림관리사무소","lat":36.81959,"lng":128.588767,"roadAddr":"경상북도 영주시 반지미로 178","jibunAddr":"경상북도 영주시 가흥동 1346-1","openHours":"상시","maleToilets":10,"femaleToilets":4,"disabled":true,"diaperTable":false,"emergencyBell":false,"cctv":false,"managerTel":"0546304001","source":"public","category":"public"},{"id":"202450900000100153","name":"서천둔치 주차장(3번)","lat":36.821678,"lng":128.613315,"roadAddr":"경상북도 영주시 가흥동 산45-5","jibunAddr":"경상북도 영주시 가흥동 산45-5","openHours":"상시","maleToilets":1,"femaleToilets":4,"disabled":true,"diaperTable":false,"emergencyBell":true,"cctv":false,"managerTel":"0546396804","source":"public","category":"public"},{"id":"202450900000100155","name":"강변2차우측 파크골프장(4번)","lat":36.817761,"lng":128.614837,"roadAddr":"경상북도 영주시 가흥동 44-1","jibunAddr":"경상북도 영주시 가흥동 44-1","openHours":"상시","maleToilets":2,"femaleToilets":1,"disabled":false,"diaperTable":false,"emergencyBell":false,"cctv":false,"managerTel":"0546396804","source":"public","category":"public"},{"id":"202450900000100154","name":"시민회관옆(11번)","lat":36.822852,"lng":128.617896,"roadAddr":"경상북도 영주시 선비로 209","jibunAddr":"경상북도 영주시 영주동 470-235","openHours":"상시","maleToilets":1,"femaleToilets":2,"disabled":true,"diaperTable":false,"emergencyBell":true,"cctv":false,"managerTel":"0546396804","source":"public","category":"public"},{"id":"202450900000100012","name":"영주2동 행정복지센터","lat":36.820765,"lng":128.618727,"roadAddr":"경상북도 영주시 선비로 181번길 10","jibunAddr":"경상북도 영주시 가흥동 3-19","openHours":"상시","maleToilets":5,"femaleToilets":4,"disabled":true,"diaperTable":false,"emergencyBell":false,"cctv":false,"managerTel":"0546353308","source":"public","category":"public"},{"id":"202450900000100262","name":"영주교육지원청","lat":36.812448,"lng":128.612016,"roadAddr":"경상북도 영주시 가흥로 165","jibunAddr":"경상북도 영주시 가흥동 279-2","openHours":"상시","maleToilets":16,"femaleToilets":8,"disabled":true,"diaperTable":false,"emergencyBell":false,"cctv":false,"managerTel":"0546325167","source":"public","category":"public"},{"id":"202450900000100100","name":"대한복싱훈련장","lat":36.808457,"lng":128.60772,"roadAddr":"경상북도 영주시 가흥로 109","jibunAddr":"경상북도 영주시 가흥동 900","openHours":"상시","maleToilets":8,"femaleToilets":4,"disabled":true,"diaperTable":false,"emergencyBell":false,"cctv":true,"managerTel":"0546393922","source":"public","category":"public"},{"id":"202450900000100048","name":"영주보건소 2(별관)","lat":36.806125,"lng":128.621664,"roadAddr":"경상북도 영주시 시청로 1번길 19","jibunAddr":"경상북도 영주시 휴천동 466-6","openHours":"상시","maleToilets":8,"femaleToilets":8,"disabled":false,"diaperTable":false,"emergencyBell":false,"cctv":false,"managerTel":"0546314000","source":"public","category":"public"},{"id":"202450900000100219","name":"(구)영주도립도서관","lat":36.819522,"lng":128.61719,"roadAddr":"경상북도 영주시 중앙로 7","jibunAddr":"경상북도 영주시 가흥동 2-69","openHours":"상시","maleToilets":21,"femaleToilets":8,"disabled":true,"diaperTable":false,"emergencyBell":false,"cctv":false,"managerTel":"0546318140","source":"public","category":"public"},{"id":"202450900000100025","name":"명품요양병원","lat":36.824809,"lng":128.597598,"roadAddr":"경상북도 영주시 반지미로 265","jibunAddr":"경상북도 영주시 가흥동 1119","openHours":"상시","maleToilets":6,"femaleToilets":3,"disabled":true,"diaperTable":false,"emergencyBell":true,"cctv":false,"managerTel":"0546391800","source":"public","category":"public"},{"id":"202450900000100097","name":"시민운동장(실내체육관)","lat":36.808457,"lng":128.60772,"roadAddr":"경상북도 영주시 가흥로 109","jibunAddr":"경상북도 영주시 가흥동 900","openHours":"상시","maleToilets":19,"femaleToilets":5,"disabled":true,"diaperTable":false,"emergencyBell":false,"cctv":false,"managerTel":"0546328933","source":"public","category":"public"},{"id":"202450900000100075","name":"휴천2동 주민센터","lat":36.810001,"lng":128.621871,"roadAddr":"경상북도 영주시 대학로 22","jibunAddr":"경상북도 영주시 휴천동 318-4","openHours":"상시","maleToilets":3,"femaleToilets":3,"disabled":true,"diaperTable":false,"emergencyBell":false,"cctv":true,"managerTel":"0546353310","source":"public","category":"public"},{"id":"202450900000100265","name":"가흥종합사회복지관","lat":36.809027,"lng":128.610973,"roadAddr":"경상북도 영주시 대학로 130-1","jibunAddr":"경상북도 영주시 가흥동 1385","openHours":"상시","maleToilets":9,"femaleToilets":6,"disabled":false,"diaperTable":false,"emergencyBell":false,"cctv":false,"managerTel":"0546390500","source":"public","category":"public"},{"id":"202450900000100099","name":"영주시 실내수영장","lat":36.810068,"lng":128.607673,"roadAddr":"경상북도 영주시 대학로 153번길 10","jibunAddr":"경상북도 영주시 가흥동 2054","openHours":"상시","maleToilets":7,"femaleToilets":9,"disabled":true,"diaperTable":false,"emergencyBell":false,"cctv":true,"managerTel":"0546393923","source":"public","category":"public"},{"id":"202450900000100006","name":"영주","lat":36.810081,"lng":128.625043,"roadAddr":"경상북도 영주시 선비로 64","jibunAddr":"경상북도 영주시 휴천동 257","openHours":"상시","maleToilets":9,"femaleToilets":9,"disabled":true,"diaperTable":true,"emergencyBell":true,"cctv":true,"managerTel":"15447788","source":"public","category":"public"},{"id":"202450900000100206","name":"영주시민회관(별관)","lat":36.823179,"lng":128.61692,"roadAddr":"경상북도 영주시 선비로 213","jibunAddr":"경상북도 영주시 영주동 470-62","openHours":"상시","maleToilets":10,"femaleToilets":5,"disabled":true,"diaperTable":false,"emergencyBell":false,"cctv":false,"managerTel":"0546343124","source":"public","category":"public"},{"id":"202450900000100264","name":"가흥안뜰공원","lat":36.812217,"lng":128.606234,"roadAddr":"경상북도 영주시 대학로 163번길 2-39","jibunAddr":"경상북도 영주시 가흥동 1909","openHours":"상시","maleToilets":4,"femaleToilets":3,"disabled":true,"diaperTable":false,"emergencyBell":true,"cctv":false,"managerTel":"0546396898","source":"public","category":"public"},{"id":"202450900000100216","name":"홈플러스","lat":36.809144,"lng":128.621289,"roadAddr":"경상북도 영주시 대학로 29","jibunAddr":"경상북도 영주시 휴천동 329-1","openHours":"상시","maleToilets":11,"femaleToilets":16,"disabled":true,"diaperTable":false,"emergencyBell":false,"cctv":false,"managerTel":"0546308000","source":"public","category":"public"},{"id":"202450900000100098","name":"시민운동장(주경기장)","lat":36.808457,"lng":128.60772,"roadAddr":"경상북도 영주시 가흥로 109","jibunAddr":"경상북도 영주시 가흥동 900","openHours":"상시","maleToilets":93,"femaleToilets":60,"disabled":true,"diaperTable":false,"emergencyBell":false,"cctv":false,"managerTel":"0546328933","source":"public","category":"public"},{"id":"202450900000100204","name":"영주우체국","lat":36.821074,"lng":128.621598,"roadAddr":"경상북도 영주시 중앙로 49","jibunAddr":"경상북도 영주시 영주동 423-1","openHours":"상시","maleToilets":23,"femaleToilets":7,"disabled":false,"diaperTable":false,"emergencyBell":false,"cctv":false,"managerTel":"0546397071","source":"public","category":"public"},{"id":"202450900000100014","name":"영주시청-별관(주차타워사무실)","lat":36.806219,"lng":128.622901,"roadAddr":"경상북도 영주시 시청로 1","jibunAddr":"경상북도 영주시 휴천동 470-4","openHours":"상시","maleToilets":10,"femaleToilets":2,"disabled":true,"diaperTable":false,"emergencyBell":true,"cctv":false,"managerTel":"0546396518","source":"public","category":"public"},{"id":"202450900000100212","name":"영주시청 (농협 중앙회출장소)","lat":36.806219,"lng":128.622901,"roadAddr":"경상북도 영주시 시청로 1","jibunAddr":"경상북도 영주시 휴천동 470","openHours":"상시","maleToilets":5,"femaleToilets":2,"disabled":false,"diaperTable":false,"emergencyBell":false,"cctv":false,"managerTel":"0546352021","source":"public","category":"public"},{"id":"202450900000100101","name":"영주시 자전거공원","lat":36.824811,"lng":128.616289,"roadAddr":"경상북도 영주시 영주로 150","jibunAddr":"경상북도 영주시 영주동 511-2","openHours":"상시","maleToilets":6,"femaleToilets":3,"disabled":false,"diaperTable":false,"emergencyBell":true,"cctv":false,"managerTel":"0546395814","source":"public","category":"public"},{"id":"202450900000100208","name":"영주상공회의소","lat":36.820624,"lng":128.619634,"roadAddr":"경상북도 영주시 선비로 182","jibunAddr":"경상북도 영주시 영주동 555-3","openHours":"상시","maleToilets":18,"femaleToilets":11,"disabled":true,"diaperTable":false,"emergencyBell":false,"cctv":false,"managerTel":"0546353308","source":"public","category":"public"},{"id":"202450900000100024","name":"새희망병원","lat":36.824682,"lng":128.595772,"roadAddr":"경상북도 영주시 반지미로 275-17","jibunAddr":"경상북도 영주시 가흥동 1311","openHours":"상시","maleToilets":6,"femaleToilets":4,"disabled":true,"diaperTable":false,"emergencyBell":true,"cctv":false,"managerTel":"0546398800","source":"public","category":"public"},{"id":"202450900000100151","name":"영일초등학교뒤(8번)","lat":36.824798,"lng":128.614674,"roadAddr":"경상북도 영주시 영주2동 487-22","jibunAddr":"경상북도 영주시 영주2동 487-22","openHours":"상시","maleToilets":2,"femaleToilets":1,"disabled":false,"diaperTable":false,"emergencyBell":false,"cctv":false,"managerTel":"0546396804","source":"public","category":"public"},{"id":"202450900000100221","name":"새마을회관 3층","lat":36.820248,"lng":128.623013,"roadAddr":"경상북도 영주시 원당로 76","jibunAddr":"경상북도 영주시 휴천동 35","openHours":"상시","maleToilets":6,"femaleToilets":2,"disabled":false,"diaperTable":false,"emergencyBell":false,"cctv":false,"managerTel":"0546361815","source":"public","category":"public"},{"id":"202450900000100018","name":"삼각지 바닥분수공원","lat":36.81905,"lng":128.622052,"roadAddr":"경상북도 영주시 원당로 58번길 12-9","jibunAddr":"경상북도 영주시 휴천동 642-253","openHours":"상시","maleToilets":2,"femaleToilets":2,"disabled":true,"diaperTable":false,"emergencyBell":false,"cctv":false,"managerTel":"0546396664","source":"public","category":"public"}]