[{"id":"202444800000100411","name":"황정교 보호수 앞","lat":36.881612,"lng":128.354481,"jibunAddr":"충청북도 단양군 대강면 황정리 165-4","openHours":"상시","maleToilets":2,"femaleToilets":1,"disabled":false,"diaperTable":false,"emergencyBell":false,"cctv":false,"managerTel":"0434203761","source":"public","category":"public"},{"id":"202444800000100416","name":"괴평입구자전거도로","lat":36.904447,"lng":128.345392,"jibunAddr":"충청북도 단양군 대강면 괴평리 401-2","openHours":"상시","maleToilets":1,"femaleToilets":0,"disabled":false,"diaperTable":false,"emergencyBell":false,"cctv":false,"managerTel":"0434203761","source":"public","category":"public"},{"id":"202444800000100412","name":"황정캠핑장 입구","lat":36.877685,"lng":128.354377,"jibunAddr":"충청북도 단양군 대강면 황정리 275-4","openHours":"상시","maleToilets":2,"femaleToilets":1,"disabled":false,"diaperTable":false,"emergencyBell":false,"cctv":false,"managerTel":"0434203761","source":"public","category":"public"},{"id":"202444800000100229","name":"사인암주차장","lat":36.891078,"lng":128.342796,"roadAddr":"충청북도 단양군 대강면 사인암로 386","jibunAddr":"충청북도 단양군 대강면 직티리 82-7","openHours":"상시","maleToilets":10,"femaleToilets":7,"disabled":true,"diaperTable":false,"emergencyBell":true,"cctv":false,"managerTel":"0434203761","source":"public","category":"public"},{"id":"202444800000100137","name":"청련암 입구","lat":36.893383,"lng":128.339468,"roadAddr":"충청북도 단양군 대강면 사인암2길 33","jibunAddr":"충청북도 단양군 대강면 사인암리 24-5","openHours":"상시","maleToilets":3,"femaleToilets":4,"disabled":true,"diaperTable":false,"emergencyBell":true,"cctv":false,"managerTel":"0434203761","source":"public","category":"public"},{"id":"202444800000100417","name":"황정리 과수원","lat":36.876625,"lng":128.361189,"jibunAddr":"충청북도 단양군 대강면 황정리 220-1","openHours":"상시","maleToilets":1,"femaleToilets":0,"disabled":false,"diaperTable":false,"emergencyBell":false,"cctv":false,"managerTel":"0434203761","source":"public","category":"public"}]