[{"id":"202450900000100225","name":"농업기술센터(교육관)","lat":36.847563,"lng":128.558806,"roadAddr":"경상북도 영주시 안정면 안정로 30","jibunAddr":"경상북도 영주시 안정면 안심리 131","openHours":"상시","maleToilets":1,"femaleToilets":1,"disabled":false,"diaperTable":false,"emergencyBell":false,"cctv":false,"managerTel":"0546397303","source":"public","category":"public"},{"id":"202450900000100083","name":"안정면 게이트볼장","lat":36.847999,"lng":128.55689,"roadAddr":"경상북도 영주시 안정면 안심리 137-2","jibunAddr":"경상북도 영주시 안정면 안심리 137-2","openHours":"상시","maleToilets":2,"femaleToilets":2,"disabled":false,"diaperTable":false,"emergencyBell":false,"cctv":true,"managerTel":"0546397565","source":"public","category":"public"},{"id":"202450900000100223","name":"영주시립노인전문요양병원","lat":36.830156,"lng":128.56491,"roadAddr":"경상북도 영주시 안정면 장안로 697","jibunAddr":"경상북도 영주시 안정면 내줄리 300-1","openHours":"상시","maleToilets":11,"femaleToilets":8,"disabled":true,"diaperTable":false,"emergencyBell":false,"cctv":false,"managerTel":"0546311500","source":"public","category":"public"},{"id":"202450900000100080","name":"안정면 행정복지센터","lat":36.845917,"lng":128.556691,"roadAddr":"경상북도 영주시 안정면 신재로 537","jibunAddr":"경상북도 영주시 안정면 신전리 75-2","openHours":"상시","maleToilets":9,"femaleToilets":9,"disabled":true,"diaperTable":false,"emergencyBell":false,"cctv":true,"managerTel":"0546397565","source":"public","category":"public"},{"id":"202450900000100130","name":"풍기장례식장","lat":36.865996,"lng":128.548227,"roadAddr":"경상북도 영주시 풍기읍 안풍로 231","jibunAddr":"경상북도 영주시 풍기읍 산법리 279-2","openHours":"상시","maleToilets":6,"femaleToilets":4,"disabled":false,"diaperTable":false,"emergencyBell":false,"cctv":false,"managerTel":"0546374442","source":"public","category":"public"},{"id":"202450900000100053","name":"안정면 보건지소","lat":36.845917,"lng":128.556691,"roadAddr":"경상북도 영주시 안정면 신재로 537","jibunAddr":"경상북도 영주시 이산면 신천리 75-2","openHours":"상시","maleToilets":2,"femaleToilets":2,"disabled":false,"diaperTable":false,"emergencyBell":false,"cctv":false,"managerTel":"0546342909","source":"public","category":"public"},{"id":"202450900000100103","name":"백두대간지구","lat":36.854394,"lng":128.550902,"roadAddr":"경상북도 영주시 안정면 신재로634번길 23-6","jibunAddr":"경상북도 영주시 안정면 안심리 430-2","openHours":"상시","maleToilets":2,"femaleToilets":1,"disabled":false,"diaperTable":false,"emergencyBell":false,"cctv":false,"managerTel":"0546393913","source":"public","category":"public"},{"id":"202450900000100079","name":"안심리 안심교","lat":36.853577,"lng":128.55048,"roadAddr":"경상북도 영주시 안정면 신전리 327-2","jibunAddr":"경상북도 영주시 안정면 신전리 327-2","openHours":"상시","maleToilets":1,"femaleToilets":1,"disabled":false,"diaperTable":false,"emergencyBell":false,"cctv":false,"managerTel":"0546397565","source":"public","category":"public"},{"id":"202450900000100064","name":"오계보건진료소","lat":36.868764,"lng":128.579401,"roadAddr":"경상북도 영주시 안정면 안정로 342","jibunAddr":"경상북도 영주시 안정면 오계리 397-86","openHours":"상시","maleToilets":1,"femaleToilets":1,"disabled":false,"diaperTable":false,"emergencyBell":false,"cctv":false,"managerTel":"0546372097","source":"public","category":"public"},{"id":"202450900000100226","name":"농업기술센터(본관)","lat":36.847563,"lng":128.558806,"roadAddr":"경상북도 영주시 안정면 안정로 30","jibunAddr":"경상북도 영주시 안정면 안심리 131","openHours":"상시","maleToilets":13,"femaleToilets":7,"disabled":true,"diaperTable":false,"emergencyBell":false,"cctv":false,"managerTel":"0546397399","source":"public","category":"public"},{"id":"202450900000100227","name":"안정파출소","lat":36.846181,"lng":128.556526,"roadAddr":"경상북도 영주시 안정면 신재로 541","jibunAddr":"경상북도 영주시 안정면 신전리 77-4","openHours":"상시","maleToilets":2,"femaleToilets":2,"disabled":false,"diaperTable":false,"emergencyBell":false,"cctv":false,"managerTel":"0546344112","source":"public","category":"public"},{"id":"202450900000100224","name":"안정우체국","lat":36.846058,"lng":128.555272,"roadAddr":"경상북도 영주시 안정면 용주로 1409","jibunAddr":"경상북도 영주시 안정면 신전리 120-71","openHours":"상시","maleToilets":1,"femaleToilets":2,"disabled":false,"diaperTable":false,"emergencyBell":false,"cctv":false,"managerTel":"0546346500","source":"public","category":"public"}]