[{"id":"202450900000100138","name":"풍기토종인삼시장","lat":36.870406,"lng":128.534225,"roadAddr":"경상북도 영주시 풍기읍 동성로 2번길 63","jibunAddr":"경상북도 영주시 풍기읍 동부리 359","openHours":"상시","maleToilets":7,"femaleToilets":4,"disabled":true,"diaperTable":false,"emergencyBell":false,"cctv":false,"managerTel":"0546355006","source":"public","category":"public"},{"id":"202450900000100149","name":"(구) 풍기읍사무소 공중화장실","lat":36.870761,"lng":128.5246,"roadAddr":"경상북도 영주시 풍기읍 기주로 104-3","jibunAddr":"경상북도 영주시 풍기읍 성내리 22-4","openHours":"상시","maleToilets":2,"femaleToilets":3,"disabled":true,"diaperTable":false,"emergencyBell":true,"cctv":false,"managerTel":"0546397418","source":"public","category":"public"},{"id":"202450900000100137","name":"풍기중앙시장 공중화장실","lat":36.871166,"lng":128.528867,"roadAddr":"경상북도 영주시 풍기읍 동성로 70번길 14","jibunAddr":"경상북도 영주시 풍기읍 동부리 399-2","openHours":"상시","maleToilets":3,"femaleToilets":4,"disabled":true,"diaperTable":false,"emergencyBell":false,"cctv":false,"managerTel":"0546396102","source":"public","category":"public"},{"id":"202450900000100142","name":"풍기우체국","lat":36.87049,"lng":128.525108,"roadAddr":"경상북도 영주시 풍기읍 기주로 100","jibunAddr":"경상북도 영주시 풍기읍 성내리 26-2","openHours":"상시","maleToilets":3,"femaleToilets":2,"disabled":false,"diaperTable":false,"emergencyBell":false,"cctv":false,"managerTel":"0546397418","source":"public","category":"public"},{"id":"202450900000100144","name":"금선정 화장실 2","lat":36.895687,"lng":128.52792,"roadAddr":"경상북도 영주시 풍기읍 금계로 271","jibunAddr":"경상북도 영주시 풍기읍 금계리 40-2","openHours":"상시","maleToilets":4,"femaleToilets":4,"disabled":false,"diaperTable":false,"emergencyBell":false,"cctv":false,"managerTel":"0546397418","source":"public","category":"public"},{"id":"202450900000100150","name":"풍기 도서관 앞 공중화장실","lat":36.870633,"lng":128.519332,"roadAddr":"경상북도 영주시 풍기읍 남원로 152-4","jibunAddr":"경상북도 영주시 풍기읍 성내리 140-2","openHours":"상시","maleToilets":2,"femaleToilets":2,"disabled":true,"diaperTable":false,"emergencyBell":true,"cctv":false,"managerTel":"0546397418","source":"public","category":"public"},{"id":"202450900000100129","name":"풍기인삼시장","lat":36.873027,"lng":128.523617,"roadAddr":"경상북도 영주시 풍기읍 인삼로 8","jibunAddr":"경상북도 영주시 풍기읍 서부리 145-3","openHours":"상시","maleToilets":10,"femaleToilets":6,"disabled":true,"diaperTable":false,"emergencyBell":false,"cctv":false,"managerTel":"0546367948","source":"public","category":"public"},{"id":"202450900000100128","name":"문화관광형시장종합센터","lat":36.873307,"lng":128.521436,"roadAddr":"경상북도 영주시 풍기읍 인삼로 10번길 38","jibunAddr":"경상북도 영주시 풍기읍 서부리 165-4","openHours":"상시","maleToilets":2,"femaleToilets":4,"disabled":true,"diaperTable":false,"emergencyBell":false,"cctv":false,"managerTel":"0546396102","source":"public","category":"public"},{"id":"202450900000100141","name":"풍기파출소","lat":36.870878,"lng":128.523955,"roadAddr":"경상북도 영주시 풍기읍 기주로 114","jibunAddr":"경상북도 영주시 풍기읍 성내리 151-1","openHours":"상시","maleToilets":5,"femaleToilets":2,"disabled":false,"diaperTable":false,"emergencyBell":false,"cctv":false,"managerTel":"0546397418","source":"public","category":"public"},{"id":"202450900000100145","name":"금선정 화장실 1","lat":36.893326,"lng":128.528,"roadAddr":"경상북도 영주시 풍기읍 금계로 246번길 6-3","jibunAddr":"경상북도 영주시 풍기읍 금계리 117-4","openHours":"상시","maleToilets":3,"femaleToilets":2,"disabled":false,"diaperTable":false,"emergencyBell":false,"cctv":false,"managerTel":"0546397418","source":"public","category":"public"},{"id":"202450900000100005","name":"풍기","lat":36.873765,"lng":128.524738,"roadAddr":"경상북도 영주시 풍기읍 인삼로 1","jibunAddr":"경상북도 영주시 풍기읍 서부리 72","openHours":"상시","maleToilets":7,"femaleToilets":7,"disabled":true,"diaperTable":true,"emergencyBell":true,"cctv":true,"managerTel":"15447788","source":"public","category":"public"}]