[{"id":"202444800000100397","name":"투구봉가든","lat":36.922421,"lng":128.288659,"roadAddr":"충청북도 단양군 단성면 월악로 4245","jibunAddr":"충청북도 단양군 단성면 외중방리 356","openHours":"09:00~20:00","maleToilets":7,"femaleToilets":4,"disabled":false,"diaperTable":false,"emergencyBell":false,"cctv":false,"managerTel":"0434229633","source":"public","category":"public"},{"id":"202444800000100391","name":"삼거리식당","lat":36.933508,"lng":128.317215,"roadAddr":"충청북도 단양군 단성면 월악로 4583","jibunAddr":"충청북도 단양군 단성면 중방리 71-3","openHours":"09:30~19:00","maleToilets":6,"femaleToilets":6,"disabled":false,"diaperTable":false,"emergencyBell":false,"cctv":false,"managerTel":"0434227722","source":"public","category":"public"},{"id":"202444800000100197","name":"소선암매점","lat":36.919342,"lng":128.306853,"roadAddr":"충청북도 단양군 단성면 선암계곡로 1482","jibunAddr":"충청북도 단양군 단성면 대잠리 356","openHours":"상시","maleToilets":7,"femaleToilets":6,"disabled":true,"diaperTable":false,"emergencyBell":true,"cctv":false,"managerTel":"0434203711","source":"public","category":"public"},{"id":"202444800000100176","name":"현곡리 공중화장실","lat":36.950174,"lng":128.300186,"roadAddr":"충청북도 단양군 적성면 금수산로 1087","jibunAddr":"충청북도 단양군 적성면 하리 92-6","openHours":"09:00~18:00","maleToilets":3,"femaleToilets":3,"disabled":true,"diaperTable":true,"emergencyBell":true,"cctv":false,"managerTel":"0434203961","source":"public","category":"public"},{"id":"202444800000100202","name":"소선암유원지(야영장)내","lat":36.919001,"lng":128.308284,"roadAddr":"충청북도 단양군 단성면 선암계곡로 1474","jibunAddr":"충청북도 단양군 단성면 대잠리 574","openHours":"상시","maleToilets":7,"femaleToilets":6,"disabled":true,"diaperTable":false,"emergencyBell":true,"cctv":false,"managerTel":"0434227839","source":"public","category":"public"},{"id":"202444800000100398","name":"봉산휴게쉼터","lat":36.927108,"lng":128.295567,"roadAddr":"충청북도 단양군 단성면 월악로 4327","jibunAddr":"충청북도 단양군 단성면 외중방리 139-1","openHours":"09:00~20:00","maleToilets":6,"femaleToilets":3,"disabled":false,"diaperTable":false,"emergencyBell":false,"cctv":false,"managerTel":"0434226006","source":"public","category":"public"},{"id":"202444800000100280","name":"하진삼거리","lat":36.944967,"lng":128.298313,"jibunAddr":"충청북도 단양군 적성면 하진리 508","openHours":"상시","maleToilets":2,"femaleToilets":1,"disabled":false,"diaperTable":false,"emergencyBell":false,"cctv":false,"managerTel":"0434203861","source":"public","category":"public"},{"id":"202444800000100346","name":"단양군 농기계임대사업소 남부지소","lat":36.935606,"lng":128.313714,"roadAddr":"충청북도 단양군 단성면 월악로 4541","jibunAddr":"충청북도 단양군 단성면 중방리 414","openHours":"09:00~18:00","maleToilets":2,"femaleToilets":1,"disabled":false,"diaperTable":false,"emergencyBell":false,"cctv":false,"managerTel":"0434203437","source":"public","category":"public"},{"id":"202444800000100326","name":"단양농협 단성지점","lat":36.939469,"lng":128.320128,"roadAddr":"충청북도 단양군 단성면 하방3길 1","jibunAddr":"충청북도 단양군 단성면 하방리 172","openHours":"09:00~16:30","maleToilets":0,"femaleToilets":0,"disabled":false,"diaperTable":false,"emergencyBell":false,"cctv":false,"managerTel":"0434220505","source":"public","category":"public"},{"id":"202444800000100078","name":"백두대간목재문화체험관","lat":36.920606,"lng":128.304745,"roadAddr":"충청북도 단양군 단성면 선암계곡로 1526","jibunAddr":"충청북도 단양군 단성면 대잠리 산60","openHours":"09:00~18:00","maleToilets":4,"femaleToilets":2,"disabled":true,"diaperTable":false,"emergencyBell":false,"cctv":false,"managerTel":"0434227839","source":"public","category":"public"},{"id":"202444800000100277","name":"하진 공용주차장","lat":36.941414,"lng":128.302049,"jibunAddr":"충청북도 단양군 적성면 하진리 61","openHours":"상시","maleToilets":2,"femaleToilets":1,"disabled":false,"diaperTable":false,"emergencyBell":false,"cctv":false,"managerTel":"0434203861","source":"public","category":"public"},{"id":"202444800000100278","name":"말목산 입구","lat":36.953522,"lng":128.28691,"roadAddr":"충청북도 단양군 적성면 성곡길 103-13","jibunAddr":"충청북도 단양군 적성면 하진리 707","openHours":"상시","maleToilets":1,"femaleToilets":1,"disabled":false,"diaperTable":false,"emergencyBell":false,"cctv":false,"managerTel":"0434203861","source":"public","category":"public"},{"id":"202444800000100392","name":"호반식당","lat":36.935862,"lng":128.310749,"roadAddr":"충청북도 단양군 단성면 월악로 4515","jibunAddr":"충청북도 단양군 단성면 중방리 182","openHours":"09:30~19:00","maleToilets":5,"femaleToilets":3,"disabled":false,"diaperTable":false,"emergencyBell":false,"cctv":false,"managerTel":"0434210888","source":"public","category":"public"},{"id":"202444800000100209","name":"밤골 간이화장실","lat":36.922511,"lng":128.303693,"jibunAddr":"충청북도 단양군 단성면 중방리 산21","openHours":"상시","maleToilets":0,"femaleToilets":0,"disabled":false,"diaperTable":false,"emergencyBell":false,"cctv":false,"managerTel":"0434203711","source":"public","category":"public"},{"id":"202444800000100203","name":"소선암오토캠핑장","lat":36.926126,"lng":128.311124,"roadAddr":"충청북도 단양군 단성면 선암계곡로 1656","jibunAddr":"충청북도 단양군 단성면 상방리 290","openHours":"상시","maleToilets":15,"femaleToilets":15,"disabled":false,"diaperTable":false,"emergencyBell":true,"cctv":false,"managerTel":"0434230599","source":"public","category":"public"},{"id":"202444800000100207","name":"단성생활체육공원","lat":36.938652,"lng":128.319542,"roadAddr":"충청북도 단양군 단성면 충혼로 55","jibunAddr":"충청북도 단양군 단성면 하방리 162-2","openHours":"상시","maleToilets":5,"femaleToilets":5,"disabled":true,"diaperTable":false,"emergencyBell":true,"cctv":false,"managerTel":"0434203711","source":"public","category":"public"}]