[{"id":"202444000000102643","name":"봉양역","lat":37.130225,"lng":128.12998,"roadAddr":"충청북도 제천시 봉양읍 주포로8길 58","jibunAddr":"충청북도 제천시 봉양읍 장평리 760-2","openHours":"05:00-23:00","maleToilets":4,"femaleToilets":2,"disabled":true,"diaperTable":true,"emergencyBell":true,"cctv":true,"managerTel":"15447788","source":"public","category":"public"},{"id":"202444000000102522","name":"봉양도서관","lat":37.132349,"lng":128.124561,"roadAddr":"충청북도 제천시 봉양읍 주포로 8길 3-1","jibunAddr":"충청북도 제천시 봉양읍 주포리 210-11","openHours":"09:00-18:00","maleToilets":2,"femaleToilets":1,"disabled":true,"diaperTable":false,"emergencyBell":false,"cctv":false,"managerTel":"0436462018","source":"public","category":"public"},{"id":"202444000000102511","name":"봉양119안전센터","lat":37.131579,"lng":128.128626,"roadAddr":"충청북도 제천시 봉양읍 북부로 1433","jibunAddr":"충청북도 제천시 봉양읍 장평리 822-1","openHours":"00:00-24:00","maleToilets":3,"femaleToilets":2,"disabled":false,"diaperTable":false,"emergencyBell":false,"cctv":false,"managerTel":"0436417132","source":"public","category":"public"},{"id":"202444000000102635","name":"봉양우체국","lat":37.132563,"lng":128.124229,"roadAddr":"충청북도 제천시 봉양읍 주포로7길 2","jibunAddr":"충청북도 제천시 봉양읍 주포리 210-1","openHours":"(평일)09:00-18:00","maleToilets":2,"femaleToilets":1,"disabled":true,"diaperTable":false,"emergencyBell":false,"cctv":false,"source":"public","category":"public"},{"id":"202444000000102487","name":"봉양보건지소","lat":37.132349,"lng":128.124561,"roadAddr":"충청북도 제천시 봉양읍 주포로8길 3-1","jibunAddr":"충청북도 제천시 봉양읍 주포리 210-11","openHours":"(평일)09:00-18:00","maleToilets":2,"femaleToilets":1,"disabled":true,"diaperTable":false,"emergencyBell":true,"cctv":false,"managerTel":"0436413060","source":"public","category":"public"},{"id":"202444000000102489","name":"봉양읍행정복지센터","lat":37.132849,"lng":128.121564,"roadAddr":"충청북도 제천시 봉양읍 주포로 83","jibunAddr":"충청북도 제천시 봉양읍 주포리 164-2","openHours":"(평일)09:00-18:00","maleToilets":8,"femaleToilets":4,"disabled":true,"diaperTable":false,"emergencyBell":true,"cctv":false,"managerTel":"0436414025","source":"public","category":"public"}]