[{"id":"202444000000102492","name":"송학면행정복지센터","lat":37.184938,"lng":128.260915,"roadAddr":"충청북도 제천시 송학면 시곡포전로1길 14-2","jibunAddr":"충청북도 제천시 송학면 시곡리 1157","openHours":"(평일)09:00-18:00","maleToilets":4,"femaleToilets":1,"disabled":true,"diaperTable":false,"emergencyBell":true,"cctv":false,"managerTel":"0436414322","source":"public","category":"public"},{"id":"202444000000102491","name":"송학 사회인야구장쉼터","lat":37.186545,"lng":128.268823,"roadAddr":"충청북도 제천시 송학면 송학로6길 10","jibunAddr":"충청북도 제천시 송학면 무도리 1129","openHours":"(평일)10:00-17:00+(주말)09:00-17:00","maleToilets":3,"femaleToilets":3,"disabled":true,"diaperTable":false,"emergencyBell":false,"cctv":true,"managerTel":"0436414325","source":"public","category":"public"},{"id":"202444000000102490","name":"송학장터관리사무소","lat":37.18358,"lng":128.262876,"roadAddr":"충청북도 제천시 송학면 무도길 2","jibunAddr":"충청북도 제천시 송학면 무도리 223-3","openHours":"00:00-24:00","maleToilets":3,"femaleToilets":3,"disabled":true,"diaperTable":false,"emergencyBell":true,"cctv":false,"managerTel":"0436414325","source":"public","category":"public"},{"id":"202444000000102493","name":"송학문화센터","lat":37.186006,"lng":128.26352,"roadAddr":"충청북도 제천시 송학면 시곡포전로 22","jibunAddr":"충청북도 제천시 송학면 시곡리 1140-29","openHours":"(평일)09:30-17:30","maleToilets":6,"femaleToilets":4,"disabled":false,"diaperTable":false,"emergencyBell":true,"cctv":false,"managerTel":"0436414325","source":"public","category":"public"},{"id":"202444000000102494","name":"송학보건지소","lat":37.184822,"lng":128.26336,"roadAddr":"충청북도 제천시 송학면 시곡포전로2길 3","jibunAddr":"충청북도 제천시 송학면 시곡리 1146-1","openHours":"(평일)09:00-18:00","maleToilets":0,"femaleToilets":0,"disabled":false,"diaperTable":false,"emergencyBell":false,"cctv":false,"managerTel":"0436413140","source":"public","category":"public"},{"id":"202444000000102637","name":"송학우체국","lat":37.18427,"lng":128.261557,"roadAddr":"충청북도 제천시 송학면 시곡포전로 1길 14-1","jibunAddr":"충청북도 제천시 송학면 시곡리 1150-9","openHours":"(평일)09:00-18:00","maleToilets":1,"femaleToilets":0,"disabled":true,"diaperTable":false,"emergencyBell":false,"cctv":false,"source":"public","category":"public"},{"id":"202444000000102495","name":"송한보건진료소","lat":37.21839,"lng":128.233343,"roadAddr":"충청북도 제천시 송학면 송한2길 6","jibunAddr":"충청북도 제천시 송학면 송한리 452","openHours":"(평일)09:00-18:00","maleToilets":0,"femaleToilets":0,"disabled":false,"diaperTable":false,"emergencyBell":true,"cctv":false,"managerTel":"0436413271","source":"public","category":"public"}]