[{"id":"202444800000100219","name":"교통공원","lat":36.979997,"lng":128.353159,"roadAddr":"충청북도 단양군 단양읍 상진7길 6","jibunAddr":"충청북도 단양군 단양읍 상진리 583","openHours":"상시","maleToilets":4,"femaleToilets":1,"disabled":false,"diaperTable":false,"emergencyBell":true,"cctv":false,"managerTel":"0434203511","source":"public","category":"public"},{"id":"202444800000100161","name":"수양개빛터널 주차장","lat":36.960465,"lng":128.332465,"roadAddr":"충청북도 단양군 적성면 수양개유적로 390","jibunAddr":"충청북도 단양군 적성면 애곡리 209-1","openHours":"09:00~23:00","maleToilets":5,"femaleToilets":4,"disabled":false,"diaperTable":false,"emergencyBell":true,"cctv":false,"managerTel":"0434238502","source":"public","category":"public"},{"id":"202444800000100287","name":"소노문 단양 1층","lat":36.977949,"lng":128.362465,"roadAddr":"충청북도 단양군 단양읍 삼봉로 187-17","jibunAddr":"충청북도 단양군 단양읍 상진리 4-1","openHours":"상시","maleToilets":7,"femaleToilets":3,"disabled":true,"diaperTable":false,"emergencyBell":false,"cctv":false,"source":"public","category":"public"},{"id":"202444800000100387","name":"SK행복충전 단양충전소","lat":36.990465,"lng":128.363593,"roadAddr":"충청북도 단양군 단양읍 삼봉로 407","jibunAddr":"충청북도 단양군 단양읍 별곡리 83","openHours":"상시","maleToilets":3,"femaleToilets":1,"disabled":false,"diaperTable":false,"emergencyBell":false,"cctv":false,"managerTel":"0434224545","source":"public","category":"public"},{"id":"202444800000100094","name":"단양소방서(2층)","lat":36.989091,"lng":128.356433,"roadAddr":"충청북도 단양군 단양읍 삼봉로 421-56","jibunAddr":"충청북도 단양군 단양읍 별곡리 233","openHours":"09:00~18:00","maleToilets":4,"femaleToilets":3,"disabled":true,"diaperTable":false,"emergencyBell":false,"cctv":false,"managerTel":"0437674113","source":"public","category":"public"},{"id":"202444800000100406","name":"도담정원","lat":37.000697,"lng":128.346188,"roadAddr":"충청북도 단양군 단양읍 도담삼봉1길 4","jibunAddr":"충청북도 단양군 단양읍 도담리 163-3","openHours":"09:00~17:00/ 동절기 미운영","maleToilets":4,"femaleToilets":4,"disabled":false,"diaperTable":false,"emergencyBell":false,"cctv":false,"managerTel":"0434213182","source":"public","category":"public"},{"id":"202444800000100092","name":"단양강잔도","lat":36.98295,"lng":128.343691,"roadAddr":"충청북도 단양군 단양읍 단양로 1021-10","jibunAddr":"충청북도 단양군 단양읍 상진리 275-3","openHours":"상시","maleToilets":6,"femaleToilets":5,"disabled":true,"diaperTable":true,"emergencyBell":true,"cctv":false,"managerTel":"0434202923","source":"public","category":"public"},{"id":"202444800000100095","name":"단양소방서(3층)","lat":36.989091,"lng":128.356433,"roadAddr":"충청북도 단양군 단양읍 삼봉로 421-56","jibunAddr":"충청북도 단양군 단양읍 별곡리 233","openHours":"09:00~18:00","maleToilets":4,"femaleToilets":3,"disabled":true,"diaperTable":false,"emergencyBell":false,"cctv":false,"managerTel":"0437674113","source":"public","category":"public"},{"id":"202444800000100080","name":"단양배드민턴장","lat":36.982397,"lng":128.354032,"roadAddr":"충청북도 단양군 단양읍 상진로 31","jibunAddr":"충청북도 단양군 단양읍 상진리 74","openHours":"09:00~18:00","maleToilets":1,"femaleToilets":1,"disabled":true,"diaperTable":true,"emergencyBell":false,"cctv":false,"managerTel":"0434213634","source":"public","category":"public"},{"id":"202444800000100199","name":"만천하스카이워크(정상)","lat":36.980156,"lng":128.337084,"roadAddr":"충청북도 단양군 적성면 옷바위길 60-186","jibunAddr":"충청북도 단양군 적성면 애곡리 산 1-28","openHours":"09:00~18:00/ 화요일 미개방","maleToilets":11,"femaleToilets":10,"disabled":true,"diaperTable":false,"emergencyBell":true,"cctv":false,"managerTel":"0434210014","source":"public","category":"public"},{"id":"202444800000100347","name":"단양생태체육공원 1","lat":36.991912,"lng":128.358463,"roadAddr":"충청북도 단양군 단양읍 삼봉로 460","jibunAddr":"충청북도 단양군 단양읍 별곡리 223-1","openHours":"00:00~24:00/ 동절기 미운영","maleToilets":4,"femaleToilets":3,"disabled":false,"diaperTable":false,"emergencyBell":false,"cctv":false,"managerTel":"0434202794","source":"public","category":"public"},{"id":"202444800000100235","name":"도담삼봉 관광안내소","lat":37.001307,"lng":128.34222,"roadAddr":"충청북도 단양군 매포읍 삼봉로 644-19","jibunAddr":"충청북도 단양군 매포읍 하괴리 83-1","openHours":"상시","maleToilets":10,"femaleToilets":9,"disabled":true,"diaperTable":true,"emergencyBell":true,"cctv":false,"managerTel":"0434217882","source":"public","category":"public"},{"id":"202444800000100097","name":"단양군보건소(개방)","lat":36.981512,"lng":128.350242,"roadAddr":"충청북도 단양군 단양읍 삼봉로 53","jibunAddr":"충청북도 단양군 단양읍 상진리 84","openHours":"09:00~18:00","maleToilets":4,"femaleToilets":5,"disabled":true,"diaperTable":false,"emergencyBell":false,"cctv":false,"managerTel":"0434203214","source":"public","category":"public"},{"id":"202444800000100066","name":"단양역","lat":36.973193,"lng":128.343797,"roadAddr":"충청북도 단양군 단양읍 단양로 896","jibunAddr":"충청북도 단양군 단양읍 상진리 산61-11","openHours":"상시","maleToilets":6,"femaleToilets":8,"disabled":true,"diaperTable":true,"emergencyBell":true,"cctv":false,"managerTel":"15447788","source":"public","category":"public"},{"id":"202444800000100233","name":"도담삼봉 스토리관","lat":37.000339,"lng":128.341666,"roadAddr":"충청북도 단양군 매포읍 삼봉로 644-9","jibunAddr":"충청북도 단양군 매포읍 하괴리 84-2","openHours":"09:00~18:00","maleToilets":2,"femaleToilets":2,"disabled":true,"diaperTable":false,"emergencyBell":false,"cctv":false,"managerTel":"0434217882","source":"public","category":"public"},{"id":"202444800000100413","name":"도시재생농촌활성화지원센터","lat":36.98822,"lng":128.363684,"roadAddr":"충청북도 단양군 단양읍 별곡3로 39-15, 도시재생농촌활성화지원센터","jibunAddr":"충청북도 단양군 단양읍 별곡리 산 17-50","openHours":"09:00~18:00 (토 ,일, 공휴일 휴무)","maleToilets":2,"femaleToilets":2,"disabled":true,"diaperTable":false,"emergencyBell":false,"cctv":false,"managerTel":"0434211032","source":"public","category":"public"},{"id":"202444800000100160","name":"단양수양개선사유물전시관","lat":36.960465,"lng":128.332465,"roadAddr":"충청북도 단양군 적성면 수양개유적로 390","jibunAddr":"충청북도 단양군 적성면 애곡리 209-1","openHours":"09:00~23:00","maleToilets":6,"femaleToilets":3,"disabled":true,"diaperTable":false,"emergencyBell":false,"cctv":false,"managerTel":"0434238502","source":"public","category":"public"},{"id":"202444800000100430","name":"상진우편취급국","lat":36.977986,"lng":128.355305,"roadAddr":"충청북도 단양군 단양읍 삼봉로 109, 단양상진우편취급소","jibunAddr":"충청북도 단양군 단양읍 상진리 713 단양상진우편취급소","openHours":"09:00~18:00","maleToilets":1,"femaleToilets":0,"disabled":false,"diaperTable":false,"emergencyBell":false,"cctv":false,"managerTel":"0434234411","source":"public","category":"public"},{"id":"202444800000100103","name":"단양테니스장","lat":36.982397,"lng":128.354032,"roadAddr":"충청북도 단양군 단양읍 상진로 31","jibunAddr":"충청북도 단양군 단양읍 상진리 74","openHours":"09:00~18:00","maleToilets":3,"femaleToilets":3,"disabled":true,"diaperTable":true,"emergencyBell":false,"cctv":false,"managerTel":"0434203105","source":"public","category":"public"},{"id":"202444800000100415","name":"단양군청소년수련관 드림스타트","lat":36.977809,"lng":128.364115,"roadAddr":"충청북도 단양군 단양읍 삼봉로 187-18, 단양군청소년수련관","jibunAddr":"충청북도 단양군 단양읍 상진리 4-10 단양군청소년수련관 3층","openHours":"09:00~18:00/ 주말 미개방","maleToilets":3,"femaleToilets":2,"disabled":true,"diaperTable":false,"emergencyBell":false,"cctv":false,"managerTel":"0434203194","source":"public","category":"public"},{"id":"202444800000100348","name":"단양생태체육공원 2","lat":36.991338,"lng":128.362269,"roadAddr":"충청북도 단양군 단양읍 삼봉로 424","jibunAddr":"충청북도 단양군 단양읍 별곡리 99","openHours":"00:00~24:00/ 동절기 미운영","maleToilets":2,"femaleToilets":2,"disabled":false,"diaperTable":false,"emergencyBell":false,"cctv":false,"managerTel":"0434202794","source":"public","category":"public"},{"id":"202444800000100217","name":"단양 지질공원 탐방객센터","lat":36.977755,"lng":128.355894,"roadAddr":"충청북도 단양군 단양읍 삼봉로 115","jibunAddr":"충청북도 단양군 단양읍 상진리 781","openHours":"상시","maleToilets":9,"femaleToilets":7,"disabled":true,"diaperTable":true,"emergencyBell":true,"cctv":false,"managerTel":"0434206721","source":"public","category":"public"},{"id":"202444800000100325","name":"단양농협 상진지점","lat":36.978534,"lng":128.355044,"roadAddr":"충청북도 단양군 단양읍 상진2길 49","jibunAddr":"충청북도 단양군 단양읍 상진리 727","openHours":"09:00~16:30","maleToilets":2,"femaleToilets":1,"disabled":false,"diaperTable":false,"emergencyBell":false,"cctv":false,"managerTel":"0434223406","source":"public","category":"public"},{"id":"202444800000100096","name":"단양군보건소","lat":36.981512,"lng":128.350242,"roadAddr":"충청북도 단양군 단양읍 삼봉로 53","jibunAddr":"충청북도 단양군 단양읍 상진리 84","openHours":"09:00~18:00","maleToilets":13,"femaleToilets":13,"disabled":false,"diaperTable":false,"emergencyBell":false,"cctv":false,"managerTel":"0434203214","source":"public","category":"public"},{"id":"202444800000100083","name":"복합스포츠센터 골프연습장 3층","lat":36.987166,"lng":128.355492,"roadAddr":"충청북도 단양군 단양읍 삼봉로 421-59","jibunAddr":"충청북도 단양군 단양읍 별곡리 산21-6","openHours":"09:00~20:00","maleToilets":2,"femaleToilets":1,"disabled":false,"diaperTable":false,"emergencyBell":false,"cctv":false,"managerTel":"0434223106","source":"public","category":"public"},{"id":"202444800000100081","name":"복합스포츠센터 썰매장","lat":36.987166,"lng":128.355492,"roadAddr":"충청북도 단양군 단양읍 삼봉로 421-59","jibunAddr":"충청북도 단양군 단양읍 별곡리 산21-6","openHours":"09:00~18:00","maleToilets":10,"femaleToilets":8,"disabled":true,"diaperTable":false,"emergencyBell":true,"cctv":false,"managerTel":"0434223106","source":"public","category":"public"},{"id":"202444800000100218","name":"두진공원","lat":36.977952,"lng":128.35796,"roadAddr":"충청북도 단양군 단양읍 상진2로 18","jibunAddr":"충청북도 단양군 단양읍 상진리 806","openHours":"상시","maleToilets":3,"femaleToilets":2,"disabled":false,"diaperTable":false,"emergencyBell":true,"cctv":false,"managerTel":"0434203511","source":"public","category":"public"},{"id":"202444800000100269","name":"소백산국립공원 북부사무소","lat":36.982868,"lng":128.35025,"roadAddr":"충청북도 단양군 단양읍 상진1길 9, 소백산국립공원 북부사무소","jibunAddr":"충청북도 단양군 단양읍 상진리 84-18 소백산국립공원 북부사무소","openHours":"09:00~18:00","maleToilets":3,"femaleToilets":6,"disabled":true,"diaperTable":false,"emergencyBell":false,"cctv":false,"managerTel":"0434230708","source":"public","category":"public"},{"id":"202444800000100093","name":"단양소방서(1층)","lat":36.989091,"lng":128.356433,"roadAddr":"충청북도 단양군 단양읍 삼봉로 421-56","jibunAddr":"충청북도 단양군 단양읍 별곡리 233","openHours":"09:00~18:00","maleToilets":4,"femaleToilets":3,"disabled":true,"diaperTable":false,"emergencyBell":false,"cctv":false,"managerTel":"0437674113","source":"public","category":"public"},{"id":"202444800000100401","name":"단양장례식장","lat":36.990782,"lng":128.336234,"roadAddr":"충청북도 단양군 단양읍 수양개유적로 6","jibunAddr":"충청북도 단양군 단양읍 상진리 351-2","openHours":"상시","maleToilets":13,"femaleToilets":6,"disabled":true,"diaperTable":false,"emergencyBell":false,"cctv":false,"managerTel":"0434214444","source":"public","category":"public"},{"id":"202444800000100079","name":"대성정(국궁장)","lat":36.98118,"lng":128.354797,"roadAddr":"충청북도 단양군 단양읍 상진로 61","jibunAddr":"충청북도 단양군 단양읍 상진리 1034-8","openHours":"09:00~18:00","maleToilets":0,"femaleToilets":1,"disabled":true,"diaperTable":true,"emergencyBell":false,"cctv":false,"managerTel":"0434203105","source":"public","category":"public"},{"id":"202444800000100071","name":"단양군청소년수련관 수영장","lat":36.977809,"lng":128.364115,"roadAddr":"충청북도 단양군 단양읍 삼봉로 187-18","jibunAddr":"충청북도 단양군 단양읍 상진리 4-10","openHours":"09:00~18:00","maleToilets":3,"femaleToilets":2,"disabled":true,"diaperTable":false,"emergencyBell":false,"cctv":false,"managerTel":"0434203192","source":"public","category":"public"},{"id":"202444800000100234","name":"도담삼봉","lat":37.000775,"lng":128.341834,"roadAddr":"충청북도 단양군 매포읍 삼봉로 644-13","jibunAddr":"충청북도 단양군 매포읍 하괴리 84-1","openHours":"09:00~18:00","maleToilets":10,"femaleToilets":4,"disabled":false,"diaperTable":false,"emergencyBell":false,"cctv":false,"managerTel":"0434217882","source":"public","category":"public"},{"id":"202444800000100070","name":"단양군청소년수련관(1~2층)","lat":36.977809,"lng":128.364115,"roadAddr":"충청북도 단양군 단양읍 삼봉로 187-18","jibunAddr":"충청북도 단양군 단양읍 상진리 4-10","openHours":"09:00~18:00/ 6월이후 개관","maleToilets":6,"femaleToilets":6,"disabled":true,"diaperTable":true,"emergencyBell":false,"cctv":false,"managerTel":"0434203077","source":"public","category":"public"},{"id":"202444800000100444","name":"단양군보건의료원(1층)","lat":36.981512,"lng":128.350242,"roadAddr":"충청북도 단양군 단양읍 삼봉로 53, 단양군 보건소","jibunAddr":"충청북도 단양군 단양읍 상진리 84-17","openHours":"08:00~18:00","maleToilets":4,"femaleToilets":6,"disabled":true,"diaperTable":true,"emergencyBell":false,"cctv":true,"managerTel":"0434203214","source":"public","category":"public"},{"id":"202444800000100395","name":"락송정","lat":36.978919,"lng":128.354463,"roadAddr":"충청북도 단양군 단양읍 상진2길 41","jibunAddr":"충청북도 단양군 단양읍 상진리 703","openHours":"11:30~21:00","maleToilets":3,"femaleToilets":1,"disabled":false,"diaperTable":false,"emergencyBell":false,"cctv":false,"managerTel":"0434238592","source":"public","category":"public"},{"id":"202444800000100082","name":"복합스포츠센터 골프연습장 2층","lat":36.987166,"lng":128.355492,"roadAddr":"충청북도 단양군 단양읍 삼봉로 421-59","jibunAddr":"충청북도 단양군 단양읍 별곡리 산21-6","openHours":"09:00~20:00","maleToilets":5,"femaleToilets":3,"disabled":true,"diaperTable":false,"emergencyBell":false,"cctv":false,"managerTel":"0434223106","source":"public","category":"public"},{"id":"202444800000100440","name":"올누림센터(1~4층)","lat":36.986768,"lng":128.363444,"roadAddr":"충청북도 단양군 단양읍 군청로 85","jibunAddr":"충청북도 단양군 단양읍 별곡리 산 12-4","openHours":"09:00~20:00","maleToilets":20,"femaleToilets":16,"disabled":true,"diaperTable":true,"emergencyBell":true,"cctv":true,"managerTel":"0434202553","source":"public","category":"public"},{"id":"202444800000100198","name":"만천하스카이워크 입구","lat":36.980156,"lng":128.337084,"roadAddr":"충청북도 단양군 적성면 옷바위길 60-186","jibunAddr":"충청북도 단양군 적성면 애곡리 산 1-28","openHours":"09:00~18:00/ 화요일 미개방","maleToilets":5,"femaleToilets":4,"disabled":false,"diaperTable":false,"emergencyBell":false,"cctv":false,"managerTel":"0434210014","source":"public","category":"public"},{"id":"202444800000100288","name":"소노문 단양 별관","lat":36.977949,"lng":128.362465,"roadAddr":"충청북도 단양군 단양읍 삼봉로 187-17","jibunAddr":"충청북도 단양군 단양읍 상진리 4-1","openHours":"상시","maleToilets":8,"femaleToilets":5,"disabled":false,"diaperTable":false,"emergencyBell":false,"cctv":false,"source":"public","category":"public"},{"id":"202444800000100286","name":"소노문 단양 지층","lat":36.977949,"lng":128.362465,"roadAddr":"충청북도 단양군 단양읍 삼봉로 187-17","jibunAddr":"충청북도 단양군 단양읍 상진리 4-1","openHours":"상시","maleToilets":21,"femaleToilets":11,"disabled":false,"diaperTable":false,"emergencyBell":false,"cctv":false,"source":"public","category":"public"},{"id":"202444800000100201","name":"만천하스카이 라운지카페","lat":36.977446,"lng":128.337183,"roadAddr":"충청북도 단양군 적성면 옻바위길 60-186","jibunAddr":"충청북도 단양군 적성면 애곡리 4","openHours":"09:00~18:00","maleToilets":4,"femaleToilets":3,"disabled":true,"diaperTable":false,"emergencyBell":false,"cctv":false,"managerTel":"0434210014","source":"public","category":"public"},{"id":"202444800000100386","name":"SK행복충전 신단양가스충전소","lat":36.976693,"lng":128.344201,"roadAddr":"충청북도 단양군 단양읍 단양로 939","jibunAddr":"충청북도 단양군 단양읍 상진리 211-10","openHours":"상시","maleToilets":2,"femaleToilets":0,"disabled":false,"diaperTable":false,"emergencyBell":false,"cctv":false,"managerTel":"0434222484","source":"public","category":"public"},{"id":"202444800000100200","name":"만천하스카이워크(매표소)","lat":36.980156,"lng":128.337084,"roadAddr":"충청북도 단양군 적성면 옷바위길 60-186","jibunAddr":"충청북도 단양군 적성면 애곡리 1-28","openHours":"09:00~18:00/ 화요일 미개방","maleToilets":5,"femaleToilets":6,"disabled":true,"diaperTable":true,"emergencyBell":false,"cctv":false,"managerTel":"0434210014","source":"public","category":"public"},{"id":"202444800000100394","name":"다원","lat":36.97552,"lng":128.361445,"roadAddr":"충청북도 단양군 단양읍 삼봉로 172","jibunAddr":"충청북도 단양군 단양읍 상진리 1018-1","openHours":"09:30~19:00","maleToilets":4,"femaleToilets":3,"disabled":false,"diaperTable":false,"emergencyBell":false,"cctv":false,"managerTel":"0434238050","source":"public","category":"public"}]