[{"id":"202444800000100112","name":"단양군청 별관(주민/관광과)","lat":36.984556,"lng":128.366301,"roadAddr":"충청북도 단양군 단양읍 중앙1로 10","jibunAddr":"충청북도 단양군 단양읍 별곡리 300","openHours":"09:00~18:00","maleToilets":3,"femaleToilets":2,"disabled":true,"diaperTable":false,"emergencyBell":false,"cctv":false,"managerTel":"0434202644","source":"public","category":"public"},{"id":"202444800000100304","name":"단양수도지사 3층","lat":36.987505,"lng":128.370717,"roadAddr":"충청북도 단양군 단양읍 수변로 137","jibunAddr":"충청북도 단양군 단양읍 별곡리 637","openHours":"09:00~18:00","maleToilets":4,"femaleToilets":1,"disabled":false,"diaperTable":false,"emergencyBell":false,"cctv":false,"managerTel":"0434202311","source":"public","category":"public"},{"id":"202444800000100130","name":"단양여성발전센터 3층","lat":36.987651,"lng":128.370168,"roadAddr":"충청북도 단양군 단양읍 별곡12길 5","jibunAddr":"충청북도 단양군 단양읍 별곡리 639-1","openHours":"09:00~18:00","maleToilets":2,"femaleToilets":2,"disabled":true,"diaperTable":true,"emergencyBell":true,"cctv":false,"managerTel":"0434238580","source":"public","category":"public"},{"id":"202444800000100396","name":"제이비커피","lat":36.987396,"lng":128.370411,"roadAddr":"충청북도 단양군 단양읍 별곡12길 10-4","jibunAddr":"충청북도 단양군 단양읍 별곡리 624","openHours":"09:30~19:00","maleToilets":1,"femaleToilets":1,"disabled":false,"diaperTable":false,"emergencyBell":false,"cctv":false,"managerTel":"0434213067","source":"public","category":"public"},{"id":"202444800000100091","name":"소금정공원","lat":36.975254,"lng":128.364696,"roadAddr":"충청북도 단양군 단양읍 삼봉로 192","jibunAddr":"충청북도 단양군 단양읍 상진리 1017","openHours":"상시","maleToilets":5,"femaleToilets":3,"disabled":true,"diaperTable":true,"emergencyBell":true,"cctv":false,"managerTel":"0434203511","source":"public","category":"public"},{"id":"202444800000100117","name":"농기계임대사업소","lat":36.985258,"lng":128.366701,"roadAddr":"충청북도 단양군 단양읍 중앙1로 20","jibunAddr":"충청북도 단양군 단양읍 별곡리 310","openHours":"09:00~18:00","maleToilets":2,"femaleToilets":1,"disabled":false,"diaperTable":false,"emergencyBell":false,"cctv":false,"managerTel":"0434203422","source":"public","category":"public"},{"id":"202444800000100436","name":"단양구경시장1","lat":36.982507,"lng":128.369772,"roadAddr":"충청북도 단양군 단양읍 도전4길 30, 단양시장","jibunAddr":"충청북도 단양군 단양읍 도전리 612","openHours":"상시","maleToilets":6,"femaleToilets":3,"disabled":false,"diaperTable":true,"emergencyBell":true,"cctv":false,"managerTel":"0434221706","source":"public","category":"public"},{"id":"202444800000100245","name":"양방산전망대","lat":36.968287,"lng":128.381879,"roadAddr":"충청북도 단양군 단양읍 양방산길 350","jibunAddr":"충청북도 단양군 단양읍 기촌리 354-2","openHours":"09:00~18:00","maleToilets":8,"femaleToilets":4,"disabled":false,"diaperTable":false,"emergencyBell":false,"cctv":false,"managerTel":"0434202953","source":"public","category":"public"},{"id":"202444800000100125","name":"단양군평생학습센터 3층","lat":36.985534,"lng":128.368272,"roadAddr":"충청북도 단양군 단양읍 중앙1로 32","jibunAddr":"충청북도 단양군 단양읍 별곡리 315","openHours":"09:00~18:00","maleToilets":7,"femaleToilets":3,"disabled":false,"diaperTable":false,"emergencyBell":false,"cctv":false,"managerTel":"0434203122","source":"public","category":"public"},{"id":"202444800000100193","name":"덕천리 다목적광장","lat":37.001712,"lng":128.382799,"roadAddr":"충청북도 단양군 가곡면 여천덕천로 795","jibunAddr":"충청북도 단양군 가곡면 덕천리 104-9","openHours":"상시","maleToilets":4,"femaleToilets":3,"disabled":false,"diaperTable":false,"emergencyBell":false,"cctv":false,"managerTel":"0434203811","source":"public","category":"public"},{"id":"202444800000100221","name":"선착장(문화마루)","lat":36.982654,"lng":128.371284,"roadAddr":"충청북도 단양군 단양읍 수변로 82","jibunAddr":"충청북도 단양군 단양읍 도전리 636","openHours":"상시","maleToilets":6,"femaleToilets":5,"disabled":true,"diaperTable":true,"emergencyBell":true,"cctv":false,"managerTel":"0434203511","source":"public","category":"public"},{"id":"202444800000100303","name":"단양수도지사 2층","lat":36.987505,"lng":128.370717,"roadAddr":"충청북도 단양군 단양읍 수변로 137","jibunAddr":"충청북도 단양군 단양읍 별곡리 637","openHours":"09:00~18:00","maleToilets":2,"femaleToilets":1,"disabled":true,"diaperTable":false,"emergencyBell":false,"cctv":false,"managerTel":"0434202311","source":"public","category":"public"},{"id":"202444800000100123","name":"단양군평생학습센터 1층","lat":36.985534,"lng":128.368272,"roadAddr":"충청북도 단양군 단양읍 중앙1로 32","jibunAddr":"충청북도 단양군 단양읍 별곡리 315","openHours":"09:00~18:00","maleToilets":7,"femaleToilets":3,"disabled":true,"diaperTable":false,"emergencyBell":false,"cctv":false,"managerTel":"0434203122","source":"public","category":"public"},{"id":"202444800000100340","name":"상하수도과 2층","lat":36.985258,"lng":128.366701,"roadAddr":"충청북도 단양군 단양읍  중앙1로 20","jibunAddr":"충청북도 단양군 단양읍 별곡리 242-3","openHours":"09:00~18:00","maleToilets":8,"femaleToilets":2,"disabled":false,"diaperTable":false,"emergencyBell":false,"cctv":false,"managerTel":"0434203152","source":"public","category":"public"},{"id":"202444800000100362","name":"일양주유소","lat":36.98457,"lng":128.370919,"roadAddr":"충청북도 단양군 단양읍 수변로 101","jibunAddr":"충청북도 단양군 단양읍 별곡리 567","openHours":"00:00~23:00","maleToilets":2,"femaleToilets":1,"disabled":false,"diaperTable":false,"emergencyBell":false,"cctv":false,"managerTel":"0434223535","source":"public","category":"public"},{"id":"202444800000100118","name":"단양문화예술회관 1층","lat":36.985534,"lng":128.368272,"roadAddr":"충청북도 단양군 단양읍 중앙1로 32","jibunAddr":"충청북도 단양군 단양읍 별곡리 315","openHours":"09:00~18:00","maleToilets":6,"femaleToilets":5,"disabled":true,"diaperTable":false,"emergencyBell":true,"cctv":false,"managerTel":"0434202557","source":"public","category":"public"},{"id":"202444800000100289","name":"카페 산","lat":36.994668,"lng":128.394378,"roadAddr":"충청북도 단양군 가곡면 두산길 196-86","jibunAddr":"충청북도 단양군 가곡면 사평리 246-33","openHours":"09:00~19:30","maleToilets":6,"femaleToilets":5,"disabled":false,"diaperTable":false,"emergencyBell":false,"cctv":false,"source":"public","category":"public"},{"id":"202444800000100065","name":"단양관광안내소","lat":36.986487,"lng":128.375914,"roadAddr":"충청북도 단양군 단양읍 다리안로 43","jibunAddr":"충청북도 단양군 단양읍 고수리 136-1","openHours":"09:00~18:00","maleToilets":5,"femaleToilets":4,"disabled":true,"diaperTable":false,"emergencyBell":true,"cctv":false,"managerTel":"0434203035","source":"public","category":"public"},{"id":"202444800000100405","name":"시외버스터미널","lat":36.985411,"lng":128.370752,"roadAddr":"충청북도 단양군 단양읍 수변로 111","jibunAddr":"충청북도 단양군 단양읍 별곡리 569-1","openHours":"06:00~22:00","maleToilets":5,"femaleToilets":3,"disabled":true,"diaperTable":false,"emergencyBell":true,"cctv":true,"managerTel":"0434218801","source":"public","category":"public"},{"id":"202444800000100127","name":"단양읍사무소 2층","lat":36.986823,"lng":128.36809,"roadAddr":"충청북도 단양군 단양읍 중앙1로 35","jibunAddr":"충청북도 단양군 단양읍 별곡리 308","openHours":"09:00~18:00","maleToilets":5,"femaleToilets":4,"disabled":false,"diaperTable":false,"emergencyBell":false,"cctv":false,"managerTel":"0434203501","source":"public","category":"public"},{"id":"202444800000100126","name":"단양읍사무소 1층","lat":36.986823,"lng":128.36809,"roadAddr":"충청북도 단양군 단양읍 중앙1로 35","jibunAddr":"충청북도 단양군 단양읍 별곡리 308","openHours":"09:00~18:00","maleToilets":5,"femaleToilets":3,"disabled":false,"diaperTable":false,"emergencyBell":false,"cctv":false,"managerTel":"0434203501","source":"public","category":"public"},{"id":"202444800000100341","name":"농촌활력과 1층","lat":36.985258,"lng":128.366701,"roadAddr":"충청북도 단양군 단양읍 중앙1로 20","jibunAddr":"충청북도 단양군 단양읍 별곡리 310","openHours":"09:00~18:00","maleToilets":4,"femaleToilets":2,"disabled":false,"diaperTable":false,"emergencyBell":false,"cctv":false,"managerTel":"0434203562","source":"public","category":"public"},{"id":"202444800000100129","name":"단양여성발전센터 2층","lat":36.987651,"lng":128.370168,"roadAddr":"충청북도 단양군 단양읍 별곡12길 5","jibunAddr":"충청북도 단양군 단양읍 별곡리 639-1","openHours":"09:00~18:00","maleToilets":2,"femaleToilets":4,"disabled":true,"diaperTable":true,"emergencyBell":true,"cctv":false,"managerTel":"0434238580","source":"public","category":"public"},{"id":"202444800000100115","name":"단양군의회 2층","lat":36.984556,"lng":128.366301,"roadAddr":"충청북도 단양군 단양읍 중앙1로 10","jibunAddr":"충청북도 단양군 단양읍 별곡리 300","openHours":"09:00~18:00","maleToilets":4,"femaleToilets":1,"disabled":true,"diaperTable":false,"emergencyBell":false,"cctv":false,"managerTel":"0434203018","source":"public","category":"public"},{"id":"202444800000100324","name":"단양농협 본점 3층","lat":36.982547,"lng":128.368678,"roadAddr":"충청북도 단양군 단양읍 삼봉로 287","jibunAddr":"충청북도 단양군 단양읍 도전리 165","openHours":"09:00~16:30","maleToilets":3,"femaleToilets":2,"disabled":false,"diaperTable":false,"emergencyBell":false,"cctv":false,"managerTel":"0434223402","source":"public","category":"public"},{"id":"202444800000100113","name":"단양군청 별관(기사실/휴게실)","lat":36.984556,"lng":128.366301,"roadAddr":"충청북도 단양군 단양읍 중앙1로 10","jibunAddr":"충청북도 단양군 단양읍 별곡리 300","openHours":"09:00~18:00","maleToilets":6,"femaleToilets":4,"disabled":false,"diaperTable":false,"emergencyBell":false,"cctv":false,"managerTel":"0434202644","source":"public","category":"public"},{"id":"202444800000100120","name":"단양문화예술회관 별관 1층","lat":36.985534,"lng":128.368272,"roadAddr":"충청북도 단양군 단양읍 중앙1로 32","jibunAddr":"충청북도 단양군 단양읍 별곡리 315","openHours":"09:00~18:00","maleToilets":3,"femaleToilets":3,"disabled":true,"diaperTable":false,"emergencyBell":false,"cctv":false,"managerTel":"0434202557","source":"public","category":"public"},{"id":"202444800000100110","name":"단양군청 본관3층","lat":36.984556,"lng":128.366301,"roadAddr":"충청북도 단양군 단양읍 중앙1로 10","jibunAddr":"충청북도 단양군 단양읍 별곡리 300","openHours":"09:00~18:00","maleToilets":5,"femaleToilets":3,"disabled":true,"diaperTable":true,"emergencyBell":false,"cctv":false,"managerTel":"0434202644","source":"public","category":"public"},{"id":"202444800000100107","name":"다누리센터","lat":36.985411,"lng":128.370752,"roadAddr":"충청북도 단양군 단양읍 수변로 111","jibunAddr":"충청북도 단양군 단양읍 별곡리 569-1","openHours":"09:00~18:00","maleToilets":5,"femaleToilets":5,"disabled":false,"diaperTable":false,"emergencyBell":true,"cctv":false,"managerTel":"0434202951","source":"public","category":"public"},{"id":"202444800000100216","name":"단양공설운동장","lat":36.987788,"lng":128.3668,"roadAddr":"충청북도 단양군 단양읍 별곡6길 26","jibunAddr":"충청북도 단양군 단양읍 별곡리 15-6","openHours":"07:00~18:00","maleToilets":9,"femaleToilets":6,"disabled":false,"diaperTable":false,"emergencyBell":true,"cctv":false,"managerTel":"0434203105","source":"public","category":"public"},{"id":"202444800000100134","name":"단양우체국 2층","lat":36.985961,"lng":128.368617,"roadAddr":"충청북도 단양군 단양읍 중앙1로 36","jibunAddr":"충청북도 단양군 단양읍 별곡리 320","openHours":"09:00~17:00","maleToilets":2,"femaleToilets":1,"disabled":false,"diaperTable":false,"emergencyBell":false,"cctv":false,"managerTel":"0434223388","source":"public","category":"public"},{"id":"202444800000100214","name":"고수동굴 주차장","lat":36.987033,"lng":128.381478,"roadAddr":"충청북도 단양군 단양읍 다리안로 99","jibunAddr":"충청북도 단양군 단양읍 고수리 111-13","openHours":"상시","maleToilets":7,"femaleToilets":4,"disabled":true,"diaperTable":true,"emergencyBell":true,"cctv":false,"managerTel":"0434203511","source":"public","category":"public"},{"id":"202444800000100389","name":"밝은눈안경","lat":36.983847,"lng":128.369507,"roadAddr":"충청북도 단양군 단양읍 삼봉로 304","jibunAddr":"충청북도 단양군 단양읍 별곡리 506","openHours":"10:00~19:30","maleToilets":1,"femaleToilets":0,"disabled":false,"diaperTable":false,"emergencyBell":false,"cctv":false,"managerTel":"0434213067","source":"public","category":"public"},{"id":"202444800000100320","name":"단양군자원봉사종합센터 2층","lat":36.985233,"lng":128.368333,"roadAddr":"충청북도 단양군 단양읍 별곡1로 27-6","jibunAddr":"충청북도 단양군 단양읍 별곡리 315-1","openHours":"09:00~18:00","maleToilets":3,"femaleToilets":2,"disabled":false,"diaperTable":false,"emergencyBell":false,"cctv":false,"managerTel":"0434238582","source":"public","category":"public"},{"id":"202444800000100403","name":"단양국유림관리소","lat":36.986973,"lng":128.367936,"roadAddr":"충청북도 단양군 단양읍 별곡6길 15","jibunAddr":"충청북도 단양군 단양읍 별곡리 308-1","openHours":"09:00~17:30","maleToilets":2,"femaleToilets":2,"disabled":true,"diaperTable":false,"emergencyBell":false,"cctv":false,"managerTel":"0434200313","source":"public","category":"public"},{"id":"202444800000100124","name":"단양군평생학습센터 2층","lat":36.985534,"lng":128.368272,"roadAddr":"충청북도 단양군 단양읍 중앙1로 32","jibunAddr":"충청북도 단양군 단양읍 별곡리 315","openHours":"09:00~18:00","maleToilets":7,"femaleToilets":3,"disabled":true,"diaperTable":false,"emergencyBell":false,"cctv":false,"managerTel":"0434203122","source":"public","category":"public"},{"id":"202444800000100335","name":"단양신협","lat":36.983578,"lng":128.369463,"roadAddr":"충청북도 단양군 단양읍 삼봉로 302","jibunAddr":"충청북도 단양군 단양읍 별곡리 504","openHours":"09:00~16:00","maleToilets":2,"femaleToilets":2,"disabled":false,"diaperTable":false,"emergencyBell":false,"cctv":false,"managerTel":"0434233101","source":"public","category":"public"},{"id":"202444800000100215","name":"수변로 시범화장실","lat":36.979724,"lng":128.369797,"roadAddr":"충청북도 단양군 단양읍 도전3로 15","jibunAddr":"충청북도 단양군 단양읍 도전리 495","openHours":"상시","maleToilets":11,"femaleToilets":5,"disabled":true,"diaperTable":true,"emergencyBell":true,"cctv":false,"managerTel":"0434203511","source":"public","category":"public"},{"id":"202444800000100068","name":"다목적체육관  1층","lat":36.987417,"lng":128.365049,"roadAddr":"충청북도 단양군 단양읍 별곡3로 19","jibunAddr":"충청북도 단양군 단양읍 별곡리 78","openHours":"09:00~18:00","maleToilets":7,"femaleToilets":3,"disabled":true,"diaperTable":false,"emergencyBell":true,"cctv":false,"managerTel":"0434203105","source":"public","category":"public"},{"id":"202444800000100437","name":"단양구경시장2","lat":36.983087,"lng":128.369824,"roadAddr":"충청북도 단양군 단양읍 도전4길 36, 단양시장","jibunAddr":"충청북도 단양군 단양읍 도전리 613","openHours":"상시","maleToilets":6,"femaleToilets":3,"disabled":false,"diaperTable":false,"emergencyBell":false,"cctv":false,"managerTel":"0434221706","source":"public","category":"public"},{"id":"202444800000100212","name":"고수동굴 출구","lat":36.988658,"lng":128.383276,"roadAddr":"충청북도 단양군 단양읍 다리안로 119-4","jibunAddr":"충청북도 단양군 단양읍 고수리 45-1","openHours":"공사중(~2024. 11. 1.)","maleToilets":6,"femaleToilets":3,"disabled":true,"diaperTable":false,"emergencyBell":true,"cctv":false,"managerTel":"0434203511","source":"public","category":"public"},{"id":"202444800000100084","name":"단양공설정구장","lat":36.989901,"lng":128.367522,"roadAddr":"충청북도 단양군 단양읍 삼봉로 376","jibunAddr":"충청북도 단양군 단양읍 별곡리 20","openHours":"09:00~18:00","maleToilets":4,"femaleToilets":2,"disabled":false,"diaperTable":false,"emergencyBell":false,"cctv":false,"managerTel":"0434203105","source":"public","category":"public"},{"id":"202444800000100338","name":"한국국토정보공사 단양지사","lat":36.985533,"lng":128.367592,"roadAddr":"충청북도 단양군 단양읍 중앙1로 26","jibunAddr":"충청북도 단양군 단양읍 별곡리 312","openHours":"09:00~18:00","maleToilets":2,"femaleToilets":1,"disabled":true,"diaperTable":false,"emergencyBell":false,"cctv":false,"managerTel":"0437674930","source":"public","category":"public"},{"id":"202444800000100069","name":"다목적체육관  2층","lat":36.987417,"lng":128.365049,"roadAddr":"충청북도 단양군 단양읍 별곡3로 19","jibunAddr":"충청북도 단양군 단양읍 별곡리 78","openHours":"09:00~18:00","maleToilets":10,"femaleToilets":2,"disabled":false,"diaperTable":false,"emergencyBell":false,"cctv":false,"managerTel":"0434203105","source":"public","category":"public"},{"id":"202444800000100339","name":"상하수도과 1층","lat":36.985258,"lng":128.366701,"roadAddr":"충청북도 단양군 단양읍  중앙1로 20","jibunAddr":"충청북도 단양군 단양읍 별곡리 242-3","openHours":"09:00~18:00","maleToilets":3,"femaleToilets":0,"disabled":false,"diaperTable":false,"emergencyBell":false,"cctv":false,"managerTel":"0434203152","source":"public","category":"public"},{"id":"202444800000100111","name":"단양군청 본관4층","lat":36.984556,"lng":128.366301,"roadAddr":"충청북도 단양군 단양읍 중앙1로 10","jibunAddr":"충청북도 단양군 단양읍 별곡리 300","openHours":"09:00~18:00","maleToilets":5,"femaleToilets":3,"disabled":true,"diaperTable":true,"emergencyBell":false,"cctv":true,"managerTel":"0434202644","source":"public","category":"public"},{"id":"202444800000100090","name":"단양클레이사격장","lat":36.96298,"lng":128.392429,"roadAddr":"충청북도 단양군 단양읍 노동장현로 207-17","jibunAddr":"충청북도 단양군 단양읍 기촌리 342-1","openHours":"09:00~18:00","maleToilets":6,"femaleToilets":3,"disabled":false,"diaperTable":false,"emergencyBell":false,"cctv":false,"managerTel":"0434217766","source":"public","category":"public"},{"id":"202444800000100109","name":"단양군청 본관2층","lat":36.984556,"lng":128.366301,"roadAddr":"충청북도 단양군 단양읍 중앙1로 10","jibunAddr":"충청북도 단양군 단양읍 별곡리 300","openHours":"09:00~18:00","maleToilets":5,"femaleToilets":3,"disabled":true,"diaperTable":true,"emergencyBell":false,"cctv":false,"managerTel":"0434202644","source":"public","category":"public"},{"id":"202444800000100334","name":"단양군산림조합","lat":36.985083,"lng":128.367819,"roadAddr":"충청북도 단양군 단양읍 별곡1로 25","jibunAddr":"충청북도 단양군 단양읍 별곡리 314","openHours":"09:00~16:30","maleToilets":0,"femaleToilets":0,"disabled":false,"diaperTable":false,"emergencyBell":false,"cctv":false,"managerTel":"0434223511","source":"public","category":"public"},{"id":"202444800000100121","name":"단양문화예술회관 별관 2층","lat":36.985534,"lng":128.368272,"roadAddr":"충청북도 단양군 단양읍 중앙1로 32","jibunAddr":"충청북도 단양군 단양읍 별곡리 315","openHours":"09:00~18:00","maleToilets":4,"femaleToilets":3,"disabled":false,"diaperTable":false,"emergencyBell":false,"cctv":false,"managerTel":"0434202557","source":"public","category":"public"},{"id":"202444800000100128","name":"단양여성발전센터 지층","lat":36.987651,"lng":128.370168,"roadAddr":"충청북도 단양군 단양읍 별곡12길 5","jibunAddr":"충청북도 단양군 단양읍 별곡리 639-1","openHours":"09:00~18:00","maleToilets":0,"femaleToilets":2,"disabled":false,"diaperTable":false,"emergencyBell":true,"cctv":false,"managerTel":"0434238580","source":"public","category":"public"},{"id":"202444800000100344","name":"단양군 농기계임대사업소 본소","lat":36.985258,"lng":128.366701,"roadAddr":"충청북도 단양군 단양읍 중앙1로 20","jibunAddr":"충청북도 단양군 단양읍 별곡리 310","openHours":"09:00~18:00","maleToilets":4,"femaleToilets":1,"disabled":false,"diaperTable":false,"emergencyBell":false,"cctv":false,"managerTel":"0434203428","source":"public","category":"public"},{"id":"202444800000100002","name":"단양경찰서 중앙지구대","lat":36.980175,"lng":128.367828,"roadAddr":"충청북도 단양군 단양읍 삼봉로 259","jibunAddr":"충청북도 단양군 단양읍 도전리 199","openHours":"상시","maleToilets":4,"femaleToilets":2,"disabled":false,"diaperTable":false,"emergencyBell":true,"cctv":false,"managerTel":"0434223211","source":"public","category":"public"},{"id":"202444800000100404","name":"한국전력공사 단양지사","lat":36.986694,"lng":128.367556,"roadAddr":"충청북도 단양군 단양읍 중앙1로 27-6","jibunAddr":"충청북도 단양군 단양읍 별곡리 306","openHours":"09:00~17:30","maleToilets":3,"femaleToilets":1,"disabled":true,"diaperTable":false,"emergencyBell":false,"cctv":false,"managerTel":"0434202214","source":"public","category":"public"},{"id":"202444800000100116","name":"단양군농업기술센터","lat":36.985258,"lng":128.366701,"roadAddr":"충청북도 단양군 단양읍 중앙1로 20","jibunAddr":"충청북도 단양군 단양읍 별곡리 310","openHours":"09:00~18:00","maleToilets":5,"femaleToilets":3,"disabled":false,"diaperTable":false,"emergencyBell":false,"cctv":false,"managerTel":"0434202702","source":"public","category":"public"},{"id":"202444800000100104","name":"다누리센터 아쿠아리움","lat":36.985411,"lng":128.370752,"roadAddr":"충청북도 단양군 단양읍 수변로 111","jibunAddr":"충청북도 단양군 단양읍 별곡리 569-1","openHours":"09:00~18:00","maleToilets":5,"femaleToilets":4,"disabled":true,"diaperTable":true,"emergencyBell":false,"cctv":false,"managerTel":"0434202951","source":"public","category":"public"},{"id":"202444800000100085","name":"단양게이트볼장","lat":36.987788,"lng":128.3668,"roadAddr":"충청북도 단양군 단양읍 별곡6길 26","jibunAddr":"충청북도 단양군 단양읍 별곡리 15-6","openHours":"09:00~18:00","maleToilets":4,"femaleToilets":2,"disabled":false,"diaperTable":false,"emergencyBell":false,"cctv":false,"managerTel":"0434203511","source":"public","category":"public"},{"id":"202444800000100108","name":"단양군청 본관1층","lat":36.984556,"lng":128.366301,"roadAddr":"충청북도 단양군 단양읍 중앙1로 10","jibunAddr":"충청북도 단양군 단양읍 별곡리 300","openHours":"08:00~21:00","maleToilets":5,"femaleToilets":3,"disabled":true,"diaperTable":true,"emergencyBell":false,"cctv":true,"managerTel":"0434202644","source":"public","category":"public"},{"id":"202444800000100319","name":"단양군자원봉사종합센터 1층","lat":36.985233,"lng":128.368333,"roadAddr":"충청북도 단양군 단양읍 별곡1로 27-6","jibunAddr":"충청북도 단양군 단양읍 별곡리 315-1","openHours":"09:00~18:00","maleToilets":0,"femaleToilets":0,"disabled":false,"diaperTable":false,"emergencyBell":false,"cctv":false,"managerTel":"0434238582","source":"public","category":"public"},{"id":"202444800000100114","name":"단양군의회 1층","lat":36.984556,"lng":128.366301,"roadAddr":"충청북도 단양군 단양읍 중앙1로 10","jibunAddr":"충청북도 단양군 단양읍 별곡리 300","openHours":"09:00~18:00","maleToilets":4,"femaleToilets":1,"disabled":true,"diaperTable":false,"emergencyBell":false,"cctv":false,"managerTel":"0434203018","source":"public","category":"public"},{"id":"202444800000100222","name":"단양청소년문화의집","lat":36.982654,"lng":128.371284,"roadAddr":"충청북도 단양군 단양읍 수변로 82","jibunAddr":"충청북도 단양군 단양읍 도전리 636","openHours":"09:00~18:00","maleToilets":8,"femaleToilets":4,"disabled":false,"diaperTable":false,"emergencyBell":false,"cctv":false,"managerTel":"0434211389","source":"public","category":"public"},{"id":"202444800000100064","name":"국민체육센터 2층","lat":36.98652,"lng":128.364694,"roadAddr":"충청북도 단양군 단양읍 군청로 84-8","jibunAddr":"충청북도 단양군 단양읍 별곡리 301","openHours":"09:00~18:00","maleToilets":16,"femaleToilets":7,"disabled":false,"diaperTable":true,"emergencyBell":true,"cctv":false,"managerTel":"0434203105","source":"public","category":"public"},{"id":"202444800000100322","name":"단양농협 본점 1층","lat":36.982547,"lng":128.368678,"roadAddr":"충청북도 단양군 단양읍 삼봉로 287","jibunAddr":"충청북도 단양군 단양읍 도전리 165","openHours":"09:00~16:30","maleToilets":1,"femaleToilets":0,"disabled":true,"diaperTable":false,"emergencyBell":false,"cctv":false,"managerTel":"0434223402","source":"public","category":"public"},{"id":"202444800000100321","name":"NH농협은행 단양군지부","lat":36.984581,"lng":128.368898,"roadAddr":"충청북도 단양군 단양읍 삼봉로 311","jibunAddr":"충청북도 단양군 단양읍 별곡리 487","openHours":"09:00~16:30","maleToilets":3,"femaleToilets":1,"disabled":true,"diaperTable":false,"emergencyBell":false,"cctv":false,"managerTel":"0434222582","source":"public","category":"public"},{"id":"202444800000100242","name":"단양구경시장4","lat":36.982491,"lng":128.369981,"roadAddr":"충청북도 단양군 단양읍 도전5길 31","jibunAddr":"충청북도 단양군 단양읍 도전리 615","openHours":"상시","maleToilets":6,"femaleToilets":3,"disabled":false,"diaperTable":true,"emergencyBell":true,"cctv":false,"managerTel":"0434221706","source":"public","category":"public"},{"id":"202444800000100407","name":"청주지방법원 단양등기소","lat":36.98585,"lng":128.365625,"roadAddr":"충청북도 단양군 단양읍 중앙1로 9","jibunAddr":"충청북도 단양군 단양읍 별곡리 303","openHours":"09:00~17:30","maleToilets":4,"femaleToilets":4,"disabled":false,"diaperTable":false,"emergencyBell":false,"cctv":false,"managerTel":"15440773","source":"public","category":"public"},{"id":"202444800000100343","name":"단양군 농업기술센터","lat":36.985258,"lng":128.366701,"roadAddr":"충청북도 단양군 단양읍 중앙1로 20","jibunAddr":"충청북도 단양군 단양읍 별곡리 310","openHours":"09:00~18:00","maleToilets":5,"femaleToilets":3,"disabled":false,"diaperTable":false,"emergencyBell":false,"cctv":false,"managerTel":"0434203428","source":"public","category":"public"},{"id":"202444800000100001","name":"단양경찰서","lat":36.985382,"lng":128.364873,"roadAddr":"충청북도 단양군 단양읍 중앙1로 3","jibunAddr":"충청북도 단양군 단양읍 별곡리 302","openHours":"상시","maleToilets":21,"femaleToilets":4,"disabled":true,"diaperTable":false,"emergencyBell":true,"cctv":false,"managerTel":"0436419311","source":"public","category":"public"},{"id":"202444800000100302","name":"단양수도지사 1층","lat":36.987505,"lng":128.370717,"roadAddr":"충청북도 단양군 단양읍 수변로 137","jibunAddr":"충청북도 단양군 단양읍 별곡리 637","openHours":"09:00~18:00","maleToilets":2,"femaleToilets":1,"disabled":true,"diaperTable":false,"emergencyBell":false,"cctv":false,"managerTel":"0434202311","source":"public","category":"public"},{"id":"202444800000100067","name":"문화체육센터","lat":36.986676,"lng":128.365302,"roadAddr":"충청북도 단양군 단양읍 별곡3로 11","jibunAddr":"충청북도 단양군 단양읍 별곡리 301","openHours":"09:00~18:00","maleToilets":16,"femaleToilets":7,"disabled":false,"diaperTable":false,"emergencyBell":false,"cctv":false,"managerTel":"0434203105","source":"public","category":"public"},{"id":"202444800000100342","name":"농촌활력과 2층","lat":36.985258,"lng":128.366701,"roadAddr":"충청북도 단양군 단양읍 중앙1로 20","jibunAddr":"충청북도 단양군 단양읍 별곡리 310","openHours":"09:00~18:00","maleToilets":7,"femaleToilets":3,"disabled":false,"diaperTable":false,"emergencyBell":false,"cctv":false,"managerTel":"0434203562","source":"public","category":"public"},{"id":"202444800000100323","name":"단양농협 본점 2층","lat":36.982547,"lng":128.368678,"roadAddr":"충청북도 단양군 단양읍 삼봉로 287","jibunAddr":"충청북도 단양군 단양읍 도전리 165","openHours":"09:00~16:30","maleToilets":3,"femaleToilets":2,"disabled":false,"diaperTable":false,"emergencyBell":false,"cctv":false,"managerTel":"0434223402","source":"public","category":"public"},{"id":"202444800000100063","name":"국민체육센터 1층","lat":36.98652,"lng":128.364694,"roadAddr":"충청북도 단양군 단양읍 군청로 84-8","jibunAddr":"충청북도 단양군 단양읍 별곡리 301","openHours":"09:00~18:00","maleToilets":16,"femaleToilets":7,"disabled":false,"diaperTable":true,"emergencyBell":true,"cctv":false,"managerTel":"0434203105","source":"public","category":"public"},{"id":"202444800000100400","name":"단양군립노인요양병원장례식장","lat":36.987065,"lng":128.368816,"roadAddr":"충청북도 단양군 단양읍 별곡6길 10","jibunAddr":"충청북도 단양군 단양읍 별곡리 309","openHours":"상시","maleToilets":3,"femaleToilets":3,"disabled":true,"diaperTable":false,"emergencyBell":false,"cctv":false,"managerTel":"0434230044","source":"public","category":"public"},{"id":"202444800000100133","name":"단양우체국 1층","lat":36.985961,"lng":128.368617,"roadAddr":"충청북도 단양군 단양읍 중앙1로 36","jibunAddr":"충청북도 단양군 단양읍 별곡리 320","openHours":"09:00~17:00","maleToilets":3,"femaleToilets":1,"disabled":true,"diaperTable":false,"emergencyBell":false,"cctv":false,"managerTel":"0434223388","source":"public","category":"public"},{"id":"202444800000100390","name":"왕릉숯불갈비","lat":36.986302,"lng":128.370995,"roadAddr":"충청북도 단양군 단양읍 중앙2로 13","jibunAddr":"충청북도 단양군 단양읍 별곡리 609","openHours":"10:30~21:00","maleToilets":2,"femaleToilets":1,"disabled":false,"diaperTable":false,"emergencyBell":false,"cctv":false,"managerTel":"0434239292","source":"public","category":"public"},{"id":"202444800000100243","name":"단양구경시장3","lat":36.982424,"lng":128.370214,"roadAddr":"충청북도 단양군 단양읍 도전5길 32, 대산 원조 마늘순대","jibunAddr":"충청북도 단양군 단양읍 도전리 614","openHours":"상시","maleToilets":6,"femaleToilets":3,"disabled":false,"diaperTable":true,"emergencyBell":true,"cctv":false,"managerTel":"0434221706","source":"public","category":"public"},{"id":"202444800000100119","name":"단양문화예술회관 2층","lat":36.985534,"lng":128.368272,"roadAddr":"충청북도 단양군 단양읍 중앙1로 32","jibunAddr":"충청북도 단양군 단양읍 별곡리 315","openHours":"09:00~18:00","maleToilets":7,"femaleToilets":5,"disabled":false,"diaperTable":false,"emergencyBell":false,"cctv":false,"managerTel":"0434202557","source":"public","category":"public"}]