[{"id":"202442710000100204","name":"김삿갓면-1","lat":37.11414,"lng":128.528319,"jibunAddr":"강원특별자치도 영월군 김삿갓면 각동리 155-8","openHours":"상시","maleToilets":2,"femaleToilets":1,"disabled":false,"diaperTable":false,"emergencyBell":false,"cctv":false,"managerTel":"0333704826","source":"public","category":"public"},{"id":"202442710000100024","name":"동굴생태관 화장실","lat":37.129534,"lng":128.536731,"roadAddr":"강원특별자치도 영월군 김삿갓면 영월동로 1131-28","jibunAddr":"강원특별자치도 영월군 김삿갓면 진별리 506-21","openHours":"09:00~18:00","maleToilets":5,"femaleToilets":4,"disabled":true,"diaperTable":false,"emergencyBell":false,"cctv":false,"managerTel":"0333726828","source":"public","category":"public"},{"id":"202542710000100035","name":"김삿갓면-가재골입구","lat":37.115844,"lng":128.537831,"roadAddr":"강원특별자치도 영월군 김삿갓면 강변로 1462-6","jibunAddr":"강원특별자치도 영월군 김삿갓면 각동리 38-4","openHours":"상시","maleToilets":1,"femaleToilets":1,"disabled":false,"diaperTable":false,"emergencyBell":false,"cctv":false,"managerTel":"0333704826","source":"public","category":"public"},{"id":"202442710000100025","name":"고씨동굴 검표소 화장실","lat":37.130731,"lng":128.535386,"roadAddr":"강원특별자치도 영월군 김삿갓면 영월동로 1117, 고씨동굴매표소","jibunAddr":"강원특별자치도 영월군 김삿갓면 진별리 506-1 고씨동굴매표소","openHours":"09:00~18:00","maleToilets":5,"femaleToilets":2,"disabled":false,"diaperTable":false,"emergencyBell":false,"cctv":false,"managerTel":"0333726871","source":"public","category":"public"},{"id":"202442710000100325","name":"고씨동굴 광장 화장실","lat":37.131177,"lng":128.535263,"roadAddr":"강원특별자치도 영월군 김삿갓면 영월동로 1111","jibunAddr":"강원특별자치도 영월군 김삿갓면 진별리 506-1","openHours":"상시","maleToilets":9,"femaleToilets":6,"disabled":true,"diaperTable":false,"emergencyBell":true,"cctv":false,"managerTel":"0333726871","source":"public","category":"public"},{"id":"202442710000100330","name":"물놀이시설 화장실","lat":37.130731,"lng":128.535386,"roadAddr":"강원특별자치도 영월군 김삿갓면 영월동로 1117","jibunAddr":"강원특별자치도 영월군 김삿갓면 진별리 506-1","openHours":"상시","maleToilets":7,"femaleToilets":6,"disabled":true,"diaperTable":false,"emergencyBell":true,"cctv":false,"managerTel":"0333726871","source":"public","category":"public"},{"id":"202444800000100249","name":"오사리 레프팅 출발지","lat":37.11,"lng":128.510251,"roadAddr":"충청북도 단양군 영춘면 강변로 1120","jibunAddr":"충청북도 단양군 영춘면 오사리 102","openHours":"09:00~18:00/ 5월~9월까지 운영","maleToilets":6,"femaleToilets":6,"disabled":true,"diaperTable":true,"emergencyBell":true,"cctv":false,"managerTel":"0434203861","source":"public","category":"public"}]