[{"id":"202542710000100049","name":"산솔면-19(화원1리 수라리재 정상)","lat":37.174613,"lng":128.642961,"jibunAddr":"강원특별자치도 영월군 산솔면 화원리 345-11","openHours":"상시","maleToilets":2,"femaleToilets":0,"disabled":false,"diaperTable":false,"emergencyBell":false,"cctv":false,"source":"public","category":"public"},{"id":"202542710000100051","name":"산솔면-23(화원2리 정자 아래)","lat":37.165959,"lng":128.642416,"jibunAddr":"강원특별자치도 영월군 산솔면 화원리 산 90-15","openHours":"상시","maleToilets":1,"femaleToilets":1,"disabled":false,"diaperTable":false,"emergencyBell":false,"cctv":false,"source":"public","category":"public"},{"id":"202442710000100256","name":"산솔면-16(마을입구버스승강장)","lat":37.159818,"lng":128.667784,"jibunAddr":"강원특별자치도 영월군 산솔면 이목리 330-6","openHours":"상시","maleToilets":1,"femaleToilets":1,"disabled":false,"diaperTable":false,"emergencyBell":false,"cctv":false,"managerTel":"0333704796","source":"public","category":"public"},{"id":"202442710000100242","name":"김삿갓면-41","lat":37.134578,"lng":128.669973,"jibunAddr":"강원특별자치도 영월군 김삿갓면 외룡리 27","openHours":"상시","maleToilets":1,"femaleToilets":1,"disabled":false,"diaperTable":false,"emergencyBell":false,"cctv":false,"managerTel":"0333704826","source":"public","category":"public"},{"id":"202442710000100255","name":"산솔면-17(이목교회 앞)","lat":37.169767,"lng":128.669161,"jibunAddr":"강원특별자치도 영월군 산솔면 이목리 662","openHours":"상시","maleToilets":1,"femaleToilets":1,"disabled":false,"diaperTable":false,"emergencyBell":false,"cctv":false,"managerTel":"0333704796","source":"public","category":"public"},{"id":"202442710000100254","name":"산솔면-18((구)화라분교 입구)","lat":37.174475,"lng":128.629414,"jibunAddr":"강원특별자치도 영월군 산솔면 화원리 638-11","openHours":"상시","maleToilets":2,"femaleToilets":1,"disabled":false,"diaperTable":false,"emergencyBell":false,"cctv":false,"managerTel":"0333704796","source":"public","category":"public"}]