[{"id":"202442710000100074","name":"영월소방서","lat":37.185451,"lng":128.45842,"roadAddr":"강원특별자치도 영월군 영월읍 영월로 1863","jibunAddr":"강원특별자치도 영월군 영월읍 하송리 288","openHours":"정시","maleToilets":4,"femaleToilets":2,"disabled":false,"diaperTable":false,"emergencyBell":false,"cctv":false,"managerTel":"0333717221","source":"public","category":"public"},{"id":"202442710000100069","name":"영월의료원(본관)","lat":37.186496,"lng":128.465701,"roadAddr":"강원특별자치도 영월군 영월읍 중앙1로 59 (영흥리, 영월의료원)","jibunAddr":"강원특별자치도 영월군 영월읍 영흥리 1072(영월의료원)","openHours":"상시","maleToilets":5,"femaleToilets":2,"disabled":false,"diaperTable":false,"emergencyBell":true,"cctv":false,"managerTel":"0333709101","source":"public","category":"public"},{"id":"202442710000100443","name":"영월군청 별관 화장실","lat":37.184355,"lng":128.461933,"roadAddr":"강원특별자치도 영월군 영월읍 하송로 64, 영월군청사","jibunAddr":"강원특별자치도 영월군 영월읍 하송리 242 영월군청사","openHours":"정시","maleToilets":9,"femaleToilets":7,"disabled":false,"diaperTable":false,"emergencyBell":false,"cctv":false,"managerTel":"0333732273","source":"public","category":"public"},{"id":"202442710000100077","name":"영월경찰서","lat":37.184716,"lng":128.46808,"roadAddr":"강원특별자치도 영월군 영월읍 단종로 9","openHours":"상시","maleToilets":18,"femaleToilets":5,"disabled":true,"diaperTable":false,"emergencyBell":false,"cctv":false,"managerTel":"0333723321","source":"public","category":"public"},{"id":"202442710000100429","name":"평창영월정선축협마트 화장실","lat":37.178284,"lng":128.461141,"roadAddr":"강원특별자치도 영월군 영월읍 은행나무길 112, 평창영월정선축협 하나로마트(영월점)","jibunAddr":"강원특별자치도 영월군 영월읍 하송리 145 평창영월정선축협 하나로마트(영월점)","openHours":"정시","maleToilets":6,"femaleToilets":3,"disabled":true,"diaperTable":false,"emergencyBell":false,"cctv":false,"managerTel":"0333752260","source":"public","category":"public"},{"id":"202442710000100356","name":"금강공원화장실","lat":37.185797,"lng":128.476679,"roadAddr":"강원특별자치도 영월군 영월읍 금강공원길 107","jibunAddr":"강원특별자치도 영월군 영월읍 영흥리 산 36","openHours":"상시","maleToilets":3,"femaleToilets":3,"disabled":false,"diaperTable":false,"emergencyBell":true,"cctv":false,"managerTel":"0333702836","source":"public","category":"public"},{"id":"202442710000100366","name":"중앙시장 화장실","lat":37.182814,"lng":128.471303,"roadAddr":"강원특별자치도 영월군 영월읍 제방안길 16-1","jibunAddr":"강원특별자치도 영월군 영월읍 영흥리 931","openHours":"상시","maleToilets":6,"femaleToilets":6,"disabled":false,"diaperTable":false,"emergencyBell":true,"cctv":false,"managerTel":"0333702751","source":"public","category":"public"},{"id":"202442710000100322","name":"영월읍행정복지센터","lat":37.18776,"lng":128.466061,"roadAddr":"강원특별자치도 영월군 영월읍 단종로 48-8","jibunAddr":"강원특별자치도 영월군 영월읍 영흥리 1017-13","openHours":"정시","maleToilets":5,"femaleToilets":3,"disabled":true,"diaperTable":true,"emergencyBell":false,"cctv":false,"managerTel":"0333704731","source":"public","category":"public"},{"id":"202442710000100437","name":"영월군종합사회복지관 화장실","lat":37.184641,"lng":128.468758,"roadAddr":"강원특별자치도 영월군 영월읍 단종로 12, 영월군종합사회복지관","jibunAddr":"강원특별자치도 영월군 영월읍 영흥리 975-2 영월군종합사회복지관","openHours":"정시","maleToilets":27,"femaleToilets":35,"disabled":true,"diaperTable":false,"emergencyBell":false,"cctv":false,"managerTel":"0333702611","source":"public","category":"public"},{"id":"202442710000100426","name":"별총총도시재생지원센터 화장실","lat":37.188633,"lng":128.472514,"roadAddr":"강원특별자치도 영월군 영월읍 봉래산로 57, 청소년꿈터","jibunAddr":"강원특별자치도 영월군 영월읍 영흥리 808 청소년꿈터","openHours":"정시","maleToilets":12,"femaleToilets":6,"disabled":true,"diaperTable":true,"emergencyBell":true,"cctv":false,"managerTel":"0333702600","source":"public","category":"public"},{"id":"202442710000100072","name":"학생체육관 화장실","lat":37.182315,"lng":128.457668,"roadAddr":"강원특별자치도 영월군 영월읍 영월로 1894-6 (하송리, 학생체육관)","jibunAddr":"강원특별자치도 영월군 영월읍 하송리 305","openHours":"정시","maleToilets":4,"femaleToilets":4,"disabled":true,"diaperTable":false,"emergencyBell":true,"cctv":false,"managerTel":"0333701114","source":"public","category":"public"},{"id":"202442710000100326","name":"공설운동장 화장실","lat":37.180163,"lng":128.459918,"roadAddr":"강원특별자치도 영월군 영월읍 영월로 1914-11","jibunAddr":"강원특별자치도 영월군 영월읍 하송리 318","openHours":"상시","maleToilets":6,"femaleToilets":4,"disabled":true,"diaperTable":false,"emergencyBell":true,"cctv":false,"managerTel":"0333756996","source":"public","category":"public"},{"id":"202442710000100036","name":"산림청 영월국유림관리소","lat":37.182599,"lng":128.459945,"roadAddr":"강원특별자치도 영월군 영월로 1909-1","jibunAddr":"강원특별자치도 영월군 영월읍 하송리 311-1","openHours":"정시","maleToilets":9,"femaleToilets":5,"disabled":true,"diaperTable":false,"emergencyBell":false,"cctv":false,"managerTel":"0333718111","source":"public","category":"public"},{"id":"202442710000100341","name":"영월군보건소","lat":37.184368,"lng":128.463627,"roadAddr":"강원특별자치도 영월군 하송로 44","jibunAddr":"강원특별자치도 영월군 영월읍 하송리 246","openHours":"정시","maleToilets":16,"femaleToilets":8,"disabled":true,"diaperTable":true,"emergencyBell":true,"cctv":false,"managerTel":"0333724000","source":"public","category":"public"},{"id":"202442710000100360","name":"덕포5일장화장실(3주차장)","lat":37.182706,"lng":128.478903,"roadAddr":"강원특별자치도 영월군 영월읍 덕포리 486-2","jibunAddr":"강원특별자치도 영월군 영월읍 덕포리 486-2","openHours":"불규칙","maleToilets":4,"femaleToilets":3,"disabled":false,"diaperTable":false,"emergencyBell":true,"cctv":false,"managerTel":"0333702751","source":"public","category":"public"},{"id":"202442710000100419","name":"덕포5리 화장실","lat":37.180755,"lng":128.477173,"roadAddr":"강원특별자치도 영월군 영월읍 덕포시장길 8-16","jibunAddr":"강원특별자치도 영월군 영월읍 덕포리 574-29","openHours":"상시","maleToilets":3,"femaleToilets":3,"disabled":false,"diaperTable":true,"emergencyBell":true,"cctv":false,"managerTel":"0333702370","source":"public","category":"public"},{"id":"202442710000100079","name":"춘천지방법원 영월지원","lat":37.186951,"lng":128.473328,"roadAddr":"강원특별자치도 영월군 영월읍 영월향교1길 53","openHours":"정시","maleToilets":8,"femaleToilets":3,"disabled":false,"diaperTable":false,"emergencyBell":false,"cctv":false,"managerTel":"0333714546","source":"public","category":"public"},{"id":"202442710000100032","name":"영월천하장사의집","lat":37.179697,"lng":128.475023,"roadAddr":"강원특별자치도 영월군 영월읍 덕포우회길 26","jibunAddr":"강원특별자치도 영월군 영월읍 덕포리 574-58","openHours":"미개방","maleToilets":7,"femaleToilets":0,"disabled":false,"diaperTable":false,"emergencyBell":false,"cctv":false,"managerTel":"0333702971","source":"public","category":"public"},{"id":"202442710000100359","name":"영모전화장실","lat":37.189003,"lng":128.469028,"roadAddr":"강원특별자치도 영월군 영월읍 영모전길 141","jibunAddr":"강원특별자치도 영월군 영월읍 영흥리 1024","openHours":"상시","maleToilets":1,"femaleToilets":1,"disabled":true,"diaperTable":true,"emergencyBell":true,"cctv":false,"managerTel":"0333702836","source":"public","category":"public"},{"id":"202442710000100034","name":"중부지방고용노동청 영월출장소 화장실","lat":37.18415,"lng":128.468537,"roadAddr":"강원특별자치도 영월군 영월읍 단종로 8, 중부지방고용노동청 영월출장소","jibunAddr":"강원특별자치도 영월군 영월읍 영흥리 976-1 중부지방고용노동청 영월출장소","openHours":"정시","maleToilets":10,"femaleToilets":5,"disabled":true,"diaperTable":false,"emergencyBell":true,"cctv":false,"managerTel":"0333716211","source":"public","category":"public"},{"id":"202642710000100003","name":"영월군청 구보건소","lat":37.185304,"lng":128.461528,"roadAddr":"강원특별자치도 영월군 영월읍 하송로 46-43","jibunAddr":"강원특별자치도 영월군 영월읍 하송리 236-2","openHours":"정시","maleToilets":20,"femaleToilets":7,"disabled":false,"diaperTable":false,"emergencyBell":false,"cctv":false,"source":"public","category":"public"},{"id":"202442710000100389","name":"금강탁구장","lat":37.185171,"lng":128.475593,"roadAddr":"강원특별자치도 영월군 영월읍 내성길 50번길 47-32","jibunAddr":"강원특별자치도 영월군 영월읍 영흥리 892","openHours":"상시","maleToilets":3,"femaleToilets":1,"disabled":false,"diaperTable":false,"emergencyBell":false,"cctv":false,"managerTel":"0333702976","source":"public","category":"public"},{"id":"202442710000100073","name":"영월교육지원청 화장실","lat":37.183122,"lng":128.457981,"roadAddr":"강원특별자치도 영월군 영월읍 영월로 1892","jibunAddr":"강원특별자치도 영월군 영월읍 하송리 306-2","openHours":"정시","maleToilets":14,"femaleToilets":10,"disabled":false,"diaperTable":false,"emergencyBell":false,"cctv":false,"managerTel":"0333701114","source":"public","category":"public"},{"id":"202442710000100027","name":"별마로천문대 화장실","lat":37.199435,"lng":128.485729,"roadAddr":"강원특별자치도 영월군 영월읍 천문대길 397, 별마로천문대","jibunAddr":"강원특별자치도 영월군 영월읍 영흥리 154-7 별마로천문대","openHours":"정시","maleToilets":8,"femaleToilets":4,"disabled":true,"diaperTable":false,"emergencyBell":false,"cctv":true,"source":"public","category":"public"},{"id":"202442710000100399","name":"장릉 화장실","lat":37.196812,"lng":128.452903,"roadAddr":"강원특별자치도 영월군 단종로 190","openHours":"상시","maleToilets":7,"femaleToilets":8,"disabled":false,"diaperTable":false,"emergencyBell":true,"cctv":false,"managerTel":"0333702911","source":"public","category":"public"},{"id":"202442710000100420","name":"동강둔치 화장실","lat":37.180845,"lng":128.469956,"roadAddr":"강원특별자치도 영월군 영월읍 제방안길 45","jibunAddr":"강원특별자치도 영월군 영월읍 영흥리 922-23","openHours":"상시","maleToilets":3,"femaleToilets":3,"disabled":true,"diaperTable":true,"emergencyBell":true,"cctv":false,"managerTel":"0333702370","source":"public","category":"public"},{"id":"202442710000100444","name":"영월교육지원청Wee센타 화장실","lat":37.183122,"lng":128.457981,"roadAddr":"강원특별자치도 영월군 영월읍 영월로 1892, 강원도영월교육청","jibunAddr":"강원특별자치도 영월군 영월읍 하송리 306-2 강원도영월교육청","openHours":"미개방","maleToilets":2,"femaleToilets":2,"disabled":false,"diaperTable":false,"emergencyBell":false,"cctv":false,"managerTel":"0333701213","source":"public","category":"public"},{"id":"202442710000100395","name":"문화예술회관 화장실","lat":37.186099,"lng":128.468183,"roadAddr":"강원특별자치도 영월군 영월읍 단종로 24 (영흥리, 문화예술회관)","jibunAddr":"강원특별자치도 영월군 영월읍 영흥리 961-2","openHours":"정시","maleToilets":6,"femaleToilets":2,"disabled":true,"diaperTable":true,"emergencyBell":false,"cctv":false,"managerTel":"0333756353","source":"public","category":"public"},{"id":"202442710000100362","name":"서부아침시장 화장실","lat":37.183133,"lng":128.466927,"roadAddr":"강원특별자치도 영월군 영월읍 서부시장길 21-15","jibunAddr":"강원특별자치도 영월군 영월읍 영흥리 947-47","openHours":"상시","maleToilets":6,"femaleToilets":6,"disabled":false,"diaperTable":true,"emergencyBell":true,"cctv":false,"managerTel":"0333702751","source":"public","category":"public"},{"id":"202442710000100350","name":"영월군의회","lat":37.184355,"lng":128.461933,"roadAddr":"강원특별자치도 영월군 영월읍 하송로 64","jibunAddr":"강원특별자치도 영월군 영월읍 하송리 242","openHours":"정시","maleToilets":14,"femaleToilets":5,"disabled":true,"diaperTable":false,"emergencyBell":false,"cctv":false,"managerTel":"0333706924","source":"public","category":"public"},{"id":"202442710000100323","name":"영월교육도서관 화장실","lat":37.180632,"lng":128.459815,"roadAddr":"강원특별자치도 영월군 영월읍 영월로 1914-7","jibunAddr":"강원특별자치도 영월군 영월읍 하송리 318","openHours":"정시","maleToilets":6,"femaleToilets":6,"disabled":true,"diaperTable":false,"emergencyBell":false,"cctv":false,"managerTel":"0333739315","source":"public","category":"public"},{"id":"202442710000100361","name":"서부공설시장 화장실","lat":37.182369,"lng":128.466157,"roadAddr":"강원특별자치도 영월군 영월읍 서부시장길 8-24","jibunAddr":"강원특별자치도 영월군 영월읍 하송리 5-24","openHours":"상시","maleToilets":6,"femaleToilets":4,"disabled":false,"diaperTable":false,"emergencyBell":true,"cctv":false,"managerTel":"0333702751","source":"public","category":"public"},{"id":"202442710000100028","name":"동강사진박물관 별관","lat":37.181917,"lng":128.461594,"roadAddr":"강원특별자치도 영월군 영월읍 영월로 1909-10, 동강사진박물관","jibunAddr":"강원특별자치도 영월군 영월읍 하송리 217-2 동강사진박물관","openHours":"정시","maleToilets":2,"femaleToilets":2,"disabled":true,"diaperTable":false,"emergencyBell":false,"cctv":false,"managerTel":"0333754554","source":"public","category":"public"},{"id":"202442710000100402","name":"관풍헌 화장실","lat":37.183621,"lng":128.470491,"roadAddr":"강원특별자치도 영월군 영월읍 중앙로 61","openHours":"정시","maleToilets":3,"femaleToilets":2,"disabled":false,"diaperTable":false,"emergencyBell":true,"cctv":false,"managerTel":"0333702911","source":"public","category":"public"},{"id":"202442710000100349","name":"덕포보건지소 화장실","lat":37.179218,"lng":128.476788,"roadAddr":"강원특별자치도 영월군 영월읍 중앙로 148(덕포리, 덕포보건지소)","jibunAddr":"강원특별자치도 영월군 영월읍 덕포리 574-68","openHours":"정시","maleToilets":3,"femaleToilets":2,"disabled":false,"diaperTable":false,"emergencyBell":false,"cctv":false,"managerTel":"0333705361","source":"public","category":"public"},{"id":"202442710000100412","name":"여성회관 화장실","lat":37.18459,"lng":128.469536,"roadAddr":"강원특별자치도 영월군 영월읍 단종로16번길 18-5 (영흥리, 영월군여성회관)","jibunAddr":"강원특별자치도 영월군 영월읍 영흥리 971-8","openHours":"정시","maleToilets":7,"femaleToilets":9,"disabled":false,"diaperTable":true,"emergencyBell":true,"cctv":false,"managerTel":"0333702641","source":"public","category":"public"},{"id":"202442710000100078","name":"춘천지방검찰청 영월지청","lat":37.186951,"lng":128.473328,"roadAddr":"강원특별자치도 영월군 영월읍 영월향교1길 53","jibunAddr":"강원특별자치도 영월군 영월읍 영흥리 876","openHours":"정시","maleToilets":9,"femaleToilets":4,"disabled":false,"diaperTable":false,"emergencyBell":false,"cctv":false,"managerTel":"0333714546","source":"public","category":"public"},{"id":"202442710000100427","name":"레스트힐상가화장실","lat":37.179479,"lng":128.467849,"roadAddr":"강원특별자치도 영월군 영월읍 제방안길 64 (레스트힐)","jibunAddr":"강원특별자치도 영월군 영월읍 하송리 53 레스트힐","openHours":"상시","maleToilets":7,"femaleToilets":4,"disabled":false,"diaperTable":false,"emergencyBell":false,"cctv":false,"managerTel":"0333755557","source":"public","category":"public"},{"id":"202442710000100388","name":"영월 금호정","lat":37.199583,"lng":128.473375,"roadAddr":"강원특별자치도 영월군 영월읍 봉래산로 193","jibunAddr":"강원특별자치도 영월군 영월읍 영흥리 628-1","openHours":"정시","maleToilets":6,"femaleToilets":2,"disabled":false,"diaperTable":false,"emergencyBell":false,"cctv":false,"managerTel":"0333702976","source":"public","category":"public"},{"id":"202542710000100043","name":"월담작은도서관 화장실","lat":37.178863,"lng":128.478155,"roadAddr":"강원특별자치도 영월군 영월읍 중리1길 10","jibunAddr":"강원특별자치도 영월군 영월읍 덕포리 579-7","openHours":"정시","maleToilets":8,"femaleToilets":4,"disabled":true,"diaperTable":true,"emergencyBell":false,"cctv":true,"managerTel":"0333702965","source":"public","category":"public"},{"id":"202442710000100413","name":"영월군장애인문화복지센터","lat":37.185846,"lng":128.461308,"roadAddr":"강원특별자치도 영월군 영월읍 하송로 46-41","jibunAddr":"강원특별자치도 영월군 영월읍 하송리 236-1","openHours":"정시","maleToilets":0,"femaleToilets":0,"disabled":true,"diaperTable":false,"emergencyBell":false,"cctv":false,"managerTel":"0333702626","source":"public","category":"public"},{"id":"202442710000100299","name":"SK영월주유소","lat":37.185401,"lng":128.485949,"roadAddr":"강원특별자치도 영월군 영월읍 영월로 2153","jibunAddr":"강원특별자치도 영월군 영월읍 덕포리 466 번지2 호","openHours":"상시","maleToilets":3,"femaleToilets":1,"disabled":false,"diaperTable":false,"emergencyBell":false,"cctv":false,"managerTel":"0333740738","source":"public","category":"public"},{"id":"202442710000100333","name":"별마로천문대 야외화장실","lat":37.199435,"lng":128.485729,"roadAddr":"강원특별자치도 영월군 천문대길 397","jibunAddr":"강원특별자치도 영월군 영월읍 영흥리 154-7","openHours":"정시","maleToilets":2,"femaleToilets":2,"disabled":false,"diaperTable":false,"emergencyBell":false,"cctv":false,"managerTel":"0333728445","source":"public","category":"public"},{"id":"202442710000100075","name":"영월세무서","lat":37.182286,"lng":128.465552,"roadAddr":"강원특별자치도 영월군 영월읍 하송안길 49","jibunAddr":"강원특별자치도 영월군 영월읍 하송리 185-1","openHours":"정시","maleToilets":10,"femaleToilets":6,"disabled":true,"diaperTable":false,"emergencyBell":false,"cctv":false,"managerTel":"0333700244","source":"public","category":"public"},{"id":"202442710000100357","name":"노루공원화장실","lat":37.193789,"lng":128.456462,"roadAddr":"강원특별자치도 영월군 영월읍 단종로 161-13","jibunAddr":"강원특별자치도 영월군 영월읍 영흥리 1079","openHours":"상시","maleToilets":2,"femaleToilets":2,"disabled":false,"diaperTable":false,"emergencyBell":true,"cctv":false,"managerTel":"0333702836","source":"public","category":"public"},{"id":"202442710000100076","name":"영월우체국","lat":37.185582,"lng":128.466709,"roadAddr":"강원특별자치도 영월군 영월읍 단종로33번길 20","jibunAddr":"강원특별자치도 영월읍 영흥리950-3","openHours":"정시","maleToilets":23,"femaleToilets":9,"disabled":true,"diaperTable":false,"emergencyBell":false,"cctv":false,"managerTel":"0333712134","source":"public","category":"public"},{"id":"202442710000100428","name":"한국통신공사 영월빌딩 화장실","lat":37.184523,"lng":128.466703,"roadAddr":"강원특별자치도 영월군 영월읍 단종로33번길 30","jibunAddr":"강원특별자치도 영월군 영월읍 영흥리 950-5","openHours":"정시","maleToilets":21,"femaleToilets":8,"disabled":false,"diaperTable":false,"emergencyBell":false,"cctv":false,"managerTel":"0333746800","source":"public","category":"public"},{"id":"202442710000100422","name":"덕포5일장 화장실(2주차장)","lat":37.182234,"lng":128.478015,"jibunAddr":"강원특별자치도 영월군 영월읍 덕포리 486-130","openHours":"불규칙","maleToilets":3,"femaleToilets":2,"disabled":false,"diaperTable":false,"emergencyBell":true,"cctv":false,"managerTel":"0333702751","source":"public","category":"public"},{"id":"202442710000100352","name":"영월역화장실","lat":37.183686,"lng":128.483007,"roadAddr":"강원특별자치도 영월군 영월읍 영월로 2106(덕포리, 영월역)","openHours":"상시","maleToilets":8,"femaleToilets":8,"disabled":true,"diaperTable":false,"emergencyBell":true,"cctv":false,"managerTel":"0436412757","source":"public","category":"public"},{"id":"202442710000100353","name":"영월시외버스터미널 화장실","lat":37.182982,"lng":128.465273,"roadAddr":"강원특별자치도 영월군 영월읍 중앙1로 23(하송리, 영월시외버스터미널)","jibunAddr":"강원특별자치도 영월군 영월읍 하송리 187-1","openHours":"상시","maleToilets":7,"femaleToilets":4,"disabled":true,"diaperTable":false,"emergencyBell":true,"cctv":false,"managerTel":"0333742451","source":"public","category":"public"},{"id":"202442710000100029","name":"동강사진박물관 본관","lat":37.181917,"lng":128.461594,"roadAddr":"강원특별자치도 영월군 영월읍 영월로 1909-10, 동강사진박물관","jibunAddr":"강원특별자치도 영월군 영월읍 하송리 217-2 동강사진박물관","openHours":"정시","maleToilets":8,"femaleToilets":3,"disabled":true,"diaperTable":false,"emergencyBell":false,"cctv":false,"managerTel":"0333754554","source":"public","category":"public"},{"id":"202442710000100411","name":"영월군청 본관 화장실","lat":37.184355,"lng":128.461933,"roadAddr":"강원특별자치도 영월군 영월읍 하송로 64","jibunAddr":"강원특별자치도 영월군 영월읍 하송리 242","openHours":"정시","maleToilets":35,"femaleToilets":22,"disabled":true,"diaperTable":true,"emergencyBell":false,"cctv":false,"managerTel":"0333702273","source":"public","category":"public"},{"id":"202442710000100334","name":"영월군시설관리공단 화장실","lat":37.184103,"lng":128.466605,"roadAddr":"강원특별자치도 영월군 단종로9번길 27","jibunAddr":"강원특별자치도 영월군 영월읍 영흥리 947-18","openHours":"정시","maleToilets":0,"femaleToilets":0,"disabled":true,"diaperTable":false,"emergencyBell":false,"cctv":false,"managerTel":"0333756556","source":"public","category":"public"}]