[{"id":"202252400000100773","name":"재산공중화장실(정류소)","lat":36.817623,"lng":128.963313,"jibunAddr":"경상북도 봉화군 재산면 현동리 667-14","openHours":"24","maleToilets":4,"femaleToilets":3,"disabled":false,"diaperTable":false,"emergencyBell":false,"cctv":false,"managerTel":"0546795723","source":"public","category":"public"},{"id":"202252400000100772","name":"재산면사무소","lat":36.816083,"lng":128.962084,"roadAddr":"경상북도 봉화군 재산면 대내골길 4","openHours":"24","maleToilets":4,"femaleToilets":2,"disabled":true,"diaperTable":false,"emergencyBell":false,"cctv":false,"managerTel":"0546795713","source":"public","category":"public"},{"id":"202252400000100762","name":"이름실삼거리","lat":36.782471,"lng":128.955444,"jibunAddr":"경상북도 봉화군 재산면 남면리 802-1","openHours":"24","maleToilets":2,"femaleToilets":1,"disabled":false,"diaperTable":false,"emergencyBell":false,"cctv":false,"managerTel":"0546795723","source":"public","category":"public"},{"id":"202252400000100683","name":"재산면 보건지소","lat":36.81511,"lng":128.961064,"roadAddr":"경상북도 봉화군 재산면 재산로 487-9","openHours":"8","maleToilets":2,"femaleToilets":1,"disabled":true,"diaperTable":false,"emergencyBell":false,"cctv":false,"managerTel":"0546796717","source":"public","category":"public"},{"id":"202252400000100769","name":"재산초등학교","lat":36.817164,"lng":128.963064,"roadAddr":"경상북도 봉화군 재산면 재산로 514","openHours":"9","maleToilets":7,"femaleToilets":3,"disabled":true,"diaperTable":false,"emergencyBell":false,"cctv":false,"managerTel":"0546728027","source":"public","category":"public"},{"id":"202252400000100761","name":"재산초등학교 옆","lat":36.816846,"lng":128.964761,"jibunAddr":"경상북도 봉화군 재산면 현동리 668-10","openHours":"24","maleToilets":1,"femaleToilets":1,"disabled":false,"diaperTable":false,"emergencyBell":false,"cctv":false,"managerTel":"0546795723","source":"public","category":"public"},{"id":"202252400000100768","name":"현동2리 체육공원","lat":36.811476,"lng":128.961906,"jibunAddr":"경상북도 봉화군 재산면 현동리 835-9","openHours":"24","maleToilets":0,"femaleToilets":0,"disabled":false,"diaperTable":false,"emergencyBell":false,"cctv":false,"managerTel":"0546795723","source":"public","category":"public"},{"id":"202252400000100770","name":"재산우체국","lat":36.817525,"lng":128.962823,"roadAddr":"경상북도 봉화군 재산면 재산로 521","openHours":"9","maleToilets":2,"femaleToilets":1,"disabled":false,"diaperTable":false,"emergencyBell":false,"cctv":false,"managerTel":"0546728001","source":"public","category":"public"},{"id":"202252400000100771","name":"재산치안센터","lat":36.815018,"lng":128.961514,"roadAddr":"경상북도 봉화군 재산면 재산로 489","openHours":"24","maleToilets":0,"femaleToilets":0,"disabled":false,"diaperTable":false,"emergencyBell":false,"cctv":false,"managerTel":"0546728112","source":"public","category":"public"}]