[{"id":"202252400000100706","name":"워낭소리 간이화장실","lat":36.871666,"lng":128.767255,"jibunAddr":"경상북도 봉화군 상운면 하눌리 722-3","openHours":"24","maleToilets":2,"femaleToilets":1,"disabled":false,"diaperTable":false,"emergencyBell":false,"cctv":false,"managerTel":"0546795922","source":"public","category":"public"},{"id":"202252400000100703","name":"하눌저수지-3","lat":36.884098,"lng":128.7873,"jibunAddr":"경상북도 봉화군 상운면 하눌리 42-1","openHours":"24","maleToilets":1,"femaleToilets":0,"disabled":false,"diaperTable":false,"emergencyBell":false,"cctv":false,"managerTel":"0546795922","source":"public","category":"public"},{"id":"202252400000100642","name":"봉화농업기술센터","lat":36.90356,"lng":128.771535,"roadAddr":"경상북도 봉화군 봉성면 농업인길 24","jibunAddr":"경상북도 봉화군 봉성면 금봉리 904","openHours":"8","maleToilets":14,"femaleToilets":7,"disabled":true,"diaperTable":false,"emergencyBell":false,"cctv":false,"managerTel":"0546796814","source":"public","category":"public"},{"id":"202252400000100671","name":"목재문화체험장","lat":36.904136,"lng":128.799546,"roadAddr":"경상북도 봉화군 봉성면 구절로 151","openHours":"9","maleToilets":3,"femaleToilets":4,"disabled":true,"diaperTable":false,"emergencyBell":false,"cctv":false,"managerTel":"0546796973","source":"public","category":"public"},{"id":"202252400000100704","name":"하눌저수지-2","lat":36.884133,"lng":128.788347,"jibunAddr":"경상북도 봉화군 상운면 하눌리 34-7","openHours":"24","maleToilets":1,"femaleToilets":0,"disabled":false,"diaperTable":false,"emergencyBell":false,"cctv":false,"managerTel":"0546795922","source":"public","category":"public"},{"id":"202252400000100705","name":"하눌저수지-1","lat":36.883501,"lng":128.788781,"jibunAddr":"경상북도 봉화군 상운면 하눌리 48","openHours":"24","maleToilets":1,"femaleToilets":0,"disabled":false,"diaperTable":false,"emergencyBell":false,"cctv":false,"managerTel":"0546795922","source":"public","category":"public"},{"id":"202252400000100702","name":"하눌저수지-4","lat":36.881474,"lng":128.784442,"jibunAddr":"경상북도 봉화군 상운면 하눌리 산88-12","openHours":"24","maleToilets":1,"femaleToilets":0,"disabled":false,"diaperTable":false,"emergencyBell":false,"cctv":false,"managerTel":"0546795922","source":"public","category":"public"}]