[{"id":"202252400000100643","name":"춘양시장","lat":36.936597,"lng":128.914312,"jibunAddr":"경상북도 봉화군 춘양면 의양리 402","openHours":"24","maleToilets":4,"femaleToilets":4,"disabled":true,"diaperTable":true,"emergencyBell":true,"cctv":true,"managerTel":"0546743080","source":"public","category":"public"},{"id":"202252400000100903","name":"춘양면사무소","lat":36.934888,"lng":128.914496,"roadAddr":"경상북도 봉화군 춘양면 의양로5길 19","jibunAddr":"경상북도 봉화군 춘양면 의양리 409-10","openHours":"10","maleToilets":5,"femaleToilets":3,"disabled":true,"diaperTable":false,"emergencyBell":false,"cctv":false,"managerTel":"0546795423","source":"public","category":"public"},{"id":"202252400000100895","name":"나북대기공동묘지","lat":36.954032,"lng":128.917475,"jibunAddr":"경상북도 봉화군 춘양면 서동리 2-2","openHours":"24","maleToilets":1,"femaleToilets":1,"disabled":false,"diaperTable":false,"emergencyBell":false,"cctv":false,"managerTel":"0546795423","source":"public","category":"public"},{"id":"202252400000100893","name":"춘양중학교","lat":36.947863,"lng":128.914111,"roadAddr":"경상북도 봉화군 춘양면 서원촌길 8-14","jibunAddr":"경상북도 봉화군 춘양면 서동리 83-1","openHours":"10","maleToilets":8,"femaleToilets":10,"disabled":false,"diaperTable":false,"emergencyBell":false,"cctv":true,"managerTel":"0546733228","source":"public","category":"public"},{"id":"202252400000100894","name":"한국산림과학고등학교","lat":36.947863,"lng":128.914111,"roadAddr":"경상북도 봉화군 춘양면 서원촌길 8-14","jibunAddr":"경상북도 봉화군 춘양면 서동리 83-1","openHours":"10","maleToilets":15,"femaleToilets":15,"disabled":false,"diaperTable":false,"emergencyBell":false,"cctv":true,"managerTel":"0546733068","source":"public","category":"public"},{"id":"202252400000100899","name":"테니스장","lat":36.933733,"lng":128.920732,"jibunAddr":"경상북도 봉화군 춘양면 의양리 산 2-6","openHours":"24","maleToilets":2,"femaleToilets":1,"disabled":false,"diaperTable":false,"emergencyBell":false,"cctv":false,"managerTel":"0546795423","source":"public","category":"public"},{"id":"202252400000100901","name":"춘양파출소","lat":36.936968,"lng":128.912978,"roadAddr":"경상북도 봉화군 춘양면 의양로 54","jibunAddr":"경상북도 봉화군 춘양면 의양리 351-2","openHours":"24","maleToilets":2,"femaleToilets":1,"disabled":true,"diaperTable":false,"emergencyBell":false,"cctv":false,"managerTel":"0546723112","source":"public","category":"public"},{"id":"202252400000100897","name":"춘양우체국","lat":36.93667,"lng":128.916206,"roadAddr":"경상북도 봉화군 춘양면 춘양로 175","jibunAddr":"경상북도 봉화군 춘양면 의양리 378-10","openHours":"10","maleToilets":2,"femaleToilets":2,"disabled":false,"diaperTable":false,"emergencyBell":false,"cctv":false,"managerTel":"0546723300","source":"public","category":"public"},{"id":"202252400000100850","name":"면사무소 주차장 앞","lat":36.934888,"lng":128.914496,"roadAddr":"경상북도 봉화군 춘양면 의양로5길 19","jibunAddr":"경상북도 봉화군 춘양면 의양리 409-10","openHours":"24","maleToilets":2,"femaleToilets":2,"disabled":true,"diaperTable":false,"emergencyBell":false,"cctv":false,"managerTel":"0546795414","source":"public","category":"public"},{"id":"202252400000100906","name":"소로2리마을회관 앞","lat":36.938026,"lng":128.934645,"jibunAddr":"경상북도 봉화군 춘양면 소로리 355-6","openHours":"24","maleToilets":5,"femaleToilets":5,"disabled":false,"diaperTable":false,"emergencyBell":true,"cctv":false,"managerTel":"0546795414","source":"public","category":"public"},{"id":"202252400000100896","name":"춘양역","lat":36.938084,"lng":128.919848,"roadAddr":"경상북도 봉화군 춘양면 운곡길 22-2","jibunAddr":"경상북도 봉화군 춘양면 의양리 152","openHours":"24","maleToilets":4,"femaleToilets":2,"disabled":true,"diaperTable":true,"emergencyBell":false,"cctv":false,"source":"public","category":"public"},{"id":"202252400000100905","name":"춘양공용버스터미널","lat":36.935081,"lng":128.913459,"roadAddr":"경상북도 봉화군 춘양면 의양로5길 3","jibunAddr":"경상북도 봉화군 춘양면 의양리 430-1","openHours":"12","maleToilets":4,"femaleToilets":3,"disabled":true,"diaperTable":false,"emergencyBell":false,"cctv":false,"managerTel":"0546795423","source":"public","category":"public"},{"id":"202252400000100902","name":"춘양보건지소","lat":36.935661,"lng":128.915572,"roadAddr":"경상북도 봉화군 춘양면 의양로 153","jibunAddr":"경상북도 봉화군 춘양면 의양리 387-4","openHours":"10","maleToilets":3,"femaleToilets":1,"disabled":false,"diaperTable":false,"emergencyBell":false,"cctv":false,"managerTel":"0546795471","source":"public","category":"public"},{"id":"202252400000100907","name":"춘양119안전센터","lat":36.921778,"lng":128.920949,"roadAddr":"경상북도 봉화군 춘양면 소천로 22","jibunAddr":"경상북도 봉화군 춘양면 소로리 635-4","openHours":"24","maleToilets":4,"femaleToilets":2,"disabled":false,"diaperTable":false,"emergencyBell":false,"cctv":true,"managerTel":"0546723119","source":"public","category":"public"},{"id":"202252400000100898","name":"춘양체육공원 앞","lat":36.937775,"lng":128.917704,"jibunAddr":"경상북도 봉화군 춘양면 의양리 585-1","openHours":"24","maleToilets":5,"femaleToilets":2,"disabled":false,"diaperTable":false,"emergencyBell":true,"cctv":false,"managerTel":"0546795423","source":"public","category":"public"},{"id":"202252400000100904","name":"춘양양묘사업소","lat":36.935105,"lng":128.915486,"roadAddr":"경상북도 봉화군 춘양면 의양로5길 23","jibunAddr":"경상북도 봉화군 춘양면 의양리 409-25","openHours":"10","maleToilets":3,"femaleToilets":2,"disabled":false,"diaperTable":false,"emergencyBell":false,"cctv":false,"managerTel":"0546723134","source":"public","category":"public"}]