[{"id":"202252400000100820","name":"감전(메밀축제장)","lat":36.918884,"lng":129.016486,"jibunAddr":"경상북도 봉화군 소천면 임기리 250-2","openHours":"24","maleToilets":2,"femaleToilets":2,"disabled":false,"diaperTable":false,"emergencyBell":false,"cctv":false,"managerTel":"0546795521","source":"public","category":"public"},{"id":"202252400000100846","name":"체육공원내","lat":36.944605,"lng":129.005436,"jibunAddr":"경상북도 봉화군 소천면 현동리 424-10","openHours":"24","maleToilets":1,"femaleToilets":1,"disabled":false,"diaperTable":false,"emergencyBell":false,"cctv":false,"managerTel":"0546795521","source":"public","category":"public"},{"id":"202252400000100836","name":"한뱀이","lat":36.931398,"lng":129.006312,"jibunAddr":"경상북도 봉화군 소천면 현동리 492-1","openHours":"24","maleToilets":2,"femaleToilets":0,"disabled":false,"diaperTable":false,"emergencyBell":false,"cctv":false,"managerTel":"0546795521","source":"public","category":"public"},{"id":"202252400000100843","name":"(구)임란전적비내","lat":36.938892,"lng":128.994184,"jibunAddr":"경상북도 봉화군 소천면 현동리 산129-1","openHours":"24","maleToilets":1,"femaleToilets":1,"disabled":false,"diaperTable":false,"emergencyBell":false,"cctv":false,"managerTel":"0546795521","source":"public","category":"public"},{"id":"202252400000100840","name":"불둔지이수용댁앞","lat":36.932418,"lng":129.012783,"jibunAddr":"경상북도 봉화군 소천면 현동리 473","openHours":"24","maleToilets":1,"femaleToilets":0,"disabled":false,"diaperTable":false,"emergencyBell":false,"cctv":false,"managerTel":"0546795521","source":"public","category":"public"},{"id":"202252400000100822","name":"잔데미(고선입구소공원내)","lat":36.956163,"lng":128.993654,"jibunAddr":"경상북도 봉화군 소천면 고선리 228-3","openHours":"24","maleToilets":2,"femaleToilets":0,"disabled":false,"diaperTable":false,"emergencyBell":false,"cctv":false,"managerTel":"0546795521","source":"public","category":"public"},{"id":"202252400000100808","name":"소천면사무소","lat":36.937912,"lng":129.003077,"roadAddr":"경상북도 봉화군 소천면 소천로 1294","jibunAddr":"경상북도 봉화군 소천면 현동리 653-1","openHours":"9","maleToilets":3,"femaleToilets":2,"disabled":true,"diaperTable":false,"emergencyBell":false,"cctv":false,"managerTel":"0546795513","source":"public","category":"public"},{"id":"202252400000100844","name":"임란전적비 내","lat":36.937253,"lng":128.998834,"roadAddr":"경상북도 봉화군 소천면 현동길 39-27","jibunAddr":"경상북도 봉화군 소천면 현동리 848","openHours":"24","maleToilets":5,"femaleToilets":3,"disabled":true,"diaperTable":false,"emergencyBell":false,"cctv":false,"managerTel":"0546796072","source":"public","category":"public"},{"id":"202252400000100803","name":"무진랜드","lat":36.952056,"lng":128.996743,"roadAddr":"경상북도 봉화군 소천면 청옥로 220","jibunAddr":"경상북도 봉화군 소천면 고선리 189-6","openHours":"24","maleToilets":24,"femaleToilets":19,"disabled":true,"diaperTable":false,"emergencyBell":false,"cctv":false,"managerTel":"0546739988","source":"public","category":"public"},{"id":"202252400000100837","name":"현동4리 폐비닐집하장내","lat":36.928419,"lng":129.00792,"jibunAddr":"경상북도 봉화군 소천면 현동리 512-7","openHours":"24","maleToilets":2,"femaleToilets":0,"disabled":false,"diaperTable":false,"emergencyBell":false,"cctv":false,"managerTel":"0546795521","source":"public","category":"public"},{"id":"202252400000100804","name":"현동정류소","lat":36.939439,"lng":129.001779,"roadAddr":"경상북도 봉화군 소천면 소천로 1267","jibunAddr":"경상북도 봉화군 소천면 현동리 680-1","openHours":"9","maleToilets":2,"femaleToilets":1,"disabled":false,"diaperTable":false,"emergencyBell":false,"cctv":false,"managerTel":"0546727622","source":"public","category":"public"},{"id":"202252400000100847","name":"야생화단지내","lat":36.944605,"lng":129.005436,"jibunAddr":"경상북도 봉화군 소천면 현동리 424-10","openHours":"24","maleToilets":1,"femaleToilets":1,"disabled":false,"diaperTable":false,"emergencyBell":false,"cctv":false,"managerTel":"0546795521","source":"public","category":"public"},{"id":"202252400000100845","name":"삼거리 당숲내","lat":36.940842,"lng":129.000624,"jibunAddr":"경상북도 봉화군 소천면 현동리 695-5","openHours":"24","maleToilets":2,"femaleToilets":1,"disabled":false,"diaperTable":false,"emergencyBell":false,"cctv":false,"managerTel":"0546795521","source":"public","category":"public"},{"id":"202252400000100686","name":"소천면 보건지소","lat":36.938576,"lng":129.002172,"roadAddr":"경상북도 봉화군 소천면 소천로 1278","openHours":"8","maleToilets":3,"femaleToilets":1,"disabled":true,"diaperTable":false,"emergencyBell":false,"cctv":false,"managerTel":"0546796717","source":"public","category":"public"},{"id":"202252400000100838","name":"합소","lat":36.931972,"lng":129.010822,"jibunAddr":"경상북도 봉화군 소천면 현동리 산70-7","openHours":"24","maleToilets":1,"femaleToilets":0,"disabled":false,"diaperTable":false,"emergencyBell":false,"cctv":false,"managerTel":"0546795521","source":"public","category":"public"},{"id":"202252400000100823","name":"백담(고선입구당숲)","lat":36.956126,"lng":128.991597,"jibunAddr":"경상북도 봉화군 소천면 고선리 222-1","openHours":"24","maleToilets":2,"femaleToilets":2,"disabled":false,"diaperTable":false,"emergencyBell":false,"cctv":false,"managerTel":"0546796351","source":"public","category":"public"},{"id":"202252400000100821","name":"귀목이(고선주유소)","lat":36.955941,"lng":129.00001,"jibunAddr":"경상북도 봉화군 소천면 고선리 산26-2","openHours":"24","maleToilets":2,"femaleToilets":0,"disabled":false,"diaperTable":false,"emergencyBell":false,"cctv":false,"managerTel":"0546795521","source":"public","category":"public"},{"id":"202252400000100835","name":"천지터","lat":36.93344,"lng":129.008168,"jibunAddr":"경상북도 봉화군 소천면 현동리 산69-1","openHours":"24","maleToilets":2,"femaleToilets":1,"disabled":false,"diaperTable":false,"emergencyBell":false,"cctv":false,"managerTel":"0546795521","source":"public","category":"public"},{"id":"202252400000100807","name":"소천보건지소","lat":36.938495,"lng":129.002932,"roadAddr":"경상북도 봉하군 소천면 소천로 1287","jibunAddr":"경상북도 봉화군 소천면 현동리 652-1","openHours":"9","maleToilets":2,"femaleToilets":1,"disabled":true,"diaperTable":false,"emergencyBell":false,"cctv":false,"managerTel":"0546795572","source":"public","category":"public"}]