[{"id":"202252400000100888","name":"도심3리입구버스승강장앞","lat":36.99776,"lng":128.851234,"jibunAddr":"경상북도 봉화군 춘양면 서벽리 19-5","openHours":"24","maleToilets":2,"femaleToilets":1,"disabled":false,"diaperTable":false,"emergencyBell":false,"cctv":false,"managerTel":"0546795423","source":"public","category":"public"},{"id":"202252400000100881","name":"수림식당 앞 소공원","lat":36.987695,"lng":128.86705,"jibunAddr":"경상북도 봉화군 춘양면 애당리 232-3","openHours":"24","maleToilets":1,"femaleToilets":2,"disabled":false,"diaperTable":false,"emergencyBell":false,"cctv":false,"managerTel":"0546795423","source":"public","category":"public"},{"id":"202252400000100886","name":"참세골입구 전계실집앞","lat":36.996978,"lng":128.875287,"jibunAddr":"경상북도 봉화군 춘양면 애당리 424","openHours":"24","maleToilets":1,"femaleToilets":1,"disabled":false,"diaperTable":false,"emergencyBell":false,"cctv":false,"managerTel":"0546795423","source":"public","category":"public"},{"id":"202252400000100889","name":"도심1리소공원(구억마입구)","lat":36.987127,"lng":128.865851,"jibunAddr":"경상북도 봉화군 춘양면 애당리 857","openHours":"24","maleToilets":2,"femaleToilets":1,"disabled":false,"diaperTable":false,"emergencyBell":false,"cctv":false,"managerTel":"0546795423","source":"public","category":"public"},{"id":"202252400000100848","name":"도심3리 소공원","lat":36.997592,"lng":128.850635,"jibunAddr":"경상북도 봉화군 춘양면 도심리 1358","openHours":"24","maleToilets":2,"femaleToilets":1,"disabled":false,"diaperTable":false,"emergencyBell":false,"cctv":false,"managerTel":"0546795423","source":"public","category":"public"}]