[{"id":"202252400000100775","name":"태백산국립공원 등산로 백천탐방지원센터사무소 앞","lat":37.068377,"lng":128.981955,"jibunAddr":"경상북도 봉화군 대현리 480","openHours":"24","maleToilets":2,"femaleToilets":2,"disabled":false,"diaperTable":false,"emergencyBell":false,"cctv":false,"source":"public","category":"public"},{"id":"202252400000100785","name":"백천계곡(솔밭)","lat":37.063361,"lng":128.99398,"jibunAddr":"경상북도 봉화군 석포면 대현리 산129","openHours":"24","maleToilets":1,"femaleToilets":1,"disabled":false,"diaperTable":false,"emergencyBell":false,"cctv":false,"managerTel":"0546795623","source":"public","category":"public"},{"id":"202252400000100800","name":"백천계곡","lat":37.066864,"lng":128.984001,"jibunAddr":"경상북도 봉화군 석포면 대현리 255-4","openHours":"24","maleToilets":5,"femaleToilets":5,"disabled":true,"diaperTable":false,"emergencyBell":false,"cctv":false,"managerTel":"0546795623","source":"public","category":"public"},{"id":"202252400000100789","name":"모리가든식당앞, 현불사들어가는 입구","lat":37.058247,"lng":129.004664,"jibunAddr":"경상북도 봉화군 석포면 대현리 117-1","openHours":"24","maleToilets":1,"femaleToilets":2,"disabled":false,"diaperTable":false,"emergencyBell":false,"cctv":false,"managerTel":"0546795623","source":"public","category":"public"},{"id":"202252400000100786","name":"백천계곡 간이화장실화장실","lat":37.066864,"lng":128.984001,"jibunAddr":"경상북도 봉화군 석포면 대현리 255-4","openHours":"24","maleToilets":1,"femaleToilets":2,"disabled":false,"diaperTable":false,"emergencyBell":false,"cctv":false,"managerTel":"0546795623","source":"public","category":"public"},{"id":"202252400000100776","name":"정법사 앞 간이화장실화장실","lat":37.051369,"lng":129.00346,"roadAddr":"경상북도 봉화군 석포면 청옥로","openHours":"24","maleToilets":1,"femaleToilets":0,"disabled":false,"diaperTable":false,"emergencyBell":false,"cctv":false,"managerTel":"0546795623","source":"public","category":"public"}]