[{"id":"202252400000100863","name":"본마 공동취사시설 앞","lat":37.014552,"lng":128.824347,"jibunAddr":"경상북도 봉화군 춘양면 서벽리 680","openHours":"24","maleToilets":2,"femaleToilets":2,"disabled":false,"diaperTable":false,"emergencyBell":false,"cctv":false,"managerTel":"0546795423","source":"public","category":"public"},{"id":"202252400000100868","name":"국립백두대간수목원 게스트하우스","lat":37.010148,"lng":128.82736,"jibunAddr":"경상북도 봉화군 춘양면 서벽리 485-1","openHours":"10","maleToilets":2,"femaleToilets":2,"disabled":false,"diaperTable":false,"emergencyBell":false,"cctv":true,"managerTel":"0546796653","source":"public","category":"public"},{"id":"202252400000100689","name":"서벽보건진료소","lat":37.01386,"lng":128.824515,"roadAddr":"경상북도 봉화군 춘양면 춘양로 1536","openHours":"8","maleToilets":2,"femaleToilets":0,"disabled":true,"diaperTable":false,"emergencyBell":false,"cctv":false,"managerTel":"0546796717","source":"public","category":"public"},{"id":"202252400000100870","name":"국립백두대간수목원 방문자센터","lat":37.008512,"lng":128.830114,"jibunAddr":"경상북도 봉화군 춘양면 서벽리 485","openHours":"10","maleToilets":16,"femaleToilets":14,"disabled":true,"diaperTable":true,"emergencyBell":false,"cctv":true,"managerTel":"0546796653","source":"public","category":"public"},{"id":"202252400000100862","name":"서벽중학교","lat":37.011797,"lng":128.827386,"roadAddr":"경상북도 봉화군 춘양면 춘양로 1490","jibunAddr":"경상북도 봉화군 춘양면 서벽리 473-1","openHours":"10","maleToilets":3,"femaleToilets":3,"disabled":false,"diaperTable":false,"emergencyBell":false,"cctv":false,"source":"public","category":"public"},{"id":"202252400000100869","name":"국립백두대간수목원 고산습원 존치가옥","lat":37.004767,"lng":128.817105,"jibunAddr":"경상북도 봉화군 춘양면 서벽리 1215-4","openHours":"10","maleToilets":2,"femaleToilets":1,"disabled":false,"diaperTable":true,"emergencyBell":false,"cctv":true,"managerTel":"0546796653","source":"public","category":"public"},{"id":"202252400000100874","name":"국립백두대간수목원 야외화장실D","lat":37.007256,"lng":128.81543,"jibunAddr":"경상북도 봉화군 춘양면 서벽리 1199","openHours":"10","maleToilets":6,"femaleToilets":8,"disabled":true,"diaperTable":true,"emergencyBell":true,"cctv":true,"managerTel":"0546796653","source":"public","category":"public"},{"id":"202252400000100867","name":"국립백두대간수목원 휴게동","lat":37.006417,"lng":128.806077,"jibunAddr":"경상북도 봉화군 춘양면 서벽리 1389","openHours":"10","maleToilets":8,"femaleToilets":8,"disabled":true,"diaperTable":true,"emergencyBell":false,"cctv":true,"managerTel":"0546796653","source":"public","category":"public"},{"id":"202252400000100866","name":"국립백두대간수목원  호랑이야외화장실","lat":37.002775,"lng":128.812106,"jibunAddr":"경상북도 봉화군 춘양면 서벽리 1228","openHours":"10","maleToilets":3,"femaleToilets":3,"disabled":true,"diaperTable":true,"emergencyBell":false,"cctv":true,"managerTel":"0546796653","source":"public","category":"public"},{"id":"202252400000100872","name":"국립백두대간수목원 야외화장실B","lat":37.006643,"lng":128.81298,"jibunAddr":"경상북도 봉화군 춘양면 서벽리 1261","openHours":"10","maleToilets":6,"femaleToilets":8,"disabled":true,"diaperTable":true,"emergencyBell":true,"cctv":true,"managerTel":"0546796653","source":"public","category":"public"},{"id":"202252400000100873","name":"국립백두대간수목원 야외화장실C","lat":37.005959,"lng":128.808327,"jibunAddr":"경상북도 봉화군 춘양면 서벽리 1381","openHours":"10","maleToilets":7,"femaleToilets":8,"disabled":true,"diaperTable":true,"emergencyBell":true,"cctv":true,"managerTel":"0546796653","source":"public","category":"public"},{"id":"202252400000100876","name":"서벽치안센터","lat":37.00813,"lng":128.832896,"roadAddr":"경상북도 봉화군 춘양면 춘양로 1434","jibunAddr":"경상북도 봉화군 춘양면 서벽리 353-5","openHours":"24","maleToilets":2,"femaleToilets":1,"disabled":false,"diaperTable":false,"emergencyBell":false,"cctv":false,"managerTel":"0546723112","source":"public","category":"public"},{"id":"202252400000100871","name":"국립백두대간수목원 야외화장실A","lat":37.005168,"lng":128.824382,"jibunAddr":"경상북도 봉화군 춘양면 서벽리 530","openHours":"10","maleToilets":7,"femaleToilets":8,"disabled":true,"diaperTable":true,"emergencyBell":true,"cctv":true,"managerTel":"0546796653","source":"public","category":"public"},{"id":"202252400000100864","name":"저온저장고 앞","lat":37.007803,"lng":128.810158,"jibunAddr":"경상북도 봉화군 춘양면 서벽리 1318-3","openHours":"24","maleToilets":2,"femaleToilets":1,"disabled":false,"diaperTable":false,"emergencyBell":false,"cctv":false,"managerTel":"0546795423","source":"public","category":"public"}]