[{"id":"202542710000100052","name":"밤산골 입구(상동읍-21)","lat":37.121444,"lng":128.73186,"jibunAddr":"강원특별자치도 영월군 상동읍 내덕리 산 100","openHours":"상시","maleToilets":2,"femaleToilets":1,"disabled":false,"diaperTable":false,"emergencyBell":false,"cctv":false,"source":"public","category":"public"},{"id":"202542710000100050","name":"산솔면-24(녹전2리공원)","lat":37.132619,"lng":128.727709,"jibunAddr":"강원특별자치도 영월군 산솔면 녹전리 산 8-1","openHours":"상시","maleToilets":2,"femaleToilets":1,"disabled":false,"diaperTable":false,"emergencyBell":false,"cctv":false,"source":"public","category":"public"},{"id":"202442710000100279","name":"상동읍 가삼공원(상동읍-19)","lat":37.120833,"lng":128.752049,"jibunAddr":"강원특별자치도 영월군 상동읍 내덕리 386-3","openHours":"상시","maleToilets":1,"femaleToilets":1,"disabled":false,"diaperTable":false,"emergencyBell":false,"cctv":false,"managerTel":"0333704766","source":"public","category":"public"},{"id":"202442710000100278","name":"상동읍 대리골 입구(상동읍-20)","lat":37.119781,"lng":128.753162,"jibunAddr":"강원특별자치도 영월군 상동읍 내덕리 338-5","openHours":"상시","maleToilets":1,"femaleToilets":1,"disabled":false,"diaperTable":false,"emergencyBell":false,"cctv":false,"managerTel":"0333704766","source":"public","category":"public"},{"id":"202442710000100274","name":"여름주유소","lat":37.120972,"lng":128.745182,"roadAddr":"강원특별자치도 영월군 상동읍 태백산로 2317-1","jibunAddr":"강원특별자치도 영월군 상동읍 내덕리 502 번지1 호","openHours":"07:00~20:00","maleToilets":1,"femaleToilets":1,"disabled":false,"diaperTable":false,"emergencyBell":false,"cctv":false,"source":"public","category":"public"}]