[{"id":"202442210000100948","name":"강원주유소","lat":37.095472,"lng":129.014926,"roadAddr":"강원특별자치도 태백시 메밀들1길 18 (장성동)","openHours":"00:00~24:00","maleToilets":2,"femaleToilets":0,"disabled":false,"diaperTable":false,"emergencyBell":false,"cctv":false,"source":"public","category":"public"},{"id":"202442210000100876","name":"장성여자고등학교(체육관)","lat":37.126297,"lng":129.005707,"roadAddr":"강원특별자치도 태백시 일광마을길 8-12 (문곡동)","openHours":"08:40~16:40","maleToilets":5,"femaleToilets":3,"disabled":true,"diaperTable":false,"emergencyBell":false,"cctv":false,"source":"public","category":"public"},{"id":"202442210000100755","name":"구문소동행정복지센터","lat":37.100093,"lng":129.022214,"roadAddr":"강원특별자치도 태백시 평화길 13(구문소동)","openHours":"06:00~22:00","maleToilets":5,"femaleToilets":3,"disabled":true,"diaperTable":false,"emergencyBell":false,"cctv":false,"source":"public","category":"public"},{"id":"202442210000100998","name":"근로복지공단 태백병원 1층 화장실","lat":37.104265,"lng":129.003456,"roadAddr":"강원특별자치도 보드미길 8(장성동)","openHours":"08:00~20:00","maleToilets":16,"femaleToilets":6,"disabled":true,"diaperTable":true,"emergencyBell":true,"cctv":true,"source":"public","category":"public"},{"id":"202442210000100770","name":"태백교육지원청(청사 1층)","lat":37.102791,"lng":129.020953,"roadAddr":"강원특별자치도 태백시 하장성1길 14 (장성동)","openHours":"09:00~18:00","maleToilets":0,"femaleToilets":0,"disabled":true,"diaperTable":false,"emergencyBell":true,"cctv":false,"source":"public","category":"public"},{"id":"202442210000100859","name":"태백중학교(목련관 3층)","lat":37.103862,"lng":129.022012,"roadAddr":"강원특별자치도 태백시 하장성1길 10 (장성동)","openHours":"08:30~16:30","maleToilets":5,"femaleToilets":4,"disabled":false,"diaperTable":false,"emergencyBell":false,"cctv":false,"source":"public","category":"public"},{"id":"202442210000100683","name":"장성자유시장 공중화장실","lat":37.100666,"lng":129.009686,"roadAddr":"강원특별자치도 태백시 장성1길 190 (장성동)","openHours":"00:00~24:00","maleToilets":7,"femaleToilets":6,"disabled":false,"diaperTable":false,"emergencyBell":true,"cctv":false,"source":"public","category":"public"},{"id":"202442210000100718","name":"상하수도사업소","lat":37.101957,"lng":129.007565,"roadAddr":"강원특별자치도 태백시 장성1길 34 (장성동)","openHours":"09:00~18:00","maleToilets":4,"femaleToilets":3,"disabled":false,"diaperTable":false,"emergencyBell":false,"cctv":false,"source":"public","category":"public"},{"id":"202442210000100854","name":"태백중학교(행정동 1층)","lat":37.103862,"lng":129.022012,"roadAddr":"강원특별자치도 태백시 하장성1길 10 (장성동)","openHours":"08:30~16:30","maleToilets":5,"femaleToilets":4,"disabled":true,"diaperTable":false,"emergencyBell":false,"cctv":false,"source":"public","category":"public"},{"id":"202442210000100878","name":"장성여자고등학교(기숙사 2층)","lat":37.126297,"lng":129.005707,"roadAddr":"강원특별자치도 태백시 일광마을길 8-12 (문곡동)","openHours":"08:40~16:40","maleToilets":0,"femaleToilets":1,"disabled":false,"diaperTable":false,"emergencyBell":false,"cctv":false,"source":"public","category":"public"},{"id":"202442210000100885","name":"태백기계공업고등학교(창의동 2층 남자)","lat":37.099021,"lng":129.021285,"roadAddr":"강원특별자치도 태백시 평화길 8-24 (장성동)","openHours":"08:45~16:40","maleToilets":6,"femaleToilets":0,"disabled":false,"diaperTable":false,"emergencyBell":false,"cctv":false,"source":"public","category":"public"},{"id":"202442210000100794","name":"장성초등학교(체육관)","lat":37.10268,"lng":129.005769,"roadAddr":"강원특별자치도 태백시 보드미길 26 (장성동)","openHours":"08:40~16:40","maleToilets":10,"femaleToilets":5,"disabled":false,"diaperTable":false,"emergencyBell":false,"cctv":false,"source":"public","category":"public"},{"id":"202442210000100887","name":"태백기계공업고등학교(지성동 1층)","lat":37.099021,"lng":129.021285,"roadAddr":"강원특별자치도 태백시 평화길 8-24 (장성동)","openHours":"08:45~16:40","maleToilets":19,"femaleToilets":4,"disabled":true,"diaperTable":false,"emergencyBell":false,"cctv":false,"source":"public","category":"public"},{"id":"202442210000100802","name":"태백초등학교(본관 1층)","lat":37.108578,"lng":129.005232,"roadAddr":"강원특별자치도 태백시 태백로 1811 (장성동)","openHours":"08:40~16:40","maleToilets":4,"femaleToilets":4,"disabled":false,"diaperTable":false,"emergencyBell":false,"cctv":false,"source":"public","category":"public"},{"id":"202442210000100872","name":"장성여자고등학교(본관 1층)","lat":37.126297,"lng":129.005707,"roadAddr":"강원특별자치도 태백시 일광마을길 8-12 (문곡동)","openHours":"08:40~16:40","maleToilets":5,"femaleToilets":2,"disabled":true,"diaperTable":false,"emergencyBell":false,"cctv":false,"source":"public","category":"public"},{"id":"202442210000100673","name":"장성119안전센터 1층","lat":37.103427,"lng":129.008028,"roadAddr":"강원특별자치도 태백시 석공길 16-9","openHours":"08:00~20:00","maleToilets":0,"femaleToilets":2,"disabled":false,"diaperTable":false,"emergencyBell":false,"cctv":false,"source":"public","category":"public"},{"id":"202442210000100857","name":"태백중학교(목련관 1층)","lat":37.103862,"lng":129.022012,"roadAddr":"강원특별자치도 태백시 하장성1길 10 (장성동)","openHours":"08:30~16:30","maleToilets":5,"femaleToilets":4,"disabled":true,"diaperTable":false,"emergencyBell":false,"cctv":false,"source":"public","category":"public"},{"id":"202442210000100750","name":"장성동행정복지센터(1층)","lat":37.100506,"lng":129.008202,"roadAddr":"강원특별자치도 태백시 장성1길 171 (장성동)","openHours":"09:00~18:00","maleToilets":1,"femaleToilets":2,"disabled":true,"diaperTable":false,"emergencyBell":false,"cctv":false,"source":"public","category":"public"},{"id":"202442210000100922","name":"장성119안전센터","lat":37.103427,"lng":129.008028,"roadAddr":"강원특별자치도 태백시 석공길 16-9 (장성동)","openHours":"08:00∼20:00","maleToilets":0,"femaleToilets":0,"disabled":false,"diaperTable":false,"emergencyBell":false,"cctv":false,"source":"public","category":"public"},{"id":"202442210000100792","name":"장성초등학교(별관 1층)","lat":37.10268,"lng":129.005769,"roadAddr":"강원특별자치도 태백시 보드미길 26 (장성동)","openHours":"08:40~16:40","maleToilets":4,"femaleToilets":4,"disabled":false,"diaperTable":false,"emergencyBell":false,"cctv":false,"source":"public","category":"public"},{"id":"202442210000100805","name":"태백초등학교(별관 1층)","lat":37.108578,"lng":129.005232,"roadAddr":"강원특별자치도 태백시 태백로 1811 (장성동)","openHours":"08:40~16:40","maleToilets":0,"femaleToilets":0,"disabled":true,"diaperTable":false,"emergencyBell":false,"cctv":false,"source":"public","category":"public"},{"id":"202442210000100873","name":"장성여자고등학교(본관 2층)","lat":37.126297,"lng":129.005707,"roadAddr":"강원특별자치도 태백시 일광마을길 8-12 (문곡동)","openHours":"08:40~16:40","maleToilets":0,"femaleToilets":13,"disabled":false,"diaperTable":false,"emergencyBell":false,"cctv":false,"source":"public","category":"public"},{"id":"202442210000100853","name":"태백중학교(교사동 3층)","lat":37.103862,"lng":129.022012,"roadAddr":"강원특별자치도 태백시 하장성1길 10 (장성동)","openHours":"08:30~16:30","maleToilets":5,"femaleToilets":4,"disabled":false,"diaperTable":false,"emergencyBell":false,"cctv":false,"source":"public","category":"public"},{"id":"202442210000100720","name":"통합문화플랫폼(2층)","lat":37.11083,"lng":129.003856,"roadAddr":"강원특별자치도 태백시 태백로 1782-2 (장성동)","openHours":"09:00~18:00","maleToilets":6,"femaleToilets":3,"disabled":true,"diaperTable":false,"emergencyBell":false,"cctv":true,"source":"public","category":"public"},{"id":"202442210000100877","name":"장성여자고등학교(기숙사 1층)","lat":37.126297,"lng":129.005707,"roadAddr":"강원특별자치도 태백시 일광마을길 8-12 (문곡동)","openHours":"08:40~16:40","maleToilets":0,"femaleToilets":1,"disabled":true,"diaperTable":false,"emergencyBell":false,"cctv":false,"source":"public","category":"public"},{"id":"202442210000100979","name":"장성체육관","lat":37.099275,"lng":129.021698,"roadAddr":"강원특별자치도 태백시 평화길 8-29","openHours":"09:00~18:00","maleToilets":6,"femaleToilets":3,"disabled":false,"diaperTable":false,"emergencyBell":false,"cctv":false,"source":"public","category":"public"},{"id":"202442210000100958","name":"태백장애인종합복지관","lat":37.092194,"lng":128.99425,"roadAddr":"강원특별자치도 태백시 금천길 179-9 (금천동)","openHours":"09:00~18:00","maleToilets":27,"femaleToilets":6,"disabled":true,"diaperTable":false,"emergencyBell":false,"cctv":false,"source":"public","category":"public"},{"id":"202442210000100793","name":"장성초등학교(별관 2층)","lat":37.10268,"lng":129.005769,"roadAddr":"강원특별자치도 태백시 보드미길 26 (장성동)","openHours":"08:40~16:40","maleToilets":4,"femaleToilets":0,"disabled":false,"diaperTable":false,"emergencyBell":false,"cctv":false,"source":"public","category":"public"},{"id":"202442210000100875","name":"장성여자고등학교(본관 4층)","lat":37.126297,"lng":129.005707,"roadAddr":"강원특별자치도 태백시 일광마을길 8-12 (문곡동)","openHours":"08:40~16:40","maleToilets":2,"femaleToilets":7,"disabled":false,"diaperTable":false,"emergencyBell":false,"cctv":false,"source":"public","category":"public"},{"id":"202442210000100892","name":"태백기계공업고등학교(공동실습소 2층)","lat":37.099021,"lng":129.021285,"roadAddr":"강원특별자치도 태백시 평화길 8-24 (장성동)","openHours":"08:45~16:40","maleToilets":5,"femaleToilets":2,"disabled":false,"diaperTable":false,"emergencyBell":false,"cctv":false,"source":"public","category":"public"},{"id":"202442210000100858","name":"태백중학교(목련관 2층)","lat":37.103862,"lng":129.022012,"roadAddr":"강원특별자치도 태백시 하장성1길 10 (장성동)","openHours":"08:30~16:30","maleToilets":5,"femaleToilets":4,"disabled":false,"diaperTable":false,"emergencyBell":false,"cctv":false,"source":"public","category":"public"},{"id":"202442210000100803","name":"태백초등학교(본관 2층)","lat":37.108578,"lng":129.005232,"roadAddr":"강원특별자치도 태백시 태백로 1811 (장성동)","openHours":"08:40~16:40","maleToilets":3,"femaleToilets":4,"disabled":true,"diaperTable":false,"emergencyBell":false,"cctv":false,"source":"public","category":"public"},{"id":"202442210000100714","name":"태백시립도서관(1층)","lat":37.099704,"lng":129.02198,"roadAddr":"강원특별자치도 태백시 평화길 12 (장성동)","openHours":"09:00~22:00","maleToilets":3,"femaleToilets":2,"disabled":true,"diaperTable":false,"emergencyBell":true,"cctv":false,"source":"public","category":"public"},{"id":"202442210000100966","name":"근로복지공단 태백병원 장례식장","lat":37.104265,"lng":129.003456,"roadAddr":"강원특별자치도 태백시 보드미길 8(장성동)","openHours":"00:00~24:00","maleToilets":10,"femaleToilets":4,"disabled":false,"diaperTable":false,"emergencyBell":false,"cctv":false,"source":"public","category":"public"},{"id":"202442210000100855","name":"태백중학교(행정동 2층)","lat":37.103862,"lng":129.022012,"roadAddr":"강원특별자치도 태백시 하장성1길 10 (장성동)","openHours":"08:30~16:30","maleToilets":5,"femaleToilets":4,"disabled":false,"diaperTable":false,"emergencyBell":false,"cctv":false,"source":"public","category":"public"},{"id":"202442210000100769","name":"장성우체국","lat":37.103252,"lng":129.006865,"roadAddr":"강원특별자치도 태백시 보드미길 21(장성동)","openHours":"09:00~18:00","maleToilets":6,"femaleToilets":1,"disabled":false,"diaperTable":false,"emergencyBell":false,"cctv":false,"source":"public","category":"public"},{"id":"202442210000100715","name":"태백시립도서관(2층)","lat":37.099704,"lng":129.02198,"roadAddr":"강원특별자치도 태백시 평화길 12 (장성동)","openHours":"09:00~22:00","maleToilets":5,"femaleToilets":2,"disabled":false,"diaperTable":false,"emergencyBell":false,"cctv":false,"source":"public","category":"public"},{"id":"202442210000100771","name":"태백교육지원청(청사 2층)","lat":37.102791,"lng":129.020953,"roadAddr":"강원특별자치도 태백시 하장성1길 14 (장성동)","openHours":"09:00~18:00","maleToilets":4,"femaleToilets":4,"disabled":false,"diaperTable":false,"emergencyBell":false,"cctv":false,"source":"public","category":"public"},{"id":"202442210000100996","name":"태백경찰서 민원인용","lat":37.102355,"lng":129.007788,"roadAddr":"강원특별자치도 태백시 장성로 26","openHours":"09:00~18:00","maleToilets":3,"femaleToilets":1,"disabled":true,"diaperTable":true,"emergencyBell":true,"cctv":true,"source":"public","category":"public"},{"id":"202442210000100852","name":"태백중학교(교사동 2층)","lat":37.103862,"lng":129.022012,"roadAddr":"강원특별자치도 태백시 하장성1길 10 (장성동)","openHours":"08:30~16:30","maleToilets":5,"femaleToilets":4,"disabled":false,"diaperTable":false,"emergencyBell":false,"cctv":false,"source":"public","category":"public"},{"id":"202442210000100804","name":"태백초등학교(본관 3층)","lat":37.108578,"lng":129.005232,"roadAddr":"강원특별자치도 태백시 태백로 1811 (장성동)","openHours":"08:40~16:40","maleToilets":5,"femaleToilets":5,"disabled":false,"diaperTable":false,"emergencyBell":false,"cctv":false,"source":"public","category":"public"},{"id":"202442210000100888","name":"태백기계공업고등학교(지성동 2층)","lat":37.099021,"lng":129.021285,"roadAddr":"강원특별자치도 태백시 평화길 8-24 (장성동)","openHours":"08:45~16:40","maleToilets":18,"femaleToilets":2,"disabled":false,"diaperTable":false,"emergencyBell":false,"cctv":false,"source":"public","category":"public"},{"id":"202442210000100890","name":"태백기계공업고등학교(비전동 1층 남자)","lat":37.099021,"lng":129.021285,"roadAddr":"강원특별자치도 태백시 평화길 8-24 (장성동)","openHours":"08:45~16:40","maleToilets":2,"femaleToilets":0,"disabled":false,"diaperTable":false,"emergencyBell":false,"cctv":false,"source":"public","category":"public"},{"id":"202442210000100851","name":"태백중학교(교사동 1층)","lat":37.103862,"lng":129.022012,"roadAddr":"강원특별자치도 태백시 하장성1길 10 (장성동)","openHours":"08:30~16:30","maleToilets":5,"femaleToilets":4,"disabled":true,"diaperTable":false,"emergencyBell":false,"cctv":false,"source":"public","category":"public"},{"id":"202442210000100717","name":"탄탄마을나눔센터(1층)","lat":37.101957,"lng":129.007565,"roadAddr":"강원특별자치도 태백시 장성1길 34 (장성동)","openHours":"09:00~18:00","maleToilets":4,"femaleToilets":2,"disabled":false,"diaperTable":false,"emergencyBell":false,"cctv":true,"source":"public","category":"public"},{"id":"202442210000100891","name":"태백기계공업고등학교(공동실습소 1층)","lat":37.099021,"lng":129.021285,"roadAddr":"강원특별자치도 태백시 평화길 8-24 (장성동)","openHours":"08:45~16:40","maleToilets":5,"femaleToilets":2,"disabled":false,"diaperTable":false,"emergencyBell":false,"cctv":false,"source":"public","category":"public"},{"id":"202442210000100879","name":"장성여자고등학교(기숙사 3층)","lat":37.126297,"lng":129.005707,"roadAddr":"강원특별자치도 태백시 일광마을길 8-12 (문곡동)","openHours":"08:40~16:40","maleToilets":0,"femaleToilets":8,"disabled":false,"diaperTable":false,"emergencyBell":false,"cctv":false,"source":"public","category":"public"},{"id":"202442210000100772","name":"태백교육지원청(청사 3층)","lat":37.102791,"lng":129.020953,"roadAddr":"강원특별자치도 태백시 하장성1길 14 (장성동)","openHours":"09:00~18:00","maleToilets":4,"femaleToilets":4,"disabled":false,"diaperTable":false,"emergencyBell":false,"cctv":false,"source":"public","category":"public"},{"id":"202442210000100961","name":"근로복지공단 태백병원","lat":37.104265,"lng":129.003456,"roadAddr":"강원특별자치도 태백시 보드미길 8(장성동)","openHours":"08:00~24:00","maleToilets":91,"femaleToilets":27,"disabled":true,"diaperTable":false,"emergencyBell":false,"cctv":false,"source":"public","category":"public"},{"id":"202442210000100856","name":"태백중학교(행정동 3층)","lat":37.103862,"lng":129.022012,"roadAddr":"강원특별자치도 태백시 하장성1길 10 (장성동)","openHours":"08:30~16:30","maleToilets":5,"femaleToilets":4,"disabled":false,"diaperTable":false,"emergencyBell":false,"cctv":false,"source":"public","category":"public"},{"id":"202442210000100874","name":"장성여자고등학교(본관 3층)","lat":37.126297,"lng":129.005707,"roadAddr":"강원특별자치도 태백시 일광마을길 8-12 (문곡동)","openHours":"08:40~16:40","maleToilets":0,"femaleToilets":13,"disabled":false,"diaperTable":false,"emergencyBell":false,"cctv":false,"source":"public","category":"public"},{"id":"202442210000100791","name":"장성초등학교(본관 2층)","lat":37.10268,"lng":129.005769,"roadAddr":"강원특별자치도 태백시 보드미길 26 (장성동)","openHours":"08:40~16:40","maleToilets":12,"femaleToilets":6,"disabled":false,"diaperTable":false,"emergencyBell":false,"cctv":false,"source":"public","category":"public"},{"id":"202442210000100806","name":"태백초등학교(별관 2층)","lat":37.108578,"lng":129.005232,"roadAddr":"강원특별자치도 태백시 태백로 1811 (장성동)","openHours":"08:40~16:40","maleToilets":2,"femaleToilets":2,"disabled":false,"diaperTable":false,"emergencyBell":false,"cctv":false,"source":"public","category":"public"},{"id":"202442210000100886","name":"태백기계공업고등학교(창의동 3층 여자)","lat":37.099021,"lng":129.021285,"roadAddr":"강원특별자치도 태백시 평화길 8-24 (장성동)","openHours":"08:45~16:40","maleToilets":0,"femaleToilets":4,"disabled":false,"diaperTable":false,"emergencyBell":false,"cctv":false,"source":"public","category":"public"},{"id":"202442210000100790","name":"장성초등학교(본관 1층)","lat":37.10268,"lng":129.005769,"roadAddr":"강원특별자치도 태백시 보드미길 26 (장성동)","openHours":"08:40~16:40","maleToilets":11,"femaleToilets":7,"disabled":false,"diaperTable":false,"emergencyBell":false,"cctv":false,"source":"public","category":"public"},{"id":"202442210000100698","name":"태백문화의집(본관 1층)","lat":37.106975,"lng":129.003931,"roadAddr":"강원특별자치도 태백시 태백로 1813 (장성동)","openHours":"09:00~20:00","maleToilets":3,"femaleToilets":3,"disabled":false,"diaperTable":false,"emergencyBell":false,"cctv":false,"source":"public","category":"public"},{"id":"202442210000100889","name":"태백기계공업고등학교(지성동 3층)","lat":37.099021,"lng":129.021285,"roadAddr":"강원특별자치도 태백시 평화길 8-24 (장성동)","openHours":"08:45~16:40","maleToilets":9,"femaleToilets":2,"disabled":false,"diaperTable":false,"emergencyBell":false,"cctv":false,"source":"public","category":"public"},{"id":"202442210000100773","name":"태백교육지원청(청사 4층)","lat":37.102791,"lng":129.020953,"roadAddr":"강원특별자치도 태백시 하장성1길 14 (장성동)","openHours":"09:00~18:00","maleToilets":4,"femaleToilets":4,"disabled":false,"diaperTable":false,"emergencyBell":false,"cctv":false,"source":"public","category":"public"},{"id":"202442210000100953","name":"장성주유소","lat":37.104023,"lng":129.008439,"roadAddr":"강원특별자치도 태백시 장성로 7 (장성동)","openHours":"06:00~21:00","maleToilets":2,"femaleToilets":1,"disabled":false,"diaperTable":false,"emergencyBell":false,"cctv":false,"source":"public","category":"public"},{"id":"202442210000100951","name":"세봉주유소","lat":37.127396,"lng":129.003465,"roadAddr":"강원특별자치도 태백시 태백로 1571 (문곡동)","openHours":"07:00~20:00","maleToilets":2,"femaleToilets":2,"disabled":false,"diaperTable":false,"emergencyBell":false,"cctv":false,"source":"public","category":"public"},{"id":"202442210000100719","name":"통합문화플랫폼(1층)","lat":37.11083,"lng":129.003856,"roadAddr":"강원특별자치도 태백시 태백로 1782-2 (장성동)","openHours":"09:00~18:00","maleToilets":5,"femaleToilets":4,"disabled":true,"diaperTable":false,"emergencyBell":true,"cctv":true,"source":"public","category":"public"}]