[{"id":"202442710000100284","name":"상동읍 본구래 2(상동읍-14)","lat":37.150702,"lng":128.80443,"jibunAddr":"강원특별자치도 영월군 상동읍 구래리 산1-56","openHours":"상시","maleToilets":1,"femaleToilets":2,"disabled":false,"diaperTable":false,"emergencyBell":false,"cctv":false,"managerTel":"0333704766","source":"public","category":"public"},{"id":"202442710000100283","name":"상동읍 본구래 3(상동읍-15)","lat":37.150702,"lng":128.80443,"jibunAddr":"강원특별자치도 영월군 상동읍 구래리 산1-56","openHours":"상시","maleToilets":1,"femaleToilets":1,"disabled":false,"diaperTable":false,"emergencyBell":false,"cctv":false,"managerTel":"0333704766","source":"public","category":"public"},{"id":"202442710000100285","name":"상동읍 약수공원(상동읍-13)","lat":37.145764,"lng":128.805394,"jibunAddr":"강원특별자치도 영월군 상동읍 내덕리 산53-25","openHours":"상시","maleToilets":2,"femaleToilets":2,"disabled":false,"diaperTable":false,"emergencyBell":false,"cctv":false,"managerTel":"0333704766","source":"public","category":"public"},{"id":"202442710000100294","name":"구래초교앞(상동읍-2)","lat":37.141001,"lng":128.838429,"jibunAddr":"강원특별자치도 영월군 상동읍 구래리 103-100","openHours":"상시","maleToilets":3,"femaleToilets":2,"disabled":false,"diaperTable":false,"emergencyBell":false,"cctv":false,"managerTel":"0333704766","source":"public","category":"public"},{"id":"202442710000100297","name":"상동읍 시외버스터미널","lat":37.13633,"lng":128.836101,"roadAddr":"강원특별자치도 영월군 상동읍 상동시장길 7","jibunAddr":"강원특별자치도 영월군 상동읍 구래리 98-6","openHours":"상시","maleToilets":5,"femaleToilets":3,"disabled":true,"diaperTable":false,"emergencyBell":true,"cctv":false,"managerTel":"0333704766","source":"public","category":"public"},{"id":"202442710000100276","name":"상동읍 시내버스종점(세송입구)","lat":37.145854,"lng":128.847588,"jibunAddr":"강원특별자치도 영월군 상동읍 구래리 산1-51","openHours":"상시","maleToilets":1,"femaleToilets":1,"disabled":false,"diaperTable":false,"emergencyBell":false,"cctv":false,"managerTel":"0333704766","source":"public","category":"public"},{"id":"202442710000100296","name":"상동읍 꼴두바우공원","lat":37.145375,"lng":128.840666,"roadAddr":"강원특별자치도 영월군 상동읍 중석길 12","jibunAddr":"강원특별자치도 영월군 상동읍 구래리 산 61","openHours":"상시","maleToilets":5,"femaleToilets":3,"disabled":false,"diaperTable":false,"emergencyBell":true,"cctv":false,"managerTel":"0333704766","source":"public","category":"public"}]