[{"id":"202442910000101272","name":"고한모노레일","lat":37.201205,"lng":128.855061,"roadAddr":"강원특별자치도 정선군 고한읍 고한4길 69","openHours":"연중무휴","maleToilets":2,"femaleToilets":1,"disabled":false,"diaperTable":false,"emergencyBell":false,"cctv":false,"managerTel":"0335603459","source":"public","category":"public"},{"id":"202442910000101280","name":"정암사 주차장","lat":37.184539,"lng":128.890876,"jibunAddr":"강원특별자치도 정선군 고한읍 고한리 산213-19","openHours":"연중무휴","maleToilets":5,"femaleToilets":3,"disabled":true,"diaperTable":false,"emergencyBell":false,"cctv":false,"managerTel":"0335602717","source":"public","category":"public"},{"id":"202442910000101269","name":"고한역","lat":37.200912,"lng":128.85287,"roadAddr":"강원특별자치도 정선군 고한읍 고한로 166","jibunAddr":"강원특별자치도 정선군 고한읍 고한리 99-41","openHours":"06:00~24:00","maleToilets":7,"femaleToilets":3,"disabled":true,"diaperTable":true,"emergencyBell":true,"cctv":true,"managerTel":"15447788","source":"public","category":"public"},{"id":"202442910000101270","name":"고한119안전센터","lat":37.194939,"lng":128.869908,"roadAddr":"강원특별자치도 정선군 고한읍 강원남로 6455","jibunAddr":"강원특별자치도 정선군 고한읍 고한리 373-23","openHours":"09:00~09:00","maleToilets":7,"femaleToilets":2,"disabled":true,"diaperTable":false,"emergencyBell":false,"cctv":false,"managerTel":"0335606536","source":"public","category":"public"},{"id":"202442910000101268","name":"고한읍행정복지센터","lat":37.204202,"lng":128.851767,"roadAddr":"강원특별자치도 정선군 고한읍 고한2길 1","jibunAddr":"강원특별자치도 정선군 고한읍 고한리 80-4","openHours":"09:00~18:00","maleToilets":14,"femaleToilets":6,"disabled":true,"diaperTable":false,"emergencyBell":false,"cctv":true,"managerTel":"0335602717","source":"public","category":"public"},{"id":"202442910000101274","name":"야생화마을 추리본부","lat":37.201478,"lng":128.853615,"roadAddr":"강원특별자치도 정선군 고한읍 고한4길 30","openHours":"11:00~20:00","maleToilets":8,"femaleToilets":5,"disabled":true,"diaperTable":false,"emergencyBell":false,"cctv":true,"managerTel":"0335602350","source":"public","category":"public"}]