[{"id":"202452500000100105","name":"대광천(2)","lat":37.010474,"lng":129.21241,"roadAddr":"경상북도 울진군 금강송면 십이령로 1105","openHours":"상시","maleToilets":2,"femaleToilets":1,"disabled":false,"diaperTable":false,"emergencyBell":false,"cctv":false,"source":"public","category":"public"},{"id":"202452500000100106","name":"관사","lat":37.020925,"lng":129.216951,"jibunAddr":"경상북도 울진군 금강송면 소광리 산32","openHours":"상시","maleToilets":2,"femaleToilets":1,"disabled":false,"diaperTable":false,"emergencyBell":false,"cctv":false,"source":"public","category":"public"},{"id":"202452500000100036","name":"울진국유림관리소 금강소나무생태관리센터","lat":37.019676,"lng":129.215609,"roadAddr":"경상북도 울진군 금강송면 대광천길 49","openHours":"정시","maleToilets":11,"femaleToilets":6,"disabled":true,"diaperTable":true,"emergencyBell":false,"cctv":false,"managerTel":"0547811202","source":"public","category":"public"},{"id":"202452500000100104","name":"대광천(1)","lat":37.008206,"lng":129.211626,"jibunAddr":"경상북도 울진군 금강송면 소광리 178","openHours":"상시","maleToilets":2,"femaleToilets":1,"disabled":false,"diaperTable":false,"emergencyBell":false,"cctv":false,"source":"public","category":"public"},{"id":"202452500000100103","name":"보부상길","lat":37.015817,"lng":129.215323,"roadAddr":"경상북도 울진군 금강송면 대광천길 1","openHours":"상시","maleToilets":2,"femaleToilets":1,"disabled":false,"diaperTable":false,"emergencyBell":false,"cctv":false,"source":"public","category":"public"}]