[{"id":"202442710000100125","name":"무릉도원면사무소","lat":37.288376,"lng":128.268608,"roadAddr":"강원특별자치도 영월군 무릉도원면 무릉길 70-6","jibunAddr":"강원특별자치도 영월군 무릉리 903","openHours":"(평일)09:00~18:00","maleToilets":6,"femaleToilets":3,"disabled":true,"diaperTable":false,"emergencyBell":false,"cctv":false,"managerTel":"0333728001","source":"public","category":"public"},{"id":"202442710000100106","name":"무릉도원면-9(장자들 버스정류장 앞)","lat":37.297164,"lng":128.26105,"jibunAddr":"강원특별자치도 영월군 무릉도원면 무릉리1423","openHours":"상시","maleToilets":2,"femaleToilets":1,"disabled":false,"diaperTable":false,"emergencyBell":false,"cctv":false,"managerTel":"0333704986","source":"public","category":"public"},{"id":"202442710000100401","name":"돌개구멍 화장실","lat":37.297031,"lng":128.262386,"roadAddr":"강원특별자치도 영월군 무릉도원면 무릉법흥로 275-26","jibunAddr":"강원특별자치도 영월군 무릉도원면 무릉리 1058-3","openHours":"상시","maleToilets":3,"femaleToilets":2,"disabled":false,"diaperTable":false,"emergencyBell":true,"cctv":false,"managerTel":"0333702911","source":"public","category":"public"},{"id":"202442710000100115","name":"무릉도원면-23","lat":37.293203,"lng":128.239334,"jibunAddr":"강원특별자치도 영월군 무릉도원면 도원리881-22","openHours":"상시","maleToilets":2,"femaleToilets":1,"disabled":false,"diaperTable":false,"emergencyBell":false,"cctv":false,"managerTel":"0333704986","source":"public","category":"public"},{"id":"202442710000100116","name":"무릉도원면-22","lat":37.287689,"lng":128.245042,"jibunAddr":"강원특별자치도 영월군 무릉도원면 도원리881-20","openHours":"상시","maleToilets":2,"femaleToilets":1,"disabled":false,"diaperTable":false,"emergencyBell":false,"cctv":false,"managerTel":"0333704986","source":"public","category":"public"},{"id":"202442710000100136","name":"주천면-7(도천교 밑)","lat":37.28355,"lng":128.25963,"roadAddr":"강원특별자치도 영월군 주천면 도천길 176-6","jibunAddr":"강원특별자치도 영월군 주천면 도천길 176-6","openHours":"상시","maleToilets":2,"femaleToilets":1,"disabled":false,"diaperTable":false,"emergencyBell":false,"cctv":false,"managerTel":"0333704956","source":"public","category":"public"},{"id":"202442710000100342","name":"무릉보건진료소 화장실","lat":37.288612,"lng":128.268801,"roadAddr":"강원특별자치도 영월군 무릉도원면 중방길 62-4","jibunAddr":"강원특별자치도 영월군 무릉도원면 무릉리 907-2","openHours":"(평일)09:00-18:00","maleToilets":0,"femaleToilets":0,"disabled":false,"diaperTable":false,"emergencyBell":false,"cctv":false,"managerTel":"0333728121","source":"public","category":"public"},{"id":"202442710000100375","name":"주천테니스장","lat":37.272776,"lng":128.269612,"roadAddr":"강원특별자치도 영월군 주천면 주천로 113-5","jibunAddr":"강원특별자치도 영월군 주천면 주천리 1246-5","openHours":"09:00~18:00","maleToilets":3,"femaleToilets":1,"disabled":false,"diaperTable":false,"emergencyBell":false,"cctv":false,"managerTel":"0333702976","source":"public","category":"public"},{"id":"202442710000100382","name":"무릉도원면 전천후 게이트볼장","lat":37.290634,"lng":128.268272,"roadAddr":"강원특별자치도 영월군 무릉도원면 중방안길 54","jibunAddr":"강원특별자치도 영월군 무릉도원면 무릉리 822","openHours":"09:00~18:00","maleToilets":3,"femaleToilets":2,"disabled":false,"diaperTable":false,"emergencyBell":false,"cctv":false,"managerTel":"0333702976","source":"public","category":"public"},{"id":"202442710000100364","name":"주천시장화장실(1)(CU맞은편)","lat":37.271033,"lng":128.267893,"roadAddr":"강원특별자치도 영월군 주천면 주천로 87","jibunAddr":"강원특별자치도 영월군 주천면 주천리 1239-10","openHours":"상시","maleToilets":7,"femaleToilets":4,"disabled":false,"diaperTable":false,"emergencyBell":true,"cctv":false,"managerTel":"0333702751","source":"public","category":"public"},{"id":"202442710000100381","name":"주천면전천후게이트볼장","lat":37.275313,"lng":128.27095,"roadAddr":"강원특별자치도 영월군 주천면 송학주천로 1487-3","jibunAddr":"강원특별자치도 영월군 주천면 주천리 1458-50","openHours":"09:00~18:00","maleToilets":2,"femaleToilets":1,"disabled":false,"diaperTable":false,"emergencyBell":false,"cctv":false,"managerTel":"0333702976","source":"public","category":"public"},{"id":"202442710000100147","name":"주천면사무소","lat":37.27223,"lng":128.26954,"roadAddr":"강원특별자치도 영월군 주천면 주천로 103","jibunAddr":"강원특별자치도 영월군 주천면 주천리1243-1","openHours":"(평일)09:00~18:00","maleToilets":5,"femaleToilets":2,"disabled":true,"diaperTable":true,"emergencyBell":false,"cctv":false,"managerTel":"0333704956","source":"public","category":"public"},{"id":"202642710000100006","name":"주천초등학교","lat":37.272016,"lng":128.267611,"roadAddr":"강원특별자치도 영월군 주천면 주천로89번길 14, 주천초등학교","jibunAddr":"강원특별자치도 영월군 주천면 주천리 1382 주천초등학교","openHours":"09:00~18:00","maleToilets":18,"femaleToilets":10,"disabled":true,"diaperTable":false,"emergencyBell":false,"cctv":false,"managerTel":"0333727406","source":"public","category":"public"},{"id":"202642710000100005","name":"주천초등학교 다목적실","lat":37.272016,"lng":128.267611,"roadAddr":"강원특별자치도 영월군 주천면 주천로89번길 14, 주천초등학교","jibunAddr":"강원특별자치도 영월군 주천면 주천리 1382 주천초등학교","openHours":"개방불가(안전)","maleToilets":7,"femaleToilets":3,"disabled":true,"diaperTable":false,"emergencyBell":false,"cctv":false,"managerTel":"0333727406","source":"public","category":"public"},{"id":"202442710000100107","name":"무릉도원면-7(좋은생각펜션 옆)","lat":37.300108,"lng":128.259443,"jibunAddr":"강원특별자치도 영월군 무릉도원면 무릉리1349-8","openHours":"상시","maleToilets":2,"femaleToilets":1,"disabled":false,"diaperTable":false,"emergencyBell":false,"cctv":false,"managerTel":"0333704986","source":"public","category":"public"},{"id":"202442710000100146","name":"주천면-19 (주천둔치화장실)","lat":37.268609,"lng":128.26673,"roadAddr":"강원특별자치도 영월군 주천면 주천로58번길 2","jibunAddr":"강원특별자치도 영월군 주천면 주천리 1131-2","openHours":"상시","maleToilets":2,"femaleToilets":2,"disabled":true,"diaperTable":true,"emergencyBell":true,"cctv":false,"managerTel":"0333704956","source":"public","category":"public"},{"id":"202442710000100343","name":"주천통합보건지소","lat":37.273566,"lng":128.270322,"roadAddr":"강원특별자치도 영월군 주천면 송학주천로 1461, 주천통합보건지소","jibunAddr":"강원특별자치도 영월군 주천면 주천리 1377-2","openHours":"(평일)09:00-18:00","maleToilets":3,"femaleToilets":2,"disabled":true,"diaperTable":false,"emergencyBell":false,"cctv":false,"managerTel":"0333705396","source":"public","category":"public"},{"id":"202442710000100438","name":"술샘건강복지센터","lat":37.270601,"lng":128.265511,"roadAddr":"강원특별자치도 영월군 주천면 도천길 17, 술샘건강복지센터","jibunAddr":"강원특별자치도 영월군 주천면 주천리 1154 술샘건강복지센터","openHours":"(화~일) 06:00 ~ 21:00","maleToilets":4,"femaleToilets":3,"disabled":true,"diaperTable":false,"emergencyBell":false,"cctv":false,"managerTel":"0333702611","source":"public","category":"public"},{"id":"202442710000100425","name":"한국가스안전공사 연구동 화장실","lat":37.277772,"lng":128.267132,"roadAddr":"강원특별자치도 영월군 주천면 송학주천로 1467-51","jibunAddr":"강원특별자치도 영월군 주천면 주천리 1424-1","openHours":"(평일)09:00~18:00","maleToilets":4,"femaleToilets":2,"disabled":true,"diaperTable":false,"emergencyBell":false,"cctv":false,"managerTel":"0338342541","source":"public","category":"public"},{"id":"202442710000100376","name":"술샘체육관","lat":37.267963,"lng":128.271076,"roadAddr":"강원특별자치도 영월군 주천면 송학주천로 1402-19","jibunAddr":"강원특별자치도 영월군 주천면 주천리 890","openHours":"09:00~18:00","maleToilets":4,"femaleToilets":4,"disabled":true,"diaperTable":false,"emergencyBell":false,"cctv":false,"managerTel":"0333702976","source":"public","category":"public"},{"id":"202442710000100423","name":"주천고등학교 내 화장실","lat":37.273552,"lng":128.265079,"roadAddr":"강원특별자치도 영월군 주천면 주천로89번길 41, 주천중·고등학교","jibunAddr":"강원특별자치도 영월군 주천면 주천리 1430 주천중·고등학교","openHours":"상시","maleToilets":2,"femaleToilets":2,"disabled":true,"diaperTable":false,"emergencyBell":false,"cctv":false,"managerTel":"0333704956","source":"public","category":"public"},{"id":"202442710000100131","name":"주천면-2(도원교 하류)","lat":37.289372,"lng":128.240814,"jibunAddr":"강원특별자치도 영월군 주천면 도천리731-22","openHours":"상시","maleToilets":2,"femaleToilets":1,"disabled":false,"diaperTable":false,"emergencyBell":false,"cctv":false,"managerTel":"0333704956","source":"public","category":"public"},{"id":"202442710000100103","name":"무릉도원면-5(무릉2교)","lat":37.294163,"lng":128.274111,"jibunAddr":"강원특별자치도 영월군 무릉도원면 무릉리산151","openHours":"상시","maleToilets":2,"femaleToilets":1,"disabled":false,"diaperTable":false,"emergencyBell":false,"cctv":false,"managerTel":"0333704986","source":"public","category":"public"},{"id":"202442710000100365","name":"주천시장화장실(2)","lat":37.270932,"lng":128.266207,"roadAddr":"강원특별자치도 영월군 주천면 주천시장길 47-7","jibunAddr":"강원특별자치도 영월군 주천면 주천리 1232-4","openHours":"상시","maleToilets":6,"femaleToilets":3,"disabled":true,"diaperTable":false,"emergencyBell":true,"cctv":false,"managerTel":"0333702751","source":"public","category":"public"},{"id":"202442710000100324","name":"주천공영버스터미널 화장실","lat":37.272139,"lng":128.27011,"roadAddr":"강원특별자치도 영월군 주천면 주천로 58번길 53-5","jibunAddr":"강원특별자치도 영월군 주천면 주천리 1248-1","openHours":"07:00~19:00","maleToilets":4,"femaleToilets":2,"disabled":true,"diaperTable":false,"emergencyBell":true,"cctv":false,"managerTel":"0333756776","source":"public","category":"public"},{"id":"202542710000100047","name":"주천공공하수처리장 공중화장실","lat":37.26803,"lng":128.270681,"jibunAddr":"강원특별자치도 영월군 주천면 주천리 890","openHours":"상시","maleToilets":2,"femaleToilets":2,"disabled":true,"diaperTable":true,"emergencyBell":true,"cctv":false,"source":"public","category":"public"},{"id":"202442710000100117","name":"무릉도원면-24","lat":37.303314,"lng":128.235755,"jibunAddr":"강원특별자치도 영월군 무릉도원면 도원리881","openHours":"상시","maleToilets":2,"femaleToilets":1,"disabled":false,"diaperTable":false,"emergencyBell":false,"cctv":false,"managerTel":"0333704986","source":"public","category":"public"},{"id":"202442710000100104","name":"무릉도원면-4(무릉초교 축구장)","lat":37.290135,"lng":128.267367,"jibunAddr":"강원특별자치도 영월군 무릉도원면 무릉리821-3","openHours":"상시","maleToilets":2,"femaleToilets":1,"disabled":false,"diaperTable":false,"emergencyBell":false,"cctv":false,"managerTel":"0333704986","source":"public","category":"public"},{"id":"202442710000100105","name":"무릉도원면-3(무릉1리 마을앞제방)","lat":37.283738,"lng":128.26818,"jibunAddr":"강원특별자치도 영월군 무릉도원면 무릉리434-2","openHours":"상시","maleToilets":2,"femaleToilets":1,"disabled":false,"diaperTable":false,"emergencyBell":false,"cctv":false,"managerTel":"0333704986","source":"public","category":"public"},{"id":"202442710000100439","name":"영월군 노인요양원 화장실","lat":37.279589,"lng":128.246349,"roadAddr":"강원특별자치도 영월군 주천면 다래골길 51","jibunAddr":"강원특별자치도 영월군 주천면 도천리 75","openHours":"상시","maleToilets":5,"femaleToilets":10,"disabled":false,"diaperTable":false,"emergencyBell":true,"cctv":true,"managerTel":"0333702631","source":"public","category":"public"},{"id":"202442710000100114","name":"무릉도원면-25","lat":37.303295,"lng":128.235885,"jibunAddr":"강원특별자치도 영월군 무릉도원면 도원리881-38","openHours":"상시","maleToilets":2,"femaleToilets":1,"disabled":false,"diaperTable":false,"emergencyBell":false,"cctv":false,"managerTel":"0333704986","source":"public","category":"public"},{"id":"202442710000100331","name":"주천도서관 화장실","lat":37.27223,"lng":128.26954,"roadAddr":"강원특별자치도 영월군 주천면 주천로 103","jibunAddr":"강원특별자치도 영월군 주천면 주천리 1243-1","openHours":"09:00~18:00","maleToilets":5,"femaleToilets":2,"disabled":true,"diaperTable":true,"emergencyBell":false,"cctv":false,"managerTel":"0333747766","source":"public","category":"public"}]