[{"id":"202442610000100078","name":"성우오스타주유소","lat":37.506061,"lng":128.227538,"jibunAddr":"강원특별자치도 횡성군 둔내면 두원리956-1","openHours":"정시","maleToilets":4,"femaleToilets":2,"disabled":false,"diaperTable":false,"emergencyBell":false,"cctv":false,"source":"public","category":"public"},{"id":"202442610000100060","name":"둔방주유소","lat":37.504186,"lng":128.207494,"jibunAddr":"강원특별자치도 횡성군 둔내면 둔방내리303-8","openHours":"정시","maleToilets":3,"femaleToilets":2,"disabled":false,"diaperTable":false,"emergencyBell":false,"cctv":false,"source":"public","category":"public"},{"id":"202442610000100052","name":"둔내면사무소","lat":37.512153,"lng":128.218741,"jibunAddr":"강원특별자치도 횡성군 둔내면 자포곡리402","openHours":"정시","maleToilets":11,"femaleToilets":5,"disabled":false,"diaperTable":false,"emergencyBell":false,"cctv":false,"source":"public","category":"public"},{"id":"202442610000100055","name":"둔내신터미널화장실","lat":37.511769,"lng":128.211727,"jibunAddr":"강원특별자치도 횡성군 둔내면 둔방내리 592-5","openHours":"정시","maleToilets":1,"femaleToilets":0,"disabled":true,"diaperTable":true,"emergencyBell":true,"cctv":false,"source":"public","category":"public"},{"id":"202442610000100051","name":"둔내멱","lat":37.510265,"lng":128.221359,"roadAddr":"강원특별자치도 횡성군 둔내면 고원로 116","openHours":"정시","maleToilets":9,"femaleToilets":9,"disabled":true,"diaperTable":true,"emergencyBell":true,"cctv":true,"source":"public","category":"public"},{"id":"202442610000100035","name":"대광주유소","lat":37.50853,"lng":128.209249,"jibunAddr":"강원특별자치도 횡성군 둔내면 둔방내리135","openHours":"정시","maleToilets":2,"femaleToilets":1,"disabled":false,"diaperTable":false,"emergencyBell":false,"cctv":false,"source":"public","category":"public"},{"id":"202442610000100047","name":"둔내119안전센터","lat":37.506545,"lng":128.212283,"roadAddr":"강원특별자치도 횡성군 둔내면 고원남로42","jibunAddr":"강원특별자치도 횡성군 둔내면 우용리649-13","openHours":"정시","maleToilets":0,"femaleToilets":0,"disabled":false,"diaperTable":false,"emergencyBell":false,"cctv":false,"source":"public","category":"public"},{"id":"202442610000100064","name":"사계절주유소","lat":37.50853,"lng":128.209249,"jibunAddr":"강원특별자치도 횡성군 둔내면 둔방내리135","openHours":"정시","maleToilets":2,"femaleToilets":2,"disabled":false,"diaperTable":false,"emergencyBell":false,"cctv":false,"source":"public","category":"public"},{"id":"202442610000100049","name":"둔내농업협동조합 문화지소","lat":37.512255,"lng":128.2121,"jibunAddr":"강원특별자치도 횡성군 둔내면 둔방내리592-4","openHours":"정시","maleToilets":4,"femaleToilets":2,"disabled":false,"diaperTable":false,"emergencyBell":false,"cctv":false,"source":"public","category":"public"},{"id":"202442610000100050","name":"둔내농협주유소","lat":37.511216,"lng":128.215883,"jibunAddr":"강원특별자치도 횡성군 둔내면 자포곡리456-13","openHours":"정시","maleToilets":3,"femaleToilets":2,"disabled":false,"diaperTable":false,"emergencyBell":false,"cctv":false,"source":"public","category":"public"},{"id":"202442610000100059","name":"둔내파출소","lat":37.512845,"lng":128.214329,"jibunAddr":"강원특별자치도 횡성군 둔내면 둔방내리84-5","openHours":"정시","maleToilets":2,"femaleToilets":1,"disabled":false,"diaperTable":false,"emergencyBell":false,"cctv":false,"source":"public","category":"public"},{"id":"202442610000100053","name":"둔내보건지소","lat":37.512412,"lng":128.218581,"roadAddr":"강원특별자치도 횡성군 둔내면 둔내로 51번길 17","jibunAddr":"강원특별자치도 횡성군 둔내면 자포곡리402","openHours":"정시","maleToilets":4,"femaleToilets":3,"disabled":true,"diaperTable":false,"emergencyBell":false,"cctv":false,"source":"public","category":"public"},{"id":"202442610000100046","name":"둔내 문화센터","lat":37.514738,"lng":128.216591,"roadAddr":"강원특별자치도 횡성군 둔내면 둔내로 47번길 26","jibunAddr":"강원특별자치도 횡성군 둔내면 둔방내리77-1","openHours":"정시","maleToilets":4,"femaleToilets":3,"disabled":true,"diaperTable":false,"emergencyBell":false,"cctv":false,"source":"public","category":"public"},{"id":"202442610000100048","name":"둔내농업협동조합","lat":37.511475,"lng":128.219563,"jibunAddr":"강원특별자치도 횡성군 둔내면 자포곡리405-1","openHours":"정시","maleToilets":8,"femaleToilets":4,"disabled":false,"diaperTable":false,"emergencyBell":false,"cctv":false,"source":"public","category":"public"},{"id":"202442610000100058","name":"둔내주유소","lat":37.513937,"lng":128.213312,"jibunAddr":"강원특별자치도 횡성군 둔내면 둔방내리89-5","openHours":"정시","maleToilets":0,"femaleToilets":0,"disabled":false,"diaperTable":false,"emergencyBell":false,"cctv":false,"source":"public","category":"public"},{"id":"202442610000100056","name":"둔내우체국","lat":37.512336,"lng":128.217004,"jibunAddr":"강원특별자치도 횡성군 둔내면 자포곡리409-4","openHours":"정시","maleToilets":0,"femaleToilets":0,"disabled":false,"diaperTable":false,"emergencyBell":false,"cctv":false,"source":"public","category":"public"},{"id":"202442610000100054","name":"둔내시장 공중화장실","lat":37.512407,"lng":128.217924,"jibunAddr":"강원특별자치도 횡성군 둔내면 자포곡리 397-6","openHours":"정시","maleToilets":4,"femaleToilets":4,"disabled":true,"diaperTable":false,"emergencyBell":true,"cctv":false,"source":"public","category":"public"}]