[{"id":"202442910000101323","name":"북평면행정복지센터","lat":37.448937,"lng":128.670476,"roadAddr":"강원특별자치도 정선군 북평면 북평6길 36","jibunAddr":"강원특별자치도 정선군 남면 무릉리788-18","openHours":"(평일)09:00~18:00","maleToilets":11,"femaleToilets":4,"disabled":true,"diaperTable":false,"emergencyBell":false,"cctv":false,"managerTel":"0335602698","source":"public","category":"public"},{"id":"202442910000101338","name":"난향공원 내","lat":37.451896,"lng":128.667539,"jibunAddr":"강원특별자치도 정선군 북평면 북평리 산208","openHours":"연중무휴","maleToilets":2,"femaleToilets":0,"disabled":false,"diaperTable":false,"emergencyBell":false,"cctv":false,"managerTel":"0335602838","source":"public","category":"public"},{"id":"202442910000101340","name":"졸드루야영장 아래","lat":37.443386,"lng":128.642224,"jibunAddr":"강원특별자치도 정선군 북평면 나전리 429","openHours":"연중무휴","maleToilets":3,"femaleToilets":2,"disabled":false,"diaperTable":false,"emergencyBell":false,"cctv":false,"managerTel":"0335602838","source":"public","category":"public"},{"id":"202442910000101339","name":"졸드루야영장 위","lat":37.443386,"lng":128.642224,"jibunAddr":"강원특별자치도 정선군 북평면 나전리 429","openHours":"연중무휴","maleToilets":3,"femaleToilets":2,"disabled":false,"diaperTable":false,"emergencyBell":false,"cctv":false,"managerTel":"0335602838","source":"public","category":"public"},{"id":"202442910000101324","name":"북평터미널","lat":37.449149,"lng":128.666254,"roadAddr":"강원특별자치도 정선군 북평면 북평중앙로 56","openHours":"연중무휴","maleToilets":3,"femaleToilets":3,"disabled":false,"diaperTable":false,"emergencyBell":true,"cctv":true,"managerTel":"0335602698","source":"public","category":"public"},{"id":"202442910000101327","name":"사계절계곡수체험장","lat":37.450193,"lng":128.670466,"jibunAddr":"강원특별자치도 정선군 북평면 북평리 237-12","openHours":"연중무휴","maleToilets":5,"femaleToilets":3,"disabled":true,"diaperTable":false,"emergencyBell":false,"cctv":true,"managerTel":"0335602698","source":"public","category":"public"},{"id":"202442910000101328","name":"나전역","lat":37.449929,"lng":128.6688,"roadAddr":"강원특별자치도 정선군 북평면 북평8길 38","jibunAddr":"강원특별자치도 정선군 북평면 북평리 244-5","openHours":"09:00~19:00","maleToilets":3,"femaleToilets":3,"disabled":false,"diaperTable":true,"emergencyBell":false,"cctv":true,"managerTel":"15447788","source":"public","category":"public"},{"id":"202442910000101341","name":"백석봉 등산로 입구(졸드루 맞은편)","lat":37.443386,"lng":128.642224,"jibunAddr":"강원특별자치도 정선군 북평면 나전리 429","openHours":"연중무휴","maleToilets":1,"femaleToilets":1,"disabled":false,"diaperTable":false,"emergencyBell":false,"cctv":false,"managerTel":"0335602838","source":"public","category":"public"},{"id":"202442910000101342","name":"백석폭포 앞","lat":37.443386,"lng":128.642224,"jibunAddr":"강원특별자치도 정선군 북평면 나전리 429","openHours":"연중무휴","maleToilets":2,"femaleToilets":2,"disabled":false,"diaperTable":false,"emergencyBell":false,"cctv":false,"managerTel":"0335602838","source":"public","category":"public"}]