[{"id":"202442810000100075","name":"봉평생활체육공원(주차장)","lat":37.609032,"lng":128.375864,"roadAddr":"강원특별자치도 평창군 봉평면 애강나무길 50","jibunAddr":"강원특별자치도 평창군 봉평면 창동리 478","openHours":"상시","maleToilets":9,"femaleToilets":7,"disabled":false,"diaperTable":false,"emergencyBell":false,"cctv":true,"managerTel":"0333302727","source":"public","category":"public"},{"id":"202442810000100094","name":"봉평 전통시장 화장실","lat":37.615589,"lng":128.377281,"roadAddr":"강원특별자치도 평창군 봉평면 허생원장터길 15","jibunAddr":"강원특별자치도 평창군 봉평면 창동리 397-34","openHours":"09:00-18:00","maleToilets":4,"femaleToilets":4,"disabled":true,"diaperTable":true,"emergencyBell":true,"cctv":true,"managerTel":"0333302665","source":"public","category":"public"},{"id":"202442810000100073","name":"가산공원 화장실","lat":37.61431,"lng":128.37554,"roadAddr":"강원특별자치도 평창군 봉평면 기풍3길 6","jibunAddr":"강원특별자치도 평창군 봉평면 창동리 408-1","openHours":"축제기간 상시개방","maleToilets":5,"femaleToilets":4,"disabled":false,"diaperTable":false,"emergencyBell":true,"cctv":true,"managerTel":"0333302727","source":"public","category":"public"},{"id":"202442810000100069","name":"봉평면사무소(1층)","lat":37.616101,"lng":128.379325,"roadAddr":"강원특별자치도 평창군 봉평면 기풍4길 10","jibunAddr":"강원특별자치도 평창군 봉평면 창동리 345","openHours":"평일 09:00~18:00","maleToilets":2,"femaleToilets":2,"disabled":true,"diaperTable":false,"emergencyBell":false,"cctv":false,"managerTel":"0333302665","source":"public","category":"public"},{"id":"202442810000100096","name":"봉평전통시장(봉시크몰)화장실","lat":37.615198,"lng":128.376395,"roadAddr":"강원특별자치도 평창군 봉평면 기풍3길 19","jibunAddr":"강원특별자치도 평창군 봉평면 창동리 396-38","openHours":"09:00-18:00","maleToilets":5,"femaleToilets":11,"disabled":true,"diaperTable":true,"emergencyBell":true,"cctv":false,"managerTel":"0333302665","source":"public","category":"public"},{"id":"202442810000100039","name":"봉평도서관","lat":37.616101,"lng":128.379325,"roadAddr":"강원특별자치도 평창군 봉평면 기풍4길 10","jibunAddr":"강원특별자치도 평창군 봉평면 창동리 344-10","openHours":"(평일)09:00~22:00 (주말)09:00~20:01","maleToilets":7,"femaleToilets":4,"disabled":true,"diaperTable":false,"emergencyBell":false,"cctv":false,"managerTel":"0333302826","source":"public","category":"public"},{"id":"202442810000100074","name":"봉평생활체육공원(본부석)","lat":37.609032,"lng":128.375864,"roadAddr":"강원특별자치도 평창군 봉평면 애강나무길 50","jibunAddr":"강원특별자치도 평창군 봉평면 창동리 455","openHours":"상시","maleToilets":2,"femaleToilets":2,"disabled":true,"diaperTable":false,"emergencyBell":true,"cctv":false,"managerTel":"0333302727","source":"public","category":"public"},{"id":"202442810000100121","name":"봉평농협클린주유소","lat":37.596412,"lng":128.382805,"roadAddr":"강원특별자치도 평창군 봉평면 경강로 1233","jibunAddr":"강원특별자치도 평창군 봉평면 평촌리 436-6","openHours":"08:00~19:00","maleToilets":1,"femaleToilets":1,"disabled":false,"diaperTable":false,"emergencyBell":false,"cctv":false,"managerTel":"0333354507","source":"public","category":"public"},{"id":"202442810000100072","name":"메밀꽃 화장실","lat":37.614467,"lng":128.374774,"roadAddr":"강원특별자치도 평창군 봉평면 애강나무길 109","jibunAddr":"강원특별자치도 평창군 봉평면 창동리 412","openHours":"상시","maleToilets":4,"femaleToilets":4,"disabled":true,"diaperTable":true,"emergencyBell":true,"cctv":false,"managerTel":"0333302665","source":"public","category":"public"}]