[{"id":"202442810000100034","name":"119구조대","lat":37.644879,"lng":128.567562,"roadAddr":"강원특별자치도 평창군 진부면 힌부로 37","jibunAddr":"강원특별자치도 평창군 진부면 하진부리 9-1","openHours":"09:00~18:00","maleToilets":2,"femaleToilets":0,"disabled":false,"diaperTable":false,"emergencyBell":false,"cctv":false,"managerTel":"0333339119","source":"public","category":"public"},{"id":"202442810000100080","name":"건강생활지원센터","lat":37.635539,"lng":128.554044,"roadAddr":"강원특별자치도 평창군 진부면 석두로 12-6","jibunAddr":"강원특별자치도 평창군 진부면 하진부리 166-11","openHours":"09:00~18:00","maleToilets":5,"femaleToilets":8,"disabled":true,"diaperTable":false,"emergencyBell":false,"cctv":false,"managerTel":"0333366128","source":"public","category":"public"},{"id":"202442810000100045","name":"진부청소년문화의집","lat":37.637016,"lng":128.552693,"roadAddr":"강원특별자치도 평창군 진부면 석두산2길 7","jibunAddr":"강원특별자치도 평창군 진부면 하진부리 253","openHours":"13:00~21:00","maleToilets":2,"femaleToilets":1,"disabled":true,"diaperTable":false,"emergencyBell":false,"cctv":false,"managerTel":"0333302052","source":"public","category":"public"},{"id":"202442810000100095","name":"진부 전통시장 화장실","lat":37.637119,"lng":128.557263,"roadAddr":"강원특별자치도 평창군 진부면 진부새싹길 11","jibunAddr":"강원특별자치도 평창군 진부면 하진부리 146-25","openHours":"09:00-09:00","maleToilets":4,"femaleToilets":2,"disabled":true,"diaperTable":false,"emergencyBell":true,"cctv":true,"managerTel":"0333302759","source":"public","category":"public"},{"id":"202442810000100018","name":"진부(오대산)역","lat":37.642771,"lng":128.574465,"roadAddr":"강원특별자치도 평창군 진부면 송정길 120","jibunAddr":"강원특별자치도 평창군 진부면 송정리 산169-4","openHours":"05:00-24:00","maleToilets":8,"femaleToilets":8,"disabled":true,"diaperTable":true,"emergencyBell":true,"cctv":false,"managerTel":"15447788","source":"public","category":"public"},{"id":"202442810000100115","name":"진부농협주유소","lat":37.633842,"lng":128.554556,"roadAddr":"강원특별자치도 평창군 진부면 진부중앙로 15","jibunAddr":"강원특별자치도 평창군 진부면 하진부리 316-2","openHours":"07:00~20:00","maleToilets":3,"femaleToilets":2,"disabled":false,"diaperTable":false,"emergencyBell":false,"cctv":false,"managerTel":"0333368600","source":"public","category":"public"},{"id":"202442810000100040","name":"진부도서관","lat":37.635347,"lng":128.554362,"roadAddr":"강원특별자치도 평창군 진부면 석두로 12-8","jibunAddr":"강원특별자치도 평창군 진부면 하진부리 166-18","openHours":"(평일)09:00~22:00 (주말)09:00~20:02","maleToilets":3,"femaleToilets":2,"disabled":true,"diaperTable":false,"emergencyBell":true,"cctv":false,"managerTel":"0333302821","source":"public","category":"public"},{"id":"202442810000100035","name":"진부119안전센터","lat":37.644799,"lng":128.567519,"roadAddr":"강원특별자치도 평창군 진부면 진부로 37","jibunAddr":"강원특별자치도 평창군 진부면 하진부리 9-1","openHours":"09:00~18:00","maleToilets":5,"femaleToilets":4,"disabled":true,"diaperTable":false,"emergencyBell":false,"cctv":false,"managerTel":"0333357119","source":"public","category":"public"},{"id":"202442810000100057","name":"진부시외버스터미널","lat":37.636197,"lng":128.558423,"roadAddr":"강원특별자치도 평창군 진부면 청송로 110","jibunAddr":"강원특별자치도 평창군 진부면 하진부리 119-1","openHours":"07:30~20:00(버스운행에 따라 변동)","maleToilets":4,"femaleToilets":3,"disabled":true,"diaperTable":false,"emergencyBell":false,"cctv":false,"managerTel":"0333356307","source":"public","category":"public"}]