[{"id":"202542510000100325","name":"을수길 칡소폭포","lat":37.811803,"lng":128.464474,"jibunAddr":"강원특별자치도 홍천군 내면 광원리 198","openHours":"상시","maleToilets":3,"femaleToilets":2,"disabled":false,"diaperTable":false,"emergencyBell":false,"cctv":false,"managerTel":"0334304601","source":"public","category":"public"},{"id":"202542510000100323","name":"을수길(공성열씨댁 인근)","lat":37.814452,"lng":128.462537,"jibunAddr":"강원특별자치도 홍천군 내면 광원리 476-2","openHours":"상시","maleToilets":2,"femaleToilets":1,"disabled":false,"diaperTable":false,"emergencyBell":false,"cctv":false,"managerTel":"0334304601","source":"public","category":"public"},{"id":"202542510000100125","name":"샘골휴게소","lat":37.833804,"lng":128.475796,"roadAddr":"강원특별자치도 홍천군 내면 구룡령로 6928","jibunAddr":"강원특별자치도 홍천군 내면 광원리 668","openHours":"08:00~20:00","maleToilets":10,"femaleToilets":7,"disabled":false,"diaperTable":false,"emergencyBell":false,"cctv":false,"managerTel":"0334356080","source":"public","category":"public"},{"id":"202542510000100292","name":"은행나무숲 주차장 부근","lat":37.829271,"lng":128.466512,"jibunAddr":"강원특별자치도 홍천군 내면 광원리 699-2","openHours":"상시","maleToilets":1,"femaleToilets":1,"disabled":false,"diaperTable":false,"emergencyBell":false,"cctv":false,"managerTel":"0334304601","source":"public","category":"public"},{"id":"202542510000100170","name":"샘골주유소","lat":37.833804,"lng":128.475796,"roadAddr":"강원특별자치도 홍천군 내면 구룡령로 6928","jibunAddr":"강원특별자치도 홍천군 내면 광원리 668","openHours":"08:00~20:00","maleToilets":2,"femaleToilets":1,"disabled":false,"diaperTable":false,"emergencyBell":false,"cctv":false,"managerTel":"0334358181","source":"public","category":"public"},{"id":"202542510000100324","name":"을수길(박광환씨댁 인근)","lat":37.806008,"lng":128.476087,"jibunAddr":"강원특별자치도 홍천군 내면 광원리 236-6","openHours":"상시","maleToilets":2,"femaleToilets":1,"disabled":false,"diaperTable":false,"emergencyBell":false,"cctv":false,"managerTel":"0334304601","source":"public","category":"public"}]