[{"id":"202442910000101652","name":"수리뜰","lat":37.34387,"lng":128.76015,"jibunAddr":"강원특별자치도 정선군 화암면 석곡리 1293-21","openHours":"정시","maleToilets":2,"femaleToilets":1,"disabled":false,"diaperTable":false,"emergencyBell":false,"cctv":false,"managerTel":"0335602645","source":"public","category":"public"},{"id":"202442910000101648","name":"화암약수 주차장 화장실","lat":37.329243,"lng":128.785827,"roadAddr":"강원특별자치도 정선군 화암면 약수길 1330","openHours":"정시","maleToilets":5,"femaleToilets":5,"disabled":true,"diaperTable":false,"emergencyBell":false,"cctv":true,"managerTel":"0335603461","source":"public","category":"public"},{"id":"202442910000101645","name":"화암면행정복지센터","lat":37.340123,"lng":128.787798,"roadAddr":"강원특별자치도 정선군 화암면 그림바위길 40","openHours":"정시","maleToilets":3,"femaleToilets":1,"disabled":false,"diaperTable":false,"emergencyBell":true,"cctv":true,"managerTel":"0335602645","source":"public","category":"public"},{"id":"202442910000101643","name":"화암우체국","lat":37.338985,"lng":128.787945,"roadAddr":"강원특별자치도 정선군 화암면 그림바위길 56","openHours":"정시","maleToilets":5,"femaleToilets":2,"disabled":false,"diaperTable":false,"emergencyBell":false,"cctv":true,"managerTel":"0335622001","source":"public","category":"public"},{"id":"202442910000101644","name":"화암면복지회관","lat":37.340123,"lng":128.787798,"roadAddr":"강원특별자치도 정선군 화암면 그림바위길 40","openHours":"정시","maleToilets":5,"femaleToilets":2,"disabled":true,"diaperTable":false,"emergencyBell":false,"cctv":true,"managerTel":"0335602645","source":"public","category":"public"},{"id":"202442910000101653","name":"덕거리","lat":37.345435,"lng":128.760737,"roadAddr":"강원특별자치도 정선군 화암면 소금강로 472 앞","jibunAddr":"강원특별자치도 정선군 화암면 석곡리 1360","openHours":"정시","maleToilets":2,"femaleToilets":1,"disabled":false,"diaperTable":false,"emergencyBell":false,"cctv":false,"managerTel":"0335602645","source":"public","category":"public"},{"id":"202442910000101640","name":"화동중학교","lat":37.339676,"lng":128.78731,"roadAddr":"강원특별자치도 정선군 화암면 그림바위길 50","openHours":"정시","maleToilets":10,"femaleToilets":4,"disabled":true,"diaperTable":false,"emergencyBell":false,"cctv":false,"managerTel":"0335622032","source":"public","category":"public"},{"id":"202442910000101654","name":"양지좌사","lat":37.348867,"lng":128.788926,"jibunAddr":"강원특별자치도 정선군 화암면 화암리 1306","openHours":"정시","maleToilets":2,"femaleToilets":1,"disabled":false,"diaperTable":false,"emergencyBell":false,"cctv":false,"managerTel":"0335602645","source":"public","category":"public"},{"id":"202442910000101641","name":"화동초등학교","lat":37.338686,"lng":128.788015,"roadAddr":"강원특별자치도 정선군 화암면 그림바위길 66-20","openHours":"정시","maleToilets":5,"femaleToilets":2,"disabled":true,"diaperTable":false,"emergencyBell":false,"cctv":true,"managerTel":"0335622036","source":"public","category":"public"},{"id":"202442910000101650","name":"하돌목교","lat":37.347546,"lng":128.765785,"jibunAddr":"강원특별자치도 정선군 화암면 석곡리 1293(소금강로)","openHours":"정시","maleToilets":2,"femaleToilets":1,"disabled":false,"diaperTable":false,"emergencyBell":false,"cctv":false,"managerTel":"0335602645","source":"public","category":"public"},{"id":"202442910000101642","name":"화암보건지소","lat":37.338969,"lng":128.788661,"roadAddr":"강원특별자치도 정선군 화암면 그림바위길 57","openHours":"정시","maleToilets":2,"femaleToilets":1,"disabled":false,"diaperTable":false,"emergencyBell":false,"cctv":true,"managerTel":"0335622063","source":"public","category":"public"},{"id":"202442910000101657","name":"설암","lat":37.3272,"lng":128.793118,"jibunAddr":"강원특별자치도 정선군 화암면 몰운리 산109-1","openHours":"정시","maleToilets":2,"femaleToilets":1,"disabled":false,"diaperTable":false,"emergencyBell":false,"cctv":false,"managerTel":"0335602645","source":"public","category":"public"},{"id":"202442910000101646","name":"의용소방대","lat":37.341067,"lng":128.788653,"roadAddr":"강원특별자치도 정선군 화암면 그림바위길 32","openHours":"정시","maleToilets":5,"femaleToilets":3,"disabled":true,"diaperTable":false,"emergencyBell":false,"cctv":true,"managerTel":"0335621119","source":"public","category":"public"},{"id":"202442910000101649","name":"화암약수 본약수 화장실","lat":37.327373,"lng":128.784522,"roadAddr":"강원특별자치도 정선군 화암면 약수길 1300","openHours":"정시","maleToilets":2,"femaleToilets":1,"disabled":false,"diaperTable":false,"emergencyBell":false,"cctv":false,"managerTel":"0335603461","source":"public","category":"public"},{"id":"202442910000101663","name":"민둥산로 입구","lat":37.314639,"lng":128.77895,"roadAddr":"강원특별자치도 정선군 화암면 약수길 1146-2 앞","jibunAddr":"강원특별자치도 정선군 화암면 화암리 1235-6","openHours":"정시","maleToilets":2,"femaleToilets":1,"disabled":false,"diaperTable":false,"emergencyBell":false,"cctv":false,"managerTel":"0335602645","source":"public","category":"public"}]