[{"id":"202442910000101404","name":"여량면사무소1층","lat":37.471296,"lng":128.723056,"roadAddr":"강원특별자치도 정선군 여량면 서동로 2910-1","openHours":"연중무휴","maleToilets":3,"femaleToilets":1,"disabled":true,"diaperTable":false,"emergencyBell":false,"cctv":true,"managerTel":"0335602526","source":"public","category":"public"},{"id":"202442910000101412","name":"아우라지 무대뒤쪽","lat":37.474035,"lng":128.722357,"jibunAddr":"강원특별자치도 정선군 여량면 여량리 197","openHours":"00:00~23:59","maleToilets":4,"femaleToilets":4,"disabled":false,"diaperTable":false,"emergencyBell":true,"cctv":false,"managerTel":"0335602526","source":"public","category":"public"},{"id":"202442910000101413","name":"천년의 숲 화장실","lat":37.46415,"lng":128.750782,"jibunAddr":"강원특별자치도 정선군 여량면 유천리 863","openHours":"연중(상시)","maleToilets":3,"femaleToilets":2,"disabled":false,"diaperTable":false,"emergencyBell":true,"cctv":false,"managerTel":"0335602252","source":"public","category":"public"},{"id":"202442910000101405","name":"여량면사무소2층","lat":37.470587,"lng":128.720441,"roadAddr":"강원특별자치도 정선군 여량면 서동로 2885","openHours":"연중무휴","maleToilets":4,"femaleToilets":1,"disabled":true,"diaperTable":false,"emergencyBell":false,"cctv":true,"managerTel":"0335602526","source":"public","category":"public"},{"id":"202442910000101407","name":"구절리역","lat":37.472884,"lng":128.72204,"roadAddr":"강원특별자치도 정선군 여량면 여량6길 17","jibunAddr":"강원특별자치도 정선군 여량면 여량리 212-6","openHours":"09:00~18:00","maleToilets":9,"femaleToilets":7,"disabled":false,"diaperTable":false,"emergencyBell":false,"cctv":false,"managerTel":"15447788","source":"public","category":"public"},{"id":"202442910000101437","name":"곰바리 길 입구(여량4리 쪽)","lat":37.466778,"lng":128.744418,"jibunAddr":"강원특별자치도 정선군 여량면 여량리 산12-4 근처(봉정로)","openHours":"연중무휴","maleToilets":2,"femaleToilets":1,"disabled":false,"diaperTable":false,"emergencyBell":false,"cctv":false,"managerTel":"0335602526","source":"public","category":"public"},{"id":"202442910000101406","name":"아우라지역","lat":37.470587,"lng":128.720441,"roadAddr":"강원특별자치도 정선군 여량면 서동로 2885","openHours":"09:00~18:00","maleToilets":8,"femaleToilets":0,"disabled":false,"diaperTable":false,"emergencyBell":false,"cctv":true,"managerTel":"15447788","source":"public","category":"public"},{"id":"202442910000101411","name":"아우라지 광장(주차장)","lat":37.473876,"lng":128.723111,"jibunAddr":"강원특별자치도 정선군 여량면 여량리 201-2","openHours":"00:00~23:59","maleToilets":10,"femaleToilets":8,"disabled":true,"diaperTable":false,"emergencyBell":true,"cctv":false,"managerTel":"0335602526","source":"public","category":"public"}]