[{"id":"202442410000100187","name":"맹방해수욕장A","lat":37.389749,"lng":129.231979,"roadAddr":"강원특별자치도 삼척시 맹방해변로 228-239","jibunAddr":"강원특별자치도 삼척시 하맹방리 228-201","openHours":"상시","maleToilets":5,"femaleToilets":7,"disabled":true,"diaperTable":true,"emergencyBell":true,"cctv":true,"managerTel":"0335703074","source":"public","category":"public"},{"id":"202442410000100257","name":"덕산해수욕장 화장실","lat":37.385853,"lng":129.240963,"roadAddr":"강원특별자치도 삼척시 근덕면 덕산해변길 114","openHours":"상시","maleToilets":7,"femaleToilets":5,"disabled":false,"diaperTable":false,"emergencyBell":false,"cctv":false,"managerTel":"0335704806","source":"public","category":"public"},{"id":"202442410000100334","name":"근덕면사무소","lat":37.379142,"lng":129.225749,"roadAddr":"강원특별자치도 삼척시 근덕면 삼척로 3639","jibunAddr":"강원특별자치도 삼척시 근덕면 교가리 661-1","openHours":"정시","maleToilets":9,"femaleToilets":5,"disabled":true,"diaperTable":false,"emergencyBell":false,"cctv":false,"managerTel":"0335704802","source":"public","category":"public"},{"id":"202442410000100336","name":"교가주유소","lat":37.371982,"lng":129.227248,"roadAddr":"강원특별자치도 삼척시 근덕면 삼척로 3559","jibunAddr":"강원특별자치도 삼척시 근덕면 교가리 251-1","openHours":"상시","maleToilets":3,"femaleToilets":1,"disabled":false,"diaperTable":false,"emergencyBell":false,"cctv":false,"managerTel":"0335703832","source":"public","category":"public"},{"id":"202442410000100326","name":"산림조합주유소","lat":37.395158,"lng":129.216669,"roadAddr":"강원특별자치도 삼척시 근덕면 삼척로 3840","jibunAddr":"강원특별자치도 삼척시 근덕면 상맹방리 5-6","openHours":"상시","maleToilets":2,"femaleToilets":2,"disabled":false,"diaperTable":false,"emergencyBell":false,"cctv":false,"source":"public","category":"public"},{"id":"202442410000100332","name":"근덕종합문화센터","lat":37.382582,"lng":129.229306,"roadAddr":"강원특별자치도 삼척시 근덕면 맹방해변로 35","jibunAddr":"강원특별자치도 삼척시 근덕면 교가리 390-1","openHours":"정시","maleToilets":4,"femaleToilets":4,"disabled":false,"diaperTable":false,"emergencyBell":false,"cctv":false,"managerTel":"0335704802","source":"public","category":"public"},{"id":"202442410000100188","name":"맹방해수욕장B","lat":37.389749,"lng":129.231979,"roadAddr":"강원특별자치도 삼척시 맹방해변로 228-239","openHours":"불규칙","maleToilets":6,"femaleToilets":6,"disabled":true,"diaperTable":false,"emergencyBell":true,"cctv":true,"managerTel":"0335703074","source":"public","category":"public"},{"id":"202442410000100330","name":"농업기술센터","lat":37.383989,"lng":129.229424,"roadAddr":"강원특별자치도 삼척시 근덕면 맹방해변로 49","jibunAddr":"강원특별자치도 삼척시 근덕면 교가리 424-85","openHours":"정시","maleToilets":5,"femaleToilets":3,"disabled":true,"diaperTable":false,"emergencyBell":false,"cctv":false,"managerTel":"0335704232","source":"public","category":"public"},{"id":"202442410000100328","name":"명성주유소(근덕주유소)","lat":37.358167,"lng":129.231054,"roadAddr":"강원특별자치도 삼척시 근덕면 삼척로 3393","jibunAddr":"강원특별자치도 삼척시 근덕면 광태리 192-3","openHours":"상시","maleToilets":4,"femaleToilets":3,"disabled":false,"diaperTable":false,"emergencyBell":false,"cctv":false,"managerTel":"0335703832","source":"public","category":"public"},{"id":"202442410000100333","name":"근덕보건지소","lat":37.380435,"lng":129.228407,"roadAddr":"강원특별자치도 삼척시 근덕면 교가2길 10","jibunAddr":"강원특별자치도 삼척시 근덕면 교가리 1273-5","openHours":"정시","maleToilets":2,"femaleToilets":2,"disabled":false,"diaperTable":false,"emergencyBell":false,"cctv":false,"managerTel":"0335704351","source":"public","category":"public"},{"id":"202442410000100335","name":"근덕면복지회관","lat":37.380786,"lng":129.227843,"roadAddr":"강원특별자치도 삼척시 근덕면 교가2길 15","jibunAddr":"강원특별자치도 삼척시 근덕면 교가리 378-3","openHours":"정시","maleToilets":4,"femaleToilets":4,"disabled":false,"diaperTable":false,"emergencyBell":false,"cctv":false,"managerTel":"0335704802","source":"public","category":"public"},{"id":"202442410000100189","name":"맹방해수욕장C","lat":37.389749,"lng":129.231979,"roadAddr":"강원특별자치도 삼척시 맹방해변로 228-239","openHours":"상시","maleToilets":5,"femaleToilets":7,"disabled":true,"diaperTable":true,"emergencyBell":true,"cctv":true,"managerTel":"0335703074","source":"public","category":"public"}]