[{"id":"202542110000100327","name":"어달해변","lat":37.56703,"lng":129.119274,"roadAddr":"강원특별자치도 동해시 일출로 284","openHours":"상시","maleToilets":2,"femaleToilets":1,"disabled":false,"diaperTable":false,"emergencyBell":true,"cctv":true,"source":"public","category":"public"},{"id":"202542110000100329","name":"어달항","lat":37.561104,"lng":129.120027,"roadAddr":"강원특별자치도 동해시 일출로 212","openHours":"상시","maleToilets":2,"femaleToilets":3,"disabled":false,"diaperTable":false,"emergencyBell":false,"cctv":false,"source":"public","category":"public"},{"id":"202542110000100278","name":"향로봉 출장소(동해해양경찰서) 화장실","lat":37.541097,"lng":129.112844,"roadAddr":"강원특별자치도 동해시 임항로 130","openHours":"09:00~18:00","maleToilets":3,"femaleToilets":1,"disabled":false,"diaperTable":false,"emergencyBell":false,"cctv":false,"source":"public","category":"public"},{"id":"202542110000100328","name":"어달항회센터","lat":37.562571,"lng":129.120105,"roadAddr":"강원특별자치도 동해시 일출로 230","openHours":"상시","maleToilets":3,"femaleToilets":3,"disabled":false,"diaperTable":false,"emergencyBell":false,"cctv":false,"source":"public","category":"public"},{"id":"202542110000100304","name":"묵호어판장","lat":37.552042,"lng":129.116188,"roadAddr":"강원특별자치도 동해시 일출로 74","openHours":"상시","maleToilets":3,"femaleToilets":3,"disabled":false,"diaperTable":true,"emergencyBell":true,"cctv":true,"source":"public","category":"public"},{"id":"202542110000100388","name":"부곡 돌담마을 해안숲공원","lat":37.537145,"lng":129.113747,"roadAddr":"강원특별자치도 동해시 부곡복개로 111-1 (부곡동)","openHours":"상시","maleToilets":4,"femaleToilets":3,"disabled":false,"diaperTable":true,"emergencyBell":false,"cctv":false,"source":"public","category":"public"},{"id":"202542110000100334","name":"묵호항여객선터미널","lat":37.550599,"lng":129.11169,"roadAddr":"강원특별자치도 동해시 일출로 28-5","openHours":"상시","maleToilets":4,"femaleToilets":4,"disabled":false,"diaperTable":true,"emergencyBell":true,"cctv":true,"source":"public","category":"public"},{"id":"202542110000100301","name":"묵호항매립지(묵호수변공원)","lat":37.550945,"lng":129.117389,"roadAddr":"강원특별자치도 동해시 일출로 92-11","openHours":"상시","maleToilets":5,"femaleToilets":3,"disabled":true,"diaperTable":true,"emergencyBell":true,"cctv":true,"source":"public","category":"public"},{"id":"202542110000100325","name":"일출공원가리비","lat":37.556452,"lng":129.120774,"roadAddr":"강원특별자치도 동해시 일출로 151","openHours":"상시","maleToilets":10,"femaleToilets":5,"disabled":true,"diaperTable":true,"emergencyBell":true,"cctv":true,"source":"public","category":"public"},{"id":"202542110000100302","name":"묵호항 북방파제","lat":37.547648,"lng":129.117435,"roadAddr":"강원특별자치도 동해시 일출로 92-54","openHours":"상시","maleToilets":2,"femaleToilets":1,"disabled":true,"diaperTable":false,"emergencyBell":true,"cctv":false,"source":"public","category":"public"},{"id":"202542110000100303","name":"묵호할복장","lat":37.552069,"lng":129.114406,"roadAddr":"강원특별자치도 동해시 일출로 60","openHours":"상시","maleToilets":7,"femaleToilets":7,"disabled":true,"diaperTable":true,"emergencyBell":true,"cctv":true,"source":"public","category":"public"},{"id":"202542110000100320","name":"평릉공원","lat":37.534822,"lng":129.111803,"roadAddr":"강원특별자치도 동해시 평원로 135","openHours":"상시","maleToilets":2,"femaleToilets":2,"disabled":false,"diaperTable":false,"emergencyBell":true,"cctv":true,"source":"public","category":"public"},{"id":"202542110000100408","name":"묵호파출소 화장실","lat":37.547445,"lng":129.117341,"roadAddr":"강원특별자치도 동해시 일출로 92-56","openHours":"상시","maleToilets":3,"femaleToilets":1,"disabled":false,"diaperTable":false,"emergencyBell":false,"cctv":false,"source":"public","category":"public"},{"id":"202542110000100227","name":"묵호동행정복지센터","lat":37.558701,"lng":129.114261,"roadAddr":"강원특별자치도 동해시 논골길 78","openHours":"09:00~18:00","maleToilets":12,"femaleToilets":9,"disabled":true,"diaperTable":false,"emergencyBell":false,"cctv":false,"source":"public","category":"public"},{"id":"202542110000100336","name":"도째비골 스카이밸리 화장실","lat":37.554831,"lng":129.118474,"roadAddr":"강원특별자치도 동해시 해맞이길 289","openHours":"09:00~18:00","maleToilets":2,"femaleToilets":2,"disabled":true,"diaperTable":false,"emergencyBell":true,"cctv":false,"source":"public","category":"public"},{"id":"202542110000100305","name":"묵호등대 공용화장실","lat":37.554831,"lng":129.118474,"roadAddr":"강원특별자치도 동해시 해맞이길 289","openHours":"09:00~18:00","maleToilets":6,"femaleToilets":7,"disabled":true,"diaperTable":false,"emergencyBell":false,"cctv":false,"source":"public","category":"public"},{"id":"202542110000100394","name":"하평해변","lat":37.534881,"lng":129.115604,"roadAddr":"강원특별자치도 동해시 평릉동 산 32-13","openHours":"상시","maleToilets":3,"femaleToilets":1,"disabled":false,"diaperTable":false,"emergencyBell":false,"cctv":false,"source":"public","category":"public"},{"id":"202542110000100280","name":"어달출장소","lat":37.561208,"lng":129.120004,"roadAddr":"강원특별자치도 동해시 일출로 214","openHours":"09:00~18:00","maleToilets":3,"femaleToilets":1,"disabled":false,"diaperTable":false,"emergencyBell":false,"cctv":false,"source":"public","category":"public"},{"id":"202542110000100318","name":"해랑전망대","lat":37.553666,"lng":129.120136,"roadAddr":"강원특별자치도 동해시 일출로 122","openHours":"상시","maleToilets":2,"femaleToilets":2,"disabled":false,"diaperTable":false,"emergencyBell":true,"cctv":true,"source":"public","category":"public"}]