[{"id":"202542110000100395","name":"전천 이원교차로","lat":37.481405,"lng":129.103512,"roadAddr":"강원특별자치도 동해시 이원길 103 (이도동)","openHours":"상시","maleToilets":3,"femaleToilets":4,"disabled":true,"diaperTable":true,"emergencyBell":false,"cctv":false,"source":"public","category":"public"},{"id":"202542110000100296","name":"가원습지생태자연공원","lat":37.473023,"lng":129.10728,"roadAddr":"강원특별자치도 동해시 지가길 64","openHours":"상시","maleToilets":4,"femaleToilets":3,"disabled":true,"diaperTable":true,"emergencyBell":true,"cctv":true,"source":"public","category":"public"},{"id":"202542110000100384","name":"전천 청운교","lat":37.483219,"lng":129.103553,"roadAddr":"강원특별자치도 동해시 청운2길 4 (쇄운동)","openHours":"상시","maleToilets":5,"femaleToilets":4,"disabled":true,"diaperTable":true,"emergencyBell":false,"cctv":false,"source":"public","category":"public"},{"id":"202542110000100374","name":"쇄운주유소","lat":37.482096,"lng":129.081657,"roadAddr":"강원특별자치도 동해시 효자로 400 ?(쇄운동)?","openHours":"정시","maleToilets":2,"femaleToilets":1,"disabled":false,"diaperTable":false,"emergencyBell":false,"cctv":false,"source":"public","category":"public"},{"id":"202542110000100405","name":"동해고용센터 1층 화장실","lat":37.485284,"lng":129.111102,"roadAddr":"강원특별자치도 동해시 동해대로 4921","openHours":"정시","maleToilets":7,"femaleToilets":2,"disabled":true,"diaperTable":false,"emergencyBell":false,"cctv":true,"source":"public","category":"public"},{"id":"202442410000100181","name":"미로정원 화장실","lat":37.444119,"lng":129.070783,"roadAddr":"강원특별자치도 삼척시 미로면 동안로 540","jibunAddr":"강원특별자치도 삼척시 내미로리 167","openHours":"상시","maleToilets":7,"femaleToilets":3,"disabled":true,"diaperTable":true,"emergencyBell":false,"cctv":true,"managerTel":"0335754846","source":"public","category":"public"}]