[{"id":"202442010000101377","name":"옥계풋살경기장(크리스탈벨리센터내)","lat":37.608616,"lng":129.034658,"roadAddr":"강원특별자치도 강릉시 옥계면 현내중길 1","jibunAddr":"강원특별자치도 강릉시 옥계면 현내리 969-3","openHours":"상시","maleToilets":4,"femaleToilets":3,"disabled":false,"diaperTable":false,"emergencyBell":false,"cctv":false,"managerTel":"0336603633","source":"public","category":"public"},{"id":"202442010000101382","name":"옥계면사무소 1층","lat":37.612687,"lng":129.037955,"roadAddr":"강원특별자치도 강릉시 현내시장길 30","jibunAddr":"강원특별자치도 강릉시 옥계면 현내리 310","openHours":"정시","maleToilets":5,"femaleToilets":1,"disabled":true,"diaperTable":false,"emergencyBell":false,"cctv":false,"managerTel":"0336603627","source":"public","category":"public"},{"id":"202442010000101205","name":"옥계지소","lat":37.604089,"lng":129.035292,"roadAddr":"강원특별자치도 강릉시 옥계면 천남길24","jibunAddr":"강원특별자치도 강릉시 옥계면 천남리416","openHours":"정시","maleToilets":3,"femaleToilets":1,"disabled":true,"diaperTable":false,"emergencyBell":false,"cctv":false,"managerTel":"0336602791","source":"public","category":"public"},{"id":"202442010000101219","name":"옥계보건지소","lat":37.609514,"lng":129.032899,"roadAddr":"강원특별자치도 강릉시 옥계면 현내중길","jibunAddr":"강원특별자치도 강릉시 옥계면 현내리","openHours":"정시","maleToilets":2,"femaleToilets":1,"disabled":true,"diaperTable":false,"emergencyBell":true,"cctv":false,"managerTel":"0336602470","source":"public","category":"public"},{"id":"202442010000101374","name":"현내시장 화장실","lat":37.609115,"lng":129.034465,"roadAddr":"강원특별자치도 강릉시 옥계면 현내중길 8","jibunAddr":"강원특별자치도 강릉시 옥계면 현내리 419","openHours":"상시","maleToilets":5,"femaleToilets":4,"disabled":true,"diaperTable":true,"emergencyBell":true,"cctv":false,"managerTel":"0336603633","source":"public","category":"public"},{"id":"202442010000101482","name":"옥계(속초방향) 휴게소","lat":37.616326,"lng":129.060065,"roadAddr":"강원특별자치도 강릉시 옥계면 동해고속도로 320","jibunAddr":"강원특별자치도 강릉시 옥계면 주수리 88-5","openHours":"상시","maleToilets":21,"femaleToilets":21,"disabled":true,"diaperTable":true,"emergencyBell":true,"cctv":true,"managerTel":"0335341700","source":"public","category":"public"},{"id":"202442010000101485","name":"옥계(속초방향) 주유소","lat":37.616309,"lng":129.056911,"roadAddr":"강원특별자치도 강릉시 옥계면 동해고속도로 322","jibunAddr":"강원특별자치도 강릉시 옥계면 주수리 88-14","openHours":"상시","maleToilets":3,"femaleToilets":2,"disabled":true,"diaperTable":false,"emergencyBell":true,"cctv":false,"managerTel":"0335342100","source":"public","category":"public"},{"id":"202442010000101383","name":"옥계면사무소 2층","lat":37.612687,"lng":129.037955,"roadAddr":"강원특별자치도 강릉시 현내시장길 30","jibunAddr":"강원특별자치도 강릉시 옥계면 현내리 310","openHours":"정시","maleToilets":7,"femaleToilets":3,"disabled":false,"diaperTable":false,"emergencyBell":false,"cctv":false,"managerTel":"0336603627","source":"public","category":"public"}]