[{"id":"202442010000101317","name":"염전해변","lat":37.741126,"lng":128.984458,"roadAddr":"강원특별자치도 강릉시 강동면 염전길 157","jibunAddr":"강원특별자치도 강릉시 강동면 안인리 1-6","openHours":"상시","maleToilets":5,"femaleToilets":5,"disabled":true,"diaperTable":false,"emergencyBell":true,"cctv":false,"managerTel":"0336603611","source":"public","category":"public"},{"id":"202442010000101208","name":"강동보건지소","lat":37.718156,"lng":129.004337,"roadAddr":"강원특별자치도 강릉시 강동면 율곡로","jibunAddr":"강원특별자치도 강릉시 상시동리","openHours":"정시","maleToilets":3,"femaleToilets":2,"disabled":false,"diaperTable":false,"emergencyBell":true,"cctv":false,"managerTel":"0336602545","source":"public","category":"public"},{"id":"202442010000101319","name":"등명락가사","lat":37.71156,"lng":129.008411,"roadAddr":"강원특별자치도 강릉시 강동면 괘방산길 14-1","jibunAddr":"강원특별자치도 강릉시 강동면 정동진리 547-41","openHours":"상시","maleToilets":4,"femaleToilets":2,"disabled":true,"diaperTable":true,"emergencyBell":true,"cctv":false,"managerTel":"0336603611","source":"public","category":"public"},{"id":"202442010000101318","name":"안인진항","lat":37.735055,"lng":128.989607,"roadAddr":"강원특별자치도 강릉시 강동면 안인진길 34-3","jibunAddr":"강원특별자치도 강릉시 강동면 안인진리 314-1","openHours":"상시","maleToilets":4,"femaleToilets":3,"disabled":true,"diaperTable":true,"emergencyBell":true,"cctv":false,"managerTel":"0336603611","source":"public","category":"public"},{"id":"202442010000101323","name":"안보등산로","lat":37.732296,"lng":128.990481,"roadAddr":"강원특별자치도 강릉시 강동면 율곡로 1819","jibunAddr":"강원특별자치도 강릉시 강동면 안인진리 산39-2","openHours":"상시","maleToilets":5,"femaleToilets":3,"disabled":false,"diaperTable":false,"emergencyBell":true,"cctv":false,"managerTel":"0336603611","source":"public","category":"public"}]