[{"id":"202442810000100022","name":"2019평창동계올림픽기념공원","lat":37.66685,"lng":128.706728,"roadAddr":"강원특별자치도 평창군 대관령면 올림픽로 220","jibunAddr":"강원특별자치도 평창군 대관령면 횡계리 725","openHours":"상시","maleToilets":2,"femaleToilets":2,"disabled":true,"diaperTable":false,"emergencyBell":false,"cctv":true,"managerTel":"0333305214","source":"public","category":"public"},{"id":"202442810000100104","name":"차항주유소","lat":37.686905,"lng":128.695451,"roadAddr":"강원특별자치도 평창군 대관령면 경강로 5101","jibunAddr":"강원특별자치도 평창군 대관령면 차항리 30-6","openHours":"정시","maleToilets":3,"femaleToilets":2,"disabled":false,"diaperTable":false,"emergencyBell":false,"cctv":true,"managerTel":"0333358808","source":"public","category":"public"},{"id":"202442810000100058","name":"횡계시외버스터미널","lat":37.673108,"lng":128.70497,"roadAddr":"강원특별자치도 평창군 대관령면 대관령로 78","jibunAddr":"강원특별자치도 평창군 대관령면 횡계리 366-1","openHours":"정시","maleToilets":3,"femaleToilets":2,"disabled":true,"diaperTable":false,"emergencyBell":false,"cctv":false,"managerTel":"0333355289","source":"public","category":"public"},{"id":"202442810000100024","name":"스키점프경기장 - 점프타워","lat":37.663402,"lng":128.68238,"roadAddr":"강원특별자치도 평창군 대관령면 스포츠파크길 135","jibunAddr":"강원특별자치도 평창군 대관령면 수하리 240-19","openHours":"정시","maleToilets":11,"femaleToilets":5,"disabled":false,"diaperTable":false,"emergencyBell":false,"cctv":true,"managerTel":"0333369765","source":"public","category":"public"},{"id":"202442810000100023","name":"스키점프경기장-베이직하우스","lat":37.663402,"lng":128.68238,"roadAddr":"강원특별자치도 평창군 대관령면 스포츠파크길 135","jibunAddr":"강원특별자치도 평창군 대관령면 수하리 240-19","openHours":"정시","maleToilets":51,"femaleToilets":40,"disabled":true,"diaperTable":false,"emergencyBell":false,"cctv":true,"managerTel":"0333369765","source":"public","category":"public"},{"id":"202442810000100098","name":"대관령트레이닝센터","lat":37.673156,"lng":128.706304,"roadAddr":"강원특별자치도 대관령면 대관령로 83","jibunAddr":"강원특별자치도 평창군 대관령면 횡계리 335","openHours":"정시","maleToilets":10,"femaleToilets":7,"disabled":true,"diaperTable":true,"emergencyBell":false,"cctv":false,"managerTel":"0333302254","source":"public","category":"public"},{"id":"202442810000100036","name":"대관령119안전센터","lat":37.672581,"lng":128.701204,"roadAddr":"강원특별자치도 평창군 올림픽로 62-20","jibunAddr":"강원특별자치도 평창군 대관령면 횡계리 371-12","openHours":"정시","maleToilets":3,"femaleToilets":0,"disabled":true,"diaperTable":false,"emergencyBell":false,"cctv":false,"managerTel":"0333355119","source":"public","category":"public"},{"id":"202442810000100025","name":"알펜시아 스포츠파크 크로스컨트리 경기장","lat":37.664074,"lng":128.685137,"roadAddr":"강원특별자치도 평창군 대관령면 스포츠파크길 160","jibunAddr":"강원특별자치도 평창군 대관령면 수하리 240-115","openHours":"정시","maleToilets":17,"femaleToilets":9,"disabled":false,"diaperTable":false,"emergencyBell":false,"cctv":true,"managerTel":"0333369765","source":"public","category":"public"},{"id":"202442810000100102","name":"대관령생활체육관","lat":37.666318,"lng":128.705457,"roadAddr":"강원특별자치도 평창군 대관령면 올림픽로 226","jibunAddr":"강원특별자치도 평창군 대관령면 횡계리 726","openHours":"정시","maleToilets":8,"femaleToilets":3,"disabled":true,"diaperTable":false,"emergencyBell":false,"cctv":false,"managerTel":"0333302254","source":"public","category":"public"},{"id":"202442810000100027","name":"알펜시아 스포츠파크 바이애슬론 경기장","lat":37.662886,"lng":128.687742,"roadAddr":"강원특별자치도 평창군 대관령면 스포츠파크길 199","jibunAddr":"강원특별자치도 평창군 대관령면 수하리 241-8","openHours":"정시","maleToilets":20,"femaleToilets":11,"disabled":true,"diaperTable":false,"emergencyBell":false,"cctv":true,"managerTel":"0333369765","source":"public","category":"public"},{"id":"202442810000100122","name":"대관령농협주유소","lat":37.681793,"lng":128.698573,"roadAddr":"강원특별자치도 평창군 대관령면 경강로 5167","jibunAddr":"강원특별자치도 평창군 대관령면 횡계리 377-218","openHours":"상시","maleToilets":2,"femaleToilets":2,"disabled":false,"diaperTable":false,"emergencyBell":false,"cctv":true,"managerTel":"0333355656","source":"public","category":"public"},{"id":"202442810000100021","name":"2018평창동계올림픽기념관","lat":37.66685,"lng":128.706728,"roadAddr":"강원특별자치도 평창군 대관령면 올림픽로 220","jibunAddr":"강원특별자치도 평창군 대관령면 횡계리 725","openHours":"정시","maleToilets":12,"femaleToilets":17,"disabled":true,"diaperTable":false,"emergencyBell":true,"cctv":true,"managerTel":"0333305213","source":"public","category":"public"},{"id":"202442810000100116","name":"평창올림피아주유소","lat":37.680047,"lng":128.699887,"roadAddr":"강원특별자치도 평창군 대관령면 경강로 5191","jibunAddr":"강원특별자치도 평창군 대관령면 횡계리 377-337","openHours":"상시","maleToilets":2,"femaleToilets":0,"disabled":false,"diaperTable":false,"emergencyBell":false,"cctv":true,"managerTel":"0333362221","source":"public","category":"public"},{"id":"202442810000100041","name":"대관령도서관","lat":37.673977,"lng":128.705803,"roadAddr":"강원특별자치도 평창군 대관령면 대관령로 83-2","jibunAddr":"강원특별자치도 평창군 대관령면 횡계리 335-45","openHours":"정시","maleToilets":2,"femaleToilets":2,"disabled":true,"diaperTable":false,"emergencyBell":true,"cctv":false,"managerTel":"0333302845","source":"public","category":"public"}]