[{"id":"202442010000101329","name":"안목해변화장실","lat":37.773679,"lng":128.945974,"roadAddr":"강원특별자치도 강릉시  창해로14번길3","jibunAddr":"강원특별자치도 강릉시 견소동286-8","openHours":"상시","maleToilets":8,"femaleToilets":5,"disabled":true,"diaperTable":true,"emergencyBell":true,"cctv":false,"managerTel":"0336603893","source":"public","category":"public"},{"id":"202442010000101330","name":"죽도봉화장실","lat":37.769779,"lng":128.952741,"roadAddr":"강원특별자치도 강릉시  창해로14번길55-26","jibunAddr":"강원특별자치도 강릉시 견소동11-8","openHours":"상시","maleToilets":4,"femaleToilets":5,"disabled":true,"diaperTable":false,"emergencyBell":true,"cctv":false,"managerTel":"0336603894","source":"public","category":"public"},{"id":"202442010000101273","name":"풋살장화장실","lat":37.777511,"lng":128.939422,"roadAddr":"강원특별자치도 강릉시 해안로 56","jibunAddr":"강원특별자치도 강릉시 송정동 산81","openHours":"상시","maleToilets":3,"femaleToilets":2,"disabled":false,"diaperTable":false,"emergencyBell":false,"cctv":false,"managerTel":"0336603893","source":"public","category":"public"},{"id":"202442010000101332","name":"송정해변화장실","lat":37.780101,"lng":128.937132,"roadAddr":"강원특별자치도 강릉시 창해로118","jibunAddr":"강원특별자치도 강릉시 송정동 208-2","openHours":"상시","maleToilets":5,"femaleToilets":5,"disabled":true,"diaperTable":true,"emergencyBell":true,"cctv":true,"managerTel":"0336603897","source":"public","category":"public"},{"id":"202442010000101392","name":"남항진종점","lat":37.76387,"lng":128.954361,"roadAddr":"강원특별자치도 강릉시 공항길 127번길 65","jibunAddr":"강원특별자치도 강릉시 남항진동 산 7-3","openHours":"상시","maleToilets":5,"femaleToilets":4,"disabled":false,"diaperTable":false,"emergencyBell":true,"cctv":false,"managerTel":"0336603974","source":"public","category":"public"},{"id":"202442010000101391","name":"한송정","lat":37.759484,"lng":128.941459,"roadAddr":"강원특별자치도 강릉시 공항길 44번길 39","jibunAddr":"강원특별자치도 강릉시 병산동 407-2","openHours":"상시","maleToilets":3,"femaleToilets":2,"disabled":false,"diaperTable":false,"emergencyBell":true,"cctv":false,"managerTel":"0336603974","source":"public","category":"public"},{"id":"202442010000101393","name":"남항진갈매기","lat":37.766259,"lng":128.952244,"roadAddr":"강원특별자치도 강릉시 공항길 127번길 37","jibunAddr":"강원특별자치도 강릉시 남항진동 1-1","openHours":"상시","maleToilets":3,"femaleToilets":3,"disabled":true,"diaperTable":true,"emergencyBell":true,"cctv":false,"managerTel":"0336603974","source":"public","category":"public"}]