[{"id":"202442010000101316","name":"강동면사무소 청사 화장실","lat":37.728007,"lng":128.95392,"roadAddr":"강원특별자치도 강릉시 강동면 율곡로 2208","jibunAddr":"강원특별자치도 강릉시 강동면 상시동리 157-1","openHours":"정시","maleToilets":6,"femaleToilets":3,"disabled":true,"diaperTable":false,"emergencyBell":false,"cctv":true,"managerTel":"0336603611","source":"public","category":"public"},{"id":"202442010000101262","name":"월호평동 체육공원","lat":37.736643,"lng":128.935969,"roadAddr":"강원특별자치도 강릉시 운산길 20-9","jibunAddr":"강원특별자치도 강릉시 월호평동 487-4","openHours":"상시","maleToilets":2,"femaleToilets":2,"disabled":true,"diaperTable":false,"emergencyBell":false,"cctv":false,"managerTel":"0336602614","source":"public","category":"public"},{"id":"202442010000101346","name":"월호평동 체육공원 공중화장실","lat":37.736643,"lng":128.935969,"roadAddr":"강원특별자치도 강릉시 운산길 20-9","jibunAddr":"강원특별자치도 강릉시 월호평동 487-4","openHours":"상시","maleToilets":2,"femaleToilets":2,"disabled":true,"diaperTable":false,"emergencyBell":false,"cctv":false,"managerTel":"0336602614","source":"public","category":"public"},{"id":"202442010000101280","name":"강동면 상시동리 게이트볼장 화장실","lat":37.720566,"lng":128.944858,"roadAddr":"강원특별자치도 강동면 와천로 357-5","jibunAddr":"강원특별자치도 강동면 상시동리 537","openHours":"상시","maleToilets":2,"femaleToilets":1,"disabled":false,"diaperTable":false,"emergencyBell":false,"cctv":false,"managerTel":"0336603598","source":"public","category":"public"},{"id":"202442010000101478","name":"하슬라주유소","lat":37.717207,"lng":128.978631,"roadAddr":"강원특별자치도 강릉시 강동면 동해대로 1891","jibunAddr":"강원특별자치도 강릉시 강동면 모전리 124-7","openHours":"상시","maleToilets":2,"femaleToilets":2,"disabled":false,"diaperTable":false,"emergencyBell":false,"cctv":false,"managerTel":"0336443787","source":"public","category":"public"},{"id":"202442010000101477","name":"무지개주유소","lat":37.727458,"lng":128.958296,"roadAddr":"강원특별자치도 강릉시 강동면 율곡로 2170","jibunAddr":"강원특별자치도 강릉시 강동면 상시동리 21-3","openHours":"상시","maleToilets":2,"femaleToilets":2,"disabled":false,"diaperTable":false,"emergencyBell":false,"cctv":false,"managerTel":"0336454947","source":"public","category":"public"}]