[{"id":"202442010000101331","name":"송정동 게이트볼장 화장실","lat":37.771411,"lng":128.925418,"roadAddr":"강원특별자치도 강릉시 경강로2408번길14","jibunAddr":"강원특별자치도 강릉시 송정동558-9","openHours":"상시","maleToilets":2,"femaleToilets":2,"disabled":false,"diaperTable":false,"emergencyBell":false,"cctv":false,"managerTel":"0336603895","source":"public","category":"public"},{"id":"202442010000101451","name":"제일주유소","lat":37.766431,"lng":128.894906,"roadAddr":"강원특별자치도 강릉시 화부산로141번안길 6-6 (교동)","jibunAddr":"강원특별자치도 강릉시 교동 288-20","openHours":"상시","maleToilets":3,"femaleToilets":1,"disabled":false,"diaperTable":false,"emergencyBell":false,"cctv":false,"managerTel":"0336559696","source":"public","category":"public"},{"id":"202442010000101475","name":"SK강릉주유소","lat":37.771895,"lng":128.911596,"roadAddr":"강원특별자치도 강릉시 강릉대로 432 (포남동)","jibunAddr":"강원특별자치도 강릉시 포남동 1288","openHours":"09:00~22:00","maleToilets":3,"femaleToilets":2,"disabled":false,"diaperTable":false,"emergencyBell":false,"cctv":false,"managerTel":"0336525155","source":"public","category":"public"},{"id":"202442010000101299","name":"강릉아레나","lat":37.779318,"lng":128.897079,"roadAddr":"강원특별자치도 강릉시 수리골길102(포남동)","jibunAddr":"강원특별자치도 강릉시 포남동 산90-1","openHours":"09:00~18:00","maleToilets":112,"femaleToilets":82,"disabled":true,"diaperTable":true,"emergencyBell":true,"cctv":true,"managerTel":"0336603345","source":"public","category":"public"},{"id":"202442010000101174","name":"허균생가터 주차장","lat":37.790001,"lng":128.909712,"roadAddr":"강원특별자치도 강릉시 난설헌로 179","jibunAddr":"강원특별자치도 강릉시 초당동 479-1","openHours":"상시","maleToilets":4,"femaleToilets":1,"disabled":true,"diaperTable":false,"emergencyBell":false,"cctv":false,"managerTel":"0336603862","source":"public","category":"public"},{"id":"202442010000101173","name":"주민센터건너편 공중화장실","lat":37.791532,"lng":128.91628,"roadAddr":"강원특별자치도 강릉시 초당순두부길 100-1","jibunAddr":"강원특별자치도 강릉시 초당동 6-2","openHours":"상시","maleToilets":6,"femaleToilets":1,"disabled":true,"diaperTable":true,"emergencyBell":true,"cctv":false,"managerTel":"0336603862","source":"public","category":"public"},{"id":"202442010000101235","name":"역사문화공원","lat":37.755388,"lng":128.89815,"roadAddr":"강원특별자치도 강릉시 경강로 2112 (임당동)","jibunAddr":"강원특별자치도 강릉시 임당동 113-2 금학상가","openHours":"상시","maleToilets":1,"femaleToilets":1,"disabled":true,"diaperTable":true,"emergencyBell":true,"cctv":false,"managerTel":"0336405908","source":"public","category":"public"},{"id":"202442010000101399","name":"제7호 어린이공원 화장실","lat":37.769741,"lng":128.910382,"roadAddr":"강원특별자치도 강릉시 성덕포남로188번길 23","jibunAddr":"강원특별자치도 강릉시 포남동 1175-5","openHours":"평일","maleToilets":3,"femaleToilets":2,"disabled":false,"diaperTable":false,"emergencyBell":true,"cctv":false,"managerTel":"0336603817","source":"public","category":"public"},{"id":"202442010000101237","name":"월화거리 공영주차장","lat":37.754521,"lng":128.899432,"roadAddr":"강원특별자치도 강릉시 금성로 9 (성남동)","jibunAddr":"강원특별자치도 강릉시 성남동 40-4","openHours":"상시","maleToilets":4,"femaleToilets":2,"disabled":true,"diaperTable":false,"emergencyBell":true,"cctv":false,"managerTel":"0336405908","source":"public","category":"public"},{"id":"202442010000101182","name":"강릉시립중앙도서관 장애인화장실","lat":37.773007,"lng":128.912915,"roadAddr":"강원특별자치도 강릉시 포남동 1295-1","jibunAddr":"강원특별자치도 강릉시 포남동 1295-1","openHours":"도서관운영시간(09:00~23:00)","maleToilets":0,"femaleToilets":0,"disabled":true,"diaperTable":false,"emergencyBell":false,"cctv":true,"managerTel":"0336603271","source":"public","category":"public"},{"id":"202442010000101284","name":"강릉생활체육센터_1층","lat":37.773679,"lng":128.898418,"roadAddr":"강원특별자치도 강릉시 종합운동장길69(교동)","jibunAddr":"강원특별자치도 강릉시 교동 7-1","openHours":"05:00∼22:00","maleToilets":11,"femaleToilets":6,"disabled":true,"diaperTable":false,"emergencyBell":false,"cctv":false,"managerTel":"0336603349","source":"public","category":"public"},{"id":"202442010000101395","name":"풋살장(테니스장)","lat":37.757397,"lng":128.915043,"roadAddr":"강원특별자치도 강릉시 강변로 422","jibunAddr":"강원특별자치도 강릉시 입암동 525(중앙고 내)","openHours":"상시","maleToilets":4,"femaleToilets":2,"disabled":false,"diaperTable":false,"emergencyBell":false,"cctv":false,"managerTel":"0336603974","source":"public","category":"public"},{"id":"202442010000101484","name":"강릉세무서 민원실(1층)","lat":37.775886,"lng":128.895984,"roadAddr":"강원특별자치도 강릉시 수리골길 65","jibunAddr":"강원특별자치도 강릉시 교동 산68","openHours":"평일(09:00∼18:00)","maleToilets":11,"femaleToilets":6,"disabled":true,"diaperTable":false,"emergencyBell":false,"cctv":true,"managerTel":"0336109246","source":"public","category":"public"},{"id":"202442010000101127","name":"강릉스피드스케이팅경기장","lat":37.778915,"lng":128.900015,"roadAddr":"강원특별자치도 강릉시 수리골길 100","jibunAddr":"강원특별자치도 강릉시 포남동 250-2","openHours":"09:00∼18:00","maleToilets":112,"femaleToilets":110,"disabled":true,"diaperTable":true,"emergencyBell":true,"cctv":true,"managerTel":"0336538869","source":"public","category":"public"},{"id":"202442010000101358","name":"남대천강릉교밑","lat":37.753625,"lng":128.901678,"roadAddr":"강원특별자치도 강릉시 제방길 112","jibunAddr":"강원특별자치도 강릉시 성산면 성남동 3-6","openHours":"상시","maleToilets":2,"femaleToilets":2,"disabled":false,"diaperTable":false,"emergencyBell":false,"cctv":false,"managerTel":"0336603748","source":"public","category":"public"},{"id":"202442010000101150","name":"삼일기념공원","lat":37.791781,"lng":128.89607,"roadAddr":"강원특별자치도 강릉시 경포로 330","jibunAddr":"강원특별자치도 강릉시 저동 144-3","openHours":"상시","maleToilets":4,"femaleToilets":2,"disabled":true,"diaperTable":true,"emergencyBell":true,"cctv":false,"managerTel":"0336405353","source":"public","category":"public"},{"id":"202442010000101396","name":"입암동게이트볼장","lat":37.759367,"lng":128.910499,"roadAddr":"강원특별자치도 강릉시 강변로 427","jibunAddr":"강원특별자치도 강릉시 입암동 572-3","openHours":"상시","maleToilets":4,"femaleToilets":5,"disabled":false,"diaperTable":false,"emergencyBell":true,"cctv":false,"managerTel":"0336603974","source":"public","category":"public"},{"id":"202442010000101304","name":"강릉대도호부관아 임영관 화장실","lat":37.752947,"lng":128.891906,"roadAddr":"강원특별자치도 강릉시 임영로131번길 6","jibunAddr":"강원특별자치도 강릉시 용강동 58-1","openHours":"08:00∼19:00","maleToilets":2,"femaleToilets":3,"disabled":true,"diaperTable":false,"emergencyBell":false,"cctv":false,"managerTel":"0336405119","source":"public","category":"public"},{"id":"202442010000101295","name":"실내롤러스케이트장","lat":37.772702,"lng":128.892481,"roadAddr":"강원특별자치도 강릉시 종합운동장길72-25(교동)","jibunAddr":"강원특별자치도 강릉시 교동 369","openHours":"10:00~21:00","maleToilets":4,"femaleToilets":2,"disabled":true,"diaperTable":false,"emergencyBell":false,"cctv":false,"managerTel":"0336470222","source":"public","category":"public"},{"id":"202442010000101228","name":"6호어린이공원","lat":37.768667,"lng":128.912719,"roadAddr":"강원특별자치도 강릉시 성덕포남로168번길 29","jibunAddr":"강원특별자치도 강릉시 포남동 1182-9","openHours":"상시","maleToilets":3,"femaleToilets":2,"disabled":false,"diaperTable":false,"emergencyBell":true,"cctv":false,"managerTel":"0336405908","source":"public","category":"public"},{"id":"202442010000101453","name":"문선빌딩","lat":37.755674,"lng":128.897183,"roadAddr":"강원특별자치도 강릉시 경강로 2109","jibunAddr":"강원특별자치도 강릉시 임당동 112-1","openHours":"90:00∼21:00","maleToilets":5,"femaleToilets":3,"disabled":false,"diaperTable":false,"emergencyBell":false,"cctv":false,"managerTel":"0336452171","source":"public","category":"public"},{"id":"202442010000101338","name":"포남2동주민센터 1층","lat":37.77278,"lng":128.913386,"roadAddr":"강원특별자치도 강릉시  하평2길29","jibunAddr":"강원특별자치도 강릉시 포남동 1295-2","openHours":"09:00~18:00","maleToilets":2,"femaleToilets":2,"disabled":true,"diaperTable":false,"emergencyBell":false,"cctv":false,"managerTel":"0336603846","source":"public","category":"public"},{"id":"202442010000101189","name":"초당작은도서관 장애인 화장실","lat":37.787332,"lng":128.912198,"roadAddr":"강원특별자치도 강릉시 연당길116","jibunAddr":"강원특별자치도 강릉시 초당동 232-2","openHours":"도서관운영시간(09:00∼18:00)","maleToilets":0,"femaleToilets":0,"disabled":false,"diaperTable":false,"emergencyBell":true,"cctv":false,"managerTel":"0336404542","source":"public","category":"public"},{"id":"202442010000101473","name":"강릉주유소","lat":37.755271,"lng":128.896505,"roadAddr":"강원특별자치도 강릉시 경강로 2101 (임당동)","jibunAddr":"강원특별자치도 강릉시 임당동 86-6","openHours":"09:00~22:00","maleToilets":1,"femaleToilets":1,"disabled":false,"diaperTable":false,"emergencyBell":false,"cctv":false,"managerTel":"0336412539","source":"public","category":"public"},{"id":"202442010000101293","name":"남대천 월드구장","lat":37.770164,"lng":128.928309,"roadAddr":"강원특별자치도 강릉시 입암동 702","jibunAddr":"강원특별자치도 강릉시 입암동 702","openHours":"상시","maleToilets":5,"femaleToilets":3,"disabled":false,"diaperTable":false,"emergencyBell":true,"cctv":false,"managerTel":"0336603349","source":"public","category":"public"},{"id":"202442010000101167","name":"강릉시 평생학습관(1층)","lat":37.77331,"lng":128.913267,"roadAddr":"강원특별자치도 강릉시 강릉대로 454(포남동)","jibunAddr":"강원특별자치도 강릉시 포남동 1295","openHours":"(평일)08:00~18:00","maleToilets":4,"femaleToilets":4,"disabled":true,"diaperTable":false,"emergencyBell":false,"cctv":false,"managerTel":"0336603288","source":"public","category":"public"},{"id":"202442010000101185","name":"어울림작은도서관","lat":37.76301,"lng":128.908426,"roadAddr":"강원특별자치도 강릉시 성덕포남로 149번길 42","jibunAddr":"강원특별자치도 강릉시 포남동 1005-367","openHours":"도서관운영시간(09:00∼18:00)","maleToilets":3,"femaleToilets":2,"disabled":true,"diaperTable":false,"emergencyBell":false,"cctv":true,"managerTel":"0336603261","source":"public","category":"public"},{"id":"202442010000101480","name":"안국주유소","lat":37.771281,"lng":128.9,"roadAddr":"강원특별자치도 강릉시 가작로 227 (교동)","jibunAddr":"강원특별자치도 강릉시 교동 26-31","openHours":"상시","maleToilets":3,"femaleToilets":2,"disabled":false,"diaperTable":false,"emergencyBell":false,"cctv":false,"managerTel":"0336536051","source":"public","category":"public"},{"id":"202442010000101254","name":"작은공연장 단 화장실","lat":37.750957,"lng":128.893043,"roadAddr":"강원특별자치도 강릉시 경강로 2046번길 9","jibunAddr":"강원특별자치도 강릉시 명주동 12-2","openHours":"09:00∼18:00","maleToilets":5,"femaleToilets":3,"disabled":true,"diaperTable":false,"emergencyBell":false,"cctv":false,"managerTel":"0336476804","source":"public","category":"public"},{"id":"202442010000101339","name":"포남2동주민센터 2층","lat":37.77278,"lng":128.913386,"roadAddr":"강원특별자치도 강릉시  하평2길29","jibunAddr":"강원특별자치도 강릉시 포남동 1295-2","openHours":"09:00~18:00","maleToilets":5,"femaleToilets":2,"disabled":false,"diaperTable":false,"emergencyBell":false,"cctv":false,"managerTel":"0336603846","source":"public","category":"public"},{"id":"202442010000101502","name":"강릉원예농협하나로마트 초당점","lat":37.779829,"lng":128.916204,"roadAddr":"강원특별자치도 강릉시 산양큰길 29 (포남동)","jibunAddr":"강원특별자치도 강릉시 포남동 1208","openHours":"09:00~22:00","maleToilets":6,"femaleToilets":3,"disabled":false,"diaperTable":false,"emergencyBell":false,"cctv":false,"managerTel":"0336558816","source":"public","category":"public"},{"id":"202442010000101357","name":"성남택시부광장","lat":37.75114,"lng":128.894814,"roadAddr":"강원특별자치도 강릉시 임영로 104","jibunAddr":"강원특별자치도 강릉시 성산면 성남동 254-2","openHours":"상시","maleToilets":3,"femaleToilets":3,"disabled":false,"diaperTable":false,"emergencyBell":false,"cctv":false,"managerTel":"0336603748","source":"public","category":"public"},{"id":"202442010000101342","name":"교2동주민센터 3층","lat":37.767964,"lng":128.892375,"roadAddr":"강원특별자치도 강릉시 율곡로 2974","jibunAddr":"강원특별자치도 강릉시 교동 723-5","openHours":"(평일)09:00~18:00","maleToilets":3,"femaleToilets":2,"disabled":false,"diaperTable":false,"emergencyBell":false,"cctv":false,"managerTel":"0336603799","source":"public","category":"public"},{"id":"202442010000101397","name":"우드볼장","lat":37.769308,"lng":128.925996,"roadAddr":"강원특별자치도 강릉시 강변로 611","jibunAddr":"강원특별자치도 강릉시 입암동 706-0","openHours":"상시","maleToilets":4,"femaleToilets":2,"disabled":false,"diaperTable":false,"emergencyBell":true,"cctv":false,"managerTel":"0336603974","source":"public","category":"public"},{"id":"202442010000101500","name":"강릉양돈하나로마트 성덕점","lat":37.757121,"lng":128.924535,"roadAddr":"강원특별자치도 강릉시 성덕로 277 (입암동)","jibunAddr":"강원특별자치도 강릉시 입암동 183-2","openHours":"09:00~22:00","maleToilets":7,"femaleToilets":4,"disabled":false,"diaperTable":false,"emergencyBell":false,"cctv":false,"managerTel":"0336472212","source":"public","category":"public"},{"id":"202442010000101264","name":"초당동 게이트볼장","lat":37.785561,"lng":128.917207,"roadAddr":"강원특별자치도 강릉시 초당원길54번길 28","jibunAddr":"강원특별자치도 강릉시 초당동 109","openHours":"상시","maleToilets":2,"femaleToilets":1,"disabled":false,"diaperTable":false,"emergencyBell":false,"cctv":false,"managerTel":"0336603865","source":"public","category":"public"},{"id":"202442010000101166","name":"강릉시 평생학습관(지하)","lat":37.77331,"lng":128.913267,"roadAddr":"강원특별자치도 강릉시 강릉대로 454(포남동)","jibunAddr":"강원특별자치도 강릉시 포남동 1295","openHours":"(평일)08:00~18:00","maleToilets":4,"femaleToilets":3,"disabled":true,"diaperTable":false,"emergencyBell":false,"cctv":false,"managerTel":"0336603288","source":"public","category":"public"},{"id":"202442010000101471","name":"올림피아주유소","lat":37.762925,"lng":128.907094,"roadAddr":"강원특별자치도 강릉시 경강로 2228 (포남동)","jibunAddr":"강원특별자치도 강릉시 포남동 1141-2","openHours":"상시","maleToilets":2,"femaleToilets":2,"disabled":false,"diaperTable":false,"emergencyBell":false,"cctv":false,"managerTel":"0336458887","source":"public","category":"public"},{"id":"202442010000101291","name":"남대천 야구장_성인","lat":37.770372,"lng":128.933381,"roadAddr":"강원특별자치도 강릉시 병산동 643-1","jibunAddr":"강원특별자치도 강릉시 병산동 643-1","openHours":"상시","maleToilets":5,"femaleToilets":2,"disabled":false,"diaperTable":false,"emergencyBell":false,"cctv":false,"managerTel":"0336603349","source":"public","category":"public"},{"id":"202442010000101252","name":"강릉아트센터 화장실\n(소공연장 2층)","lat":37.771712,"lng":128.895294,"roadAddr":"강원특별자치도 강릉시  종합운동장길84","jibunAddr":"강원특별자치도 강릉시 교동408","openHours":"09:00~18:00","maleToilets":12,"femaleToilets":13,"disabled":true,"diaperTable":false,"emergencyBell":false,"cctv":false,"managerTel":"0336606800","source":"public","category":"public"},{"id":"202442010000101248","name":"강릉아트센터 화장실\n(사임당홀 1층)","lat":37.771712,"lng":128.895294,"roadAddr":"강원특별자치도 강릉시  종합운동장길84","jibunAddr":"강원특별자치도 강릉시 교동408","openHours":"09:00~18:00","maleToilets":4,"femaleToilets":3,"disabled":true,"diaperTable":false,"emergencyBell":false,"cctv":false,"managerTel":"0336606800","source":"public","category":"public"},{"id":"202442010000101187","name":"월대산작은도서관  장애인 화장실","lat":37.763156,"lng":128.918244,"roadAddr":"강원특별자치도 강릉시 성덕포남로 80-21","jibunAddr":"강원특별자치도 강릉시 입암동 58-2","openHours":"도서관운영시간(09:00∼18:00)","maleToilets":0,"femaleToilets":0,"disabled":false,"diaperTable":false,"emergencyBell":false,"cctv":false,"managerTel":"0336404543","source":"public","category":"public"},{"id":"202442010000101136","name":"중앙시장번영회지하화장실","lat":37.754017,"lng":128.898612,"roadAddr":"강원특별자치도 강릉시 금성로 21","jibunAddr":"강원특별자치도 강릉시 성남동 50번지","openHours":"05:00~21:00","maleToilets":5,"femaleToilets":4,"disabled":false,"diaperTable":false,"emergencyBell":false,"cctv":false,"managerTel":"0336482285","source":"public","category":"public"},{"id":"202442010000101452","name":"성덕주유소","lat":37.751307,"lng":128.912514,"roadAddr":"강원특별자치도 강릉시 입암로 47 (입암동)","jibunAddr":"강원특별자치도 강릉시 입암동 423-2","openHours":"상시","maleToilets":2,"femaleToilets":1,"disabled":false,"diaperTable":false,"emergencyBell":false,"cctv":false,"managerTel":"0336425182","source":"public","category":"public"},{"id":"202442010000101256","name":"중앙고 풋살장 화장실","lat":37.757397,"lng":128.915043,"roadAddr":"강원특별자치도 강릉시 강변로 422 (중앙고등학교 내 풋살장)","jibunAddr":"강원특별자치도 강릉시 입암동 533","openHours":"상시","maleToilets":4,"femaleToilets":2,"disabled":false,"diaperTable":false,"emergencyBell":false,"cctv":true,"managerTel":"0336603957","source":"public","category":"public"},{"id":"202442010000101137","name":"강릉성남시장","lat":37.753737,"lng":128.899051,"roadAddr":"강원특별자치도 강릉시 중앙시장길 24-2(성남동)","jibunAddr":"강원특별자치도 강릉시 성남동 53-8","openHours":"상시","maleToilets":6,"femaleToilets":3,"disabled":true,"diaperTable":false,"emergencyBell":false,"cctv":true,"managerTel":"0336470006","source":"public","category":"public"},{"id":"202442010000101162","name":"강릉녹색도시체험센터 통합컨벤션동","lat":37.789935,"lng":128.907952,"roadAddr":"강원특별자치도 강릉시 난설헌로 131","jibunAddr":"강원특별자치도 강릉시 초당동 505","openHours":"정시(08:00∼18:00)","maleToilets":5,"femaleToilets":3,"disabled":true,"diaperTable":true,"emergencyBell":true,"cctv":false,"managerTel":"0339230201","source":"public","category":"public"},{"id":"202442010000101188","name":"초당작은도서관","lat":37.787332,"lng":128.912198,"roadAddr":"강원특별자치도 강릉시 연당길116","jibunAddr":"강원특별자치도 강릉시 초당동 232-2","openHours":"도서관운영시간(09:00∼18:00)","maleToilets":2,"femaleToilets":1,"disabled":false,"diaperTable":false,"emergencyBell":false,"cctv":false,"managerTel":"0336404542","source":"public","category":"public"},{"id":"202442010000101186","name":"월대산작은도서관","lat":37.763156,"lng":128.918244,"roadAddr":"강원특별자치도 강릉시 성덕포남로 80-21","jibunAddr":"강원특별자치도 강릉시 입암동 58-2","openHours":"도서관운영시간(09:00∼18:00)","maleToilets":2,"femaleToilets":1,"disabled":false,"diaperTable":false,"emergencyBell":false,"cctv":false,"managerTel":"0336404543","source":"public","category":"public"},{"id":"202442010000101184","name":"성덕반딧불작은도서관 장애인 화장실","lat":37.755916,"lng":128.908106,"roadAddr":"강원특별자치도 강릉시 강중길 55","jibunAddr":"강원특별자치도 강릉시 입암동 632-6","openHours":"도서관운영시간(09:00~18:00)","maleToilets":0,"femaleToilets":0,"disabled":false,"diaperTable":false,"emergencyBell":false,"cctv":false,"managerTel":"0336603260","source":"public","category":"public"},{"id":"202442010000101439","name":"남대천 공중화장실","lat":37.754484,"lng":128.9028,"roadAddr":"강원특별자치도 강릉시 제방길 128","jibunAddr":"강원특별자치도 강릉시 성남동 3-11","openHours":"상시","maleToilets":3,"femaleToilets":2,"disabled":false,"diaperTable":false,"emergencyBell":false,"cctv":false,"managerTel":"0336603754","source":"public","category":"public"},{"id":"202442010000101175","name":"초당동주민센터","lat":37.791833,"lng":128.915931,"roadAddr":"강원특별자치도 강릉시 초당순두부길 99","jibunAddr":"강원특별자치도 강릉시 2-2 외 4","openHours":"09:00~18:00","maleToilets":4,"femaleToilets":1,"disabled":true,"diaperTable":false,"emergencyBell":false,"cctv":false,"managerTel":"0336603863","source":"public","category":"public"},{"id":"202442010000101231","name":"18호어린이공원","lat":37.771268,"lng":128.917249,"roadAddr":"강원특별자치도 강릉시 하평4길 14","jibunAddr":"강원특별자치도 강릉시 포남동 1307-4","openHours":"상시","maleToilets":0,"femaleToilets":0,"disabled":false,"diaperTable":false,"emergencyBell":true,"cctv":false,"managerTel":"0336405908","source":"public","category":"public"},{"id":"202442010000101236","name":"월화공원","lat":37.753038,"lng":128.900578,"roadAddr":"강원특별자치도 강릉시 중앙시장4길 24-2","jibunAddr":"강원특별자치도 강릉시 성남동 65-2","openHours":"상시","maleToilets":3,"femaleToilets":2,"disabled":false,"diaperTable":false,"emergencyBell":true,"cctv":false,"managerTel":"0336405908","source":"public","category":"public"},{"id":"202442010000101466","name":"삼거리주유소","lat":37.762658,"lng":128.892401,"roadAddr":"강원특별자치도 강릉시 임영로 242","jibunAddr":"강원특별자치도 강릉시 교동 810-11","openHours":"상시","maleToilets":2,"femaleToilets":1,"disabled":false,"diaperTable":false,"emergencyBell":false,"cctv":false,"managerTel":"0336460426","source":"public","category":"public"},{"id":"202442010000101285","name":"강릉생활체육센터_2층","lat":37.773679,"lng":128.898418,"roadAddr":"강원특별자치도 강릉시 종합운동장길69(교동)","jibunAddr":"강원특별자치도 강릉시 교동 7-1","openHours":"05:00∼22:00","maleToilets":7,"femaleToilets":4,"disabled":true,"diaperTable":false,"emergencyBell":false,"cctv":false,"managerTel":"0336603349","source":"public","category":"public"},{"id":"202442010000101283","name":"야외공연장","lat":37.773679,"lng":128.898418,"roadAddr":"강원특별자치도 강릉시 종합운동장길69(교동)","jibunAddr":"강원특별자치도 강릉시 교동 412-1","openHours":"상시","maleToilets":4,"femaleToilets":2,"disabled":false,"diaperTable":false,"emergencyBell":true,"cctv":false,"managerTel":"0336603349","source":"public","category":"public"},{"id":"202442010000101229","name":"8호어린이공원","lat":37.766799,"lng":128.907282,"roadAddr":"강원특별자치도 강릉시 남구길24번길 25 (포남동)","jibunAddr":"강원특별자치도 강릉시 포남동 1159","openHours":"상시","maleToilets":3,"femaleToilets":2,"disabled":false,"diaperTable":false,"emergencyBell":true,"cctv":false,"managerTel":"0336405908","source":"public","category":"public"},{"id":"202442010000101135","name":"중앙시장번영회2층화장실","lat":37.754017,"lng":128.898612,"roadAddr":"강원특별자치도 강릉시 금성로 21","jibunAddr":"강원특별자치도 강릉시 성남동 50번지","openHours":"05:00~21:00","maleToilets":11,"femaleToilets":8,"disabled":true,"diaperTable":false,"emergencyBell":false,"cctv":true,"managerTel":"0336482285","source":"public","category":"public"},{"id":"202442010000101282","name":"강릉종합운동장_2층","lat":37.773679,"lng":128.898418,"roadAddr":"강원특별자치도 강릉시 종합운동장길69(교동)","jibunAddr":"강원특별자치도 강릉시 교동 2-10","openHours":"행사시 개방","maleToilets":193,"femaleToilets":115,"disabled":false,"diaperTable":false,"emergencyBell":false,"cctv":false,"managerTel":"0336603349","source":"public","category":"public"},{"id":"202442010000101250","name":"강릉아트센터 화장실\n(사임당홀 3층)","lat":37.771712,"lng":128.895294,"roadAddr":"강원특별자치도 강릉시  종합운동장길84","jibunAddr":"강원특별자치도 강릉시 교동408","openHours":"09:00~18:00","maleToilets":9,"femaleToilets":10,"disabled":false,"diaperTable":false,"emergencyBell":false,"cctv":false,"managerTel":"0336606800","source":"public","category":"public"},{"id":"202442010000101488","name":"강릉지역SW융합지원센터 본관(1층)","lat":37.768031,"lng":128.915425,"roadAddr":"강원특별자치도 강릉시 강강로2326번길 4","jibunAddr":"강원특별자치도 강릉시 포남동 1278-141","openHours":"평일(09:00∼18:00)","maleToilets":13,"femaleToilets":6,"disabled":true,"diaperTable":false,"emergencyBell":true,"cctv":false,"managerTel":"0336503385","source":"public","category":"public"},{"id":"202442010000101297","name":"강릉아이스링크_1층","lat":37.773717,"lng":128.892557,"roadAddr":"강원특별자치도 강릉시 종합운동장길32(교동)","jibunAddr":"강원특별자치도 강릉시 교동 632","openHours":"09:00~18:00","maleToilets":13,"femaleToilets":5,"disabled":true,"diaperTable":false,"emergencyBell":true,"cctv":false,"managerTel":"0336478388","source":"public","category":"public"},{"id":"202442010000101126","name":"강릉하키센터","lat":37.776243,"lng":128.901246,"roadAddr":"강원특별자치도 강릉시 수리골길 98","jibunAddr":"강원특별자치도 강릉시 포남동 산105","openHours":"09:00∼18:00","maleToilets":86,"femaleToilets":88,"disabled":true,"diaperTable":true,"emergencyBell":true,"cctv":true,"managerTel":"0336538869","source":"public","category":"public"},{"id":"202442010000101340","name":"교2동주민센터 1층","lat":37.767964,"lng":128.892375,"roadAddr":"강원특별자치도 강릉시 율곡로 2974","jibunAddr":"강원특별자치도 강릉시 교동 723-5","openHours":"(평일)09:00~18:00","maleToilets":3,"femaleToilets":2,"disabled":false,"diaperTable":false,"emergencyBell":false,"cctv":true,"managerTel":"0336603799","source":"public","category":"public"},{"id":"202442010000101305","name":"칠사당 화장실","lat":37.751906,"lng":128.891877,"roadAddr":"강원특별자치도 강릉시 경강로 2045","jibunAddr":"강원특별자치도 강릉시 명주동 38-1","openHours":"08:00∼19:00","maleToilets":2,"femaleToilets":3,"disabled":true,"diaperTable":false,"emergencyBell":false,"cctv":false,"managerTel":"0336405119","source":"public","category":"public"},{"id":"202442010000101272","name":"게이트볼장화장실","lat":37.771411,"lng":128.925418,"roadAddr":"강원특별자치도 강릉시 경강로2408번길 14","jibunAddr":"강원특별자치도 강릉시 송정동 558-9","openHours":"상시","maleToilets":2,"femaleToilets":2,"disabled":false,"diaperTable":false,"emergencyBell":false,"cctv":false,"managerTel":"0336603893","source":"public","category":"public"},{"id":"202442010000101249","name":"강릉아트센터 화장실\n(사임당홀 2층)","lat":37.771712,"lng":128.895294,"roadAddr":"강원특별자치도 강릉시  종합운동장길84","jibunAddr":"강원특별자치도 강릉시 교동408","openHours":"09:00~18:00","maleToilets":16,"femaleToilets":20,"disabled":true,"diaperTable":true,"emergencyBell":false,"cctv":false,"managerTel":"0336606800","source":"public","category":"public"},{"id":"202442010000101394","name":"월대산정상","lat":37.761271,"lng":128.920501,"roadAddr":"강원특별자치도 강릉시 월대산로 97","jibunAddr":"강원특별자치도 강릉시 입암동 산6","openHours":"상시","maleToilets":2,"femaleToilets":1,"disabled":false,"diaperTable":false,"emergencyBell":false,"cctv":false,"managerTel":"0336603974","source":"public","category":"public"},{"id":"202442010000101499","name":"홈플러스 강릉점","lat":37.755636,"lng":128.898598,"roadAddr":"강원특별자치도 강릉시 경강로 2120, 씨네몰 (옥천동)","jibunAddr":"강원특별자치도 강릉시 옥천동 189","openHours":"10:00~22:00","maleToilets":7,"femaleToilets":5,"disabled":true,"diaperTable":true,"emergencyBell":true,"cctv":false,"managerTel":"0336498000","source":"public","category":"public"},{"id":"202442010000101344","name":"강남게이트볼장공중화장실","lat":37.751814,"lng":128.902164,"roadAddr":"강원특별자치도 강릉시 강변로 313","jibunAddr":"강원특별자치도 강릉시 노암동 826-1","openHours":"상시","maleToilets":3,"femaleToilets":2,"disabled":false,"diaperTable":false,"emergencyBell":true,"cctv":false,"managerTel":"0336602614","source":"public","category":"public"},{"id":"202442010000101298","name":"강릉아이스링크_2층","lat":37.773717,"lng":128.892557,"roadAddr":"강원특별자치도 강릉시 종합운동장길32(교동)","jibunAddr":"강원특별자치도 강릉시 교동 632","openHours":"행사시 개방","maleToilets":57,"femaleToilets":30,"disabled":true,"diaperTable":false,"emergencyBell":true,"cctv":false,"managerTel":"0336478388","source":"public","category":"public"},{"id":"202442010000101470","name":"송정주유소","lat":37.771988,"lng":128.921877,"roadAddr":"강원특별자치도 강릉시 경강로 2395 (송정동)","jibunAddr":"강원특별자치도 강릉시 송정동 821-18","openHours":"상시","maleToilets":2,"femaleToilets":2,"disabled":false,"diaperTable":false,"emergencyBell":false,"cctv":false,"managerTel":"0336519771","source":"public","category":"public"},{"id":"202442010000101281","name":"강릉종합운동장_1층","lat":37.773679,"lng":128.898418,"roadAddr":"강원특별자치도 강릉시 종합운동장길69(교동)","jibunAddr":"강원특별자치도 강릉시 교동 2-10","openHours":"05:00∼22:00","maleToilets":41,"femaleToilets":28,"disabled":true,"diaperTable":false,"emergencyBell":true,"cctv":false,"managerTel":"0336603349","source":"public","category":"public"},{"id":"202442010000101341","name":"교2동주민센터 2층","lat":37.767964,"lng":128.892375,"roadAddr":"강원특별자치도 강릉시 율곡로 2974","jibunAddr":"강원특별자치도 강릉시 교동 723-5","openHours":"(평일)09:00~18:00","maleToilets":4,"femaleToilets":4,"disabled":true,"diaperTable":false,"emergencyBell":false,"cctv":true,"managerTel":"0336603799","source":"public","category":"public"},{"id":"202442010000101232","name":"19호어린이공원","lat":37.770845,"lng":128.914384,"roadAddr":"강원특별자치도 강릉시 하평길 43","jibunAddr":"강원특별자치도 강릉시 포남동 1293-3","openHours":"상시","maleToilets":2,"femaleToilets":1,"disabled":false,"diaperTable":false,"emergencyBell":true,"cctv":false,"managerTel":"0336405908","source":"public","category":"public"},{"id":"202442010000101257","name":"남대천 게이트볼장 화장실","lat":37.759367,"lng":128.910499,"roadAddr":"강원특별자치도 강릉시 강변로 427","jibunAddr":"강원특별자치도 강릉시 입암동 572-3(게이트볼장)","openHours":"상시","maleToilets":4,"femaleToilets":5,"disabled":false,"diaperTable":false,"emergencyBell":true,"cctv":false,"managerTel":"0336603957","source":"public","category":"public"},{"id":"202442010000101203","name":"남대천새벽시장","lat":37.75724,"lng":128.906188,"roadAddr":"강원특별자치도 강릉시 제방길 170","jibunAddr":"강원특별자치도 강릉시 옥천동 377","openHours":"상시","maleToilets":4,"femaleToilets":3,"disabled":false,"diaperTable":false,"emergencyBell":false,"cctv":false,"managerTel":"0336603142","source":"public","category":"public"},{"id":"202442010000101141","name":"동부시장 화장실 2층","lat":37.759853,"lng":128.900602,"roadAddr":"강원특별자치도 강릉시 옥천로 48 (옥천동)","jibunAddr":"강원특별자치도 강릉시 옥천동 223","openHours":"상시","maleToilets":6,"femaleToilets":4,"disabled":false,"diaperTable":false,"emergencyBell":false,"cctv":true,"managerTel":"0336477999","source":"public","category":"public"},{"id":"202442010000101226","name":"성덕공원","lat":37.752271,"lng":128.91532,"roadAddr":"강원특별자치도 강릉시 입암로92번길 30-31","jibunAddr":"강원특별자치도 강릉시 입암동 460","openHours":"상시","maleToilets":3,"femaleToilets":3,"disabled":false,"diaperTable":false,"emergencyBell":true,"cctv":true,"managerTel":"0336405908","source":"public","category":"public"},{"id":"202442010000101294","name":"실내게이트볼장","lat":37.772322,"lng":128.897746,"roadAddr":"강원특별자치도 강릉시 수리골길17(교동)","jibunAddr":"강원특별자치도 강릉시 교동 387-3","openHours":"10:00~21:00","maleToilets":4,"femaleToilets":2,"disabled":true,"diaperTable":false,"emergencyBell":false,"cctv":false,"managerTel":"0336418348","source":"public","category":"public"},{"id":"202442010000101230","name":"17호어린이공원","lat":37.772842,"lng":128.91404,"roadAddr":"강원특별자치도 강릉시 하평3길 47","jibunAddr":"강원특별자치도 강릉시 포남동 1293","openHours":"상시","maleToilets":3,"femaleToilets":2,"disabled":false,"diaperTable":false,"emergencyBell":true,"cctv":false,"managerTel":"0336405908","source":"public","category":"public"},{"id":"202442010000101333","name":"송정동주민센터","lat":37.774475,"lng":128.927577,"roadAddr":"강원특별자치도 강릉시 경강로2451","jibunAddr":"강원특별자치도 강릉시 송정동 161","openHours":"(평일)09:00-18:00","maleToilets":2,"femaleToilets":2,"disabled":true,"diaperTable":false,"emergencyBell":false,"cctv":false,"managerTel":"0336603893","source":"public","category":"public"},{"id":"202442010000101455","name":"오죽헌주유소","lat":37.769928,"lng":128.892197,"roadAddr":"강원특별자치도 강릉시 율곡로 2996 (교동)","jibunAddr":"강원특별자치도 강릉시 교동 714-1","openHours":"상시","maleToilets":2,"femaleToilets":2,"disabled":false,"diaperTable":false,"emergencyBell":false,"cctv":false,"managerTel":"0336415184","source":"public","category":"public"},{"id":"202442010000101306","name":"허균허난설헌 기념공원 화장실","lat":37.791065,"lng":128.910146,"roadAddr":"강원특별자치도 강릉시 난설헌로193번길 1-15","jibunAddr":"강원특별자치도 강릉시 초당동 390","openHours":"상시","maleToilets":2,"femaleToilets":4,"disabled":true,"diaperTable":true,"emergencyBell":true,"cctv":false,"managerTel":"0336404798","source":"public","category":"public"},{"id":"202442010000101491","name":"강릉역","lat":37.76452,"lng":128.899617,"roadAddr":"강원특별자치도 강릉시 용지로 176 (교동)","jibunAddr":"강원특별자치도 강릉시 교동 118","openHours":"상시","maleToilets":22,"femaleToilets":22,"disabled":true,"diaperTable":true,"emergencyBell":true,"cctv":false,"managerTel":"15447788","source":"public","category":"public"},{"id":"202442010000101362","name":"중앙동주민센터","lat":37.756136,"lng":128.894106,"roadAddr":"강원특별자치도 강릉시 토성로 163","jibunAddr":"강원특별자치도 강릉시 성산면 임당동 37","openHours":"상시","maleToilets":3,"femaleToilets":1,"disabled":true,"diaperTable":false,"emergencyBell":false,"cctv":true,"managerTel":"0336603735","source":"public","category":"public"},{"id":"202442010000101181","name":"강릉시립중앙도서관","lat":37.773037,"lng":128.913033,"roadAddr":"강원특별자치도 강릉시 강릉대로 448","jibunAddr":"강원특별자치도 강릉시 포남동 1295-1","openHours":"도서관운영시간(09:00~23:00)","maleToilets":18,"femaleToilets":6,"disabled":true,"diaperTable":false,"emergencyBell":false,"cctv":true,"managerTel":"0336603271","source":"public","category":"public"},{"id":"202442010000101498","name":"원마트","lat":37.760469,"lng":128.917532,"roadAddr":"강원특별자치도 강릉시 성덕포남로 67 (입암동)","jibunAddr":"강원특별자치도 강릉시 입암동 106","openHours":"09:00~22:00","maleToilets":4,"femaleToilets":2,"disabled":false,"diaperTable":false,"emergencyBell":false,"cctv":false,"managerTel":"0336525465","source":"public","category":"public"},{"id":"202442010000101140","name":"동부시장 화장실 1층","lat":37.759853,"lng":128.900602,"roadAddr":"강원특별자치도 강릉시 옥천로 48 (옥천동)","jibunAddr":"강원특별자치도 강릉시 옥천동 223","openHours":"상시","maleToilets":9,"femaleToilets":7,"disabled":false,"diaperTable":false,"emergencyBell":false,"cctv":true,"managerTel":"0336477999","source":"public","category":"public"},{"id":"202442010000101360","name":"남대천버드나무쉼터","lat":37.753693,"lng":128.901765,"roadAddr":"강원특별자치도 강릉시 제방길 114","jibunAddr":"강원특별자치도 강릉시 성산면 성남동 3-6","openHours":"상시","maleToilets":1,"femaleToilets":0,"disabled":false,"diaperTable":false,"emergencyBell":false,"cctv":false,"managerTel":"0336603748","source":"public","category":"public"},{"id":"202442010000101300","name":"국민체육센터(수영장)","lat":37.777021,"lng":128.896999,"roadAddr":"강원특별자치도 강릉시 수리골길76(교동)","jibunAddr":"강원특별자치도 강릉시 교동 458-1","openHours":"06:00~22:00","maleToilets":11,"femaleToilets":6,"disabled":true,"diaperTable":false,"emergencyBell":true,"cctv":false,"managerTel":"0336404551","source":"public","category":"public"},{"id":"202442010000101463","name":"입암주유소","lat":37.76247,"lng":128.915329,"roadAddr":"강원특별자치도 강릉시 성덕포남로 97 (입암동)","jibunAddr":"강원특별자치도 강릉시 입암동 593-4","openHours":"상시","maleToilets":3,"femaleToilets":2,"disabled":false,"diaperTable":false,"emergencyBell":false,"cctv":false,"managerTel":"0336539905","source":"public","category":"public"},{"id":"202442010000101161","name":"강릉녹색도시체험센터 체험연수동","lat":37.789935,"lng":128.907952,"roadAddr":"강원특별자치도 강릉시 난설헌로 131","jibunAddr":"강원특별자치도 강릉시 초당동 505","openHours":"정시(08:00∼18:00)","maleToilets":4,"femaleToilets":3,"disabled":true,"diaperTable":true,"emergencyBell":true,"cctv":false,"managerTel":"0339230201","source":"public","category":"public"},{"id":"202442010000101251","name":"강릉아트센터 화장실\n(소공연장 1층)","lat":37.771712,"lng":128.895294,"roadAddr":"강원특별자치도 강릉시  종합운동장길84","jibunAddr":"강원특별자치도 강릉시 교동408","openHours":"09:00~18:00","maleToilets":6,"femaleToilets":4,"disabled":true,"diaperTable":false,"emergencyBell":false,"cctv":false,"managerTel":"0336606800","source":"public","category":"public"},{"id":"202442010000101390","name":"덕봉공원","lat":37.761687,"lng":128.934783,"roadAddr":"강원특별자치도 강릉시 성덕로 168","jibunAddr":"강원특별자치도 강릉시 병산동 520-2","openHours":"상시","maleToilets":3,"femaleToilets":2,"disabled":false,"diaperTable":false,"emergencyBell":true,"cctv":false,"managerTel":"0336603974","source":"public","category":"public"},{"id":"202442010000101479","name":"대영주유소","lat":37.770768,"lng":128.909331,"roadAddr":"강원특별자치도 강릉시 가작로 308 (포남동)","jibunAddr":"강원특별자치도 강릉시 포남동 1234-2","openHours":"상시","maleToilets":2,"femaleToilets":2,"disabled":false,"diaperTable":false,"emergencyBell":false,"cctv":false,"managerTel":"0336535133","source":"public","category":"public"},{"id":"202442010000101227","name":"2호어린이공원","lat":37.778621,"lng":128.915352,"roadAddr":"강원특별자치도 강릉시 산양큰길 14 (포남동)","jibunAddr":"강원특별자치도 강릉시 포남동 1223-1","openHours":"상시","maleToilets":1,"femaleToilets":1,"disabled":true,"diaperTable":false,"emergencyBell":true,"cctv":false,"managerTel":"0336405908","source":"public","category":"public"},{"id":"202442010000101301","name":"강릉테니스장","lat":37.777608,"lng":128.897265,"roadAddr":"강원특별자치도 강릉시 수리골길 92(교동)","jibunAddr":"강원특별자치도 강릉시 교동 산52","openHours":"06:00~22:00","maleToilets":9,"femaleToilets":8,"disabled":true,"diaperTable":false,"emergencyBell":false,"cctv":false,"managerTel":"0336420788","source":"public","category":"public"},{"id":"202442010000101359","name":"남대천둔치주차장","lat":37.75144,"lng":128.898117,"roadAddr":"강원특별자치도 강릉시 제방길 72","jibunAddr":"강원특별자치도 강릉시 성산면 성남동 91-7","openHours":"상시","maleToilets":3,"femaleToilets":3,"disabled":false,"diaperTable":false,"emergencyBell":false,"cctv":false,"managerTel":"0336603748","source":"public","category":"public"},{"id":"202442010000101259","name":"강남게이트볼장","lat":37.751814,"lng":128.902164,"roadAddr":"강원특별자치도 강릉시 강변로 313","jibunAddr":"강원특별자치도 강릉시 노암동 826-1","openHours":"상시","maleToilets":3,"femaleToilets":2,"disabled":false,"diaperTable":false,"emergencyBell":true,"cctv":false,"managerTel":"0336602614","source":"public","category":"public"},{"id":"202442010000101472","name":"SK월드컵주유소","lat":37.762796,"lng":128.906894,"roadAddr":"강원특별자치도 강릉시 경강로 2224 (포남동)","jibunAddr":"강원특별자치도 강릉시 포남동 1141-3","openHours":"상시","maleToilets":2,"femaleToilets":2,"disabled":false,"diaperTable":false,"emergencyBell":false,"cctv":false,"managerTel":"0336468645","source":"public","category":"public"},{"id":"202442010000101183","name":"성덕반딧불작은도서관","lat":37.755916,"lng":128.908106,"roadAddr":"강원특별자 치도 강릉시 강중길 55","jibunAddr":"강원특별자치도 강릉시 입암동 632-6","openHours":"도서관운영시간(09:00~18:00)","maleToilets":4,"femaleToilets":3,"disabled":false,"diaperTable":false,"emergencyBell":false,"cctv":false,"managerTel":"0336603260","source":"public","category":"public"},{"id":"202442010000101263","name":"남대천 체육공원 화장실","lat":37.762612,"lng":128.910424,"roadAddr":"강원특별자치도 강릉시 포남동 1267-4","jibunAddr":"강원특별자치도 강릉시 포남동 1267-4","openHours":"상시","maleToilets":2,"femaleToilets":1,"disabled":false,"diaperTable":false,"emergencyBell":false,"cctv":false,"managerTel":"0336603819","source":"public","category":"public"},{"id":"202442010000101292","name":"남대천 야구장_리틀","lat":37.770372,"lng":128.933381,"roadAddr":"강원특별자치도 강릉시 병산동 643-1","jibunAddr":"강원특별자치도 강릉시 병산동 643-1","openHours":"상시","maleToilets":8,"femaleToilets":2,"disabled":false,"diaperTable":false,"emergencyBell":false,"cctv":false,"managerTel":"0336603349","source":"public","category":"public"},{"id":"202442010000101258","name":"남대천 우드볼장 화장실","lat":37.769308,"lng":128.925996,"roadAddr":"강원특별자치도 강릉시 강변로 611","jibunAddr":"강원특별자치도 강릉시 입암동 703(우드볼장)","openHours":"상시","maleToilets":4,"femaleToilets":2,"disabled":false,"diaperTable":false,"emergencyBell":false,"cctv":false,"managerTel":"0336603957","source":"public","category":"public"},{"id":"202442010000101296","name":"강릉아이스링크_지하","lat":37.773717,"lng":128.892557,"roadAddr":"강원특별자치도 강릉시 종합운동장길32(교동)","jibunAddr":"강원특별자치도 강릉시 교동 632","openHours":"09:00~18:00","maleToilets":14,"femaleToilets":6,"disabled":false,"diaperTable":false,"emergencyBell":false,"cctv":false,"managerTel":"0336478388","source":"public","category":"public"},{"id":"202442010000101495","name":"강릉농협하나로마트사업소","lat":37.754414,"lng":128.901538,"roadAddr":"강원특별자치도 강릉시 율곡로 2792 (성남동)","jibunAddr":"강원특별자치도 강릉시 성남동 26-1 농협","openHours":"10:00~22:00","maleToilets":2,"femaleToilets":2,"disabled":false,"diaperTable":false,"emergencyBell":false,"cctv":false,"managerTel":"0336450363","source":"public","category":"public"},{"id":"202442010000101506","name":"이마트 강릉점","lat":37.770553,"lng":128.92271,"roadAddr":"강원특별자치도 강릉시 경강로 2398-10 (송정동)","jibunAddr":"강원특별자치도 강릉시 송정동 1008-7","openHours":"10:00~22:00","maleToilets":6,"femaleToilets":6,"disabled":true,"diaperTable":true,"emergencyBell":true,"cctv":false,"managerTel":"0336491234","source":"public","category":"public"},{"id":"202442010000101398","name":"포남1동주민센터 화장실","lat":37.766039,"lng":128.908166,"roadAddr":"강원특별자치도 강릉시 남구길 10번길25","jibunAddr":"강원특별자치도 강릉시 포남동 1151-6","openHours":"09:00~18:00","maleToilets":2,"femaleToilets":3,"disabled":true,"diaperTable":false,"emergencyBell":true,"cctv":false,"managerTel":"0336603817","source":"public","category":"public"}]