[{"id":"202543510000100086","name":"남애어촌계 화장실","lat":37.944928,"lng":128.787128,"roadAddr":"강원특별자치도 양양군 현남면 매바위길 138","openHours":"09:00~18:00","maleToilets":10,"femaleToilets":6,"disabled":true,"diaperTable":false,"emergencyBell":false,"cctv":false,"source":"public","category":"public"},{"id":"202543510000100108","name":"원포리해수욕장 화장실","lat":37.932393,"lng":128.790609,"roadAddr":"강원특별자치도 양양군 현남면 동해대로 232","jibunAddr":"강원특별자치도 양양군 현남면 원포리 1-4","openHours":"09:00~18:00","maleToilets":6,"femaleToilets":5,"disabled":true,"diaperTable":false,"emergencyBell":false,"cctv":false,"source":"public","category":"public"},{"id":"202543510000100128","name":"매호생태공원 공중화장실","lat":37.953125,"lng":128.770586,"roadAddr":"강원특별자치도 양양군 현남면 광진리 94","openHours":"24시간","maleToilets":3,"femaleToilets":2,"disabled":true,"diaperTable":true,"emergencyBell":true,"cctv":false,"source":"public","category":"public"},{"id":"202543510000100132","name":"남애3리(신) 해수욕장 화장실","lat":37.94564,"lng":128.784477,"roadAddr":"강원특별자치도 양양군 현남면 매바위길 167","jibunAddr":"강원특별자치도 양양군 현남면 남애리 6-2","openHours":"24시간","maleToilets":4,"femaleToilets":4,"disabled":false,"diaperTable":false,"emergencyBell":true,"cctv":false,"source":"public","category":"public"},{"id":"202543510000100085","name":"하조대농협주유소 화장실","lat":37.928324,"lng":128.79161,"roadAddr":"강원특별자치도 양양군 현남면 화상천로 5-4","openHours":"09:00~18:00","maleToilets":3,"femaleToilets":1,"disabled":false,"diaperTable":false,"emergencyBell":false,"cctv":false,"source":"public","category":"public"},{"id":"202543510000100131","name":"남애항위판장 화장실","lat":37.9426,"lng":128.785502,"roadAddr":"강원특별자치도 양양군 현남면 매바위길 104","jibunAddr":"강원특별자치도 양양군 현남면 남애리 2-11","openHours":"24시간","maleToilets":7,"femaleToilets":7,"disabled":true,"diaperTable":false,"emergencyBell":true,"cctv":false,"source":"public","category":"public"},{"id":"202543510000100087","name":"서울주유소 화장실","lat":37.959068,"lng":128.766555,"roadAddr":"강원특별자치도 양양군 현남면 동해대로 603","openHours":"09:00~18:00","maleToilets":2,"femaleToilets":0,"disabled":false,"diaperTable":false,"emergencyBell":false,"cctv":false,"source":"public","category":"public"},{"id":"202543510000100109","name":"남애3리 해수욕장 화장실","lat":37.945569,"lng":128.782718,"jibunAddr":"강원특별자치도 양양군 현남면 남애리 6-58","openHours":"09:00~18:00","maleToilets":4,"femaleToilets":5,"disabled":true,"diaperTable":true,"emergencyBell":false,"cctv":false,"source":"public","category":"public"},{"id":"202543510000100110","name":"남애갯마을 해수욕장 화장실","lat":37.94879,"lng":128.778125,"roadAddr":"강원특별자치도 양양군 현남면 갯마을길 54","jibunAddr":"강원특별자치도 양양군 현남면 남애리 600-18","openHours":"09:00~18:00","maleToilets":5,"femaleToilets":5,"disabled":true,"diaperTable":true,"emergencyBell":false,"cctv":false,"source":"public","category":"public"},{"id":"202543510000100130","name":"남애1리 마을회관 앞 공중화장실","lat":37.939725,"lng":128.788319,"jibunAddr":"강원특별자치도 양양군 현남면 남애리 70-11","openHours":"24시간","maleToilets":3,"femaleToilets":2,"disabled":false,"diaperTable":false,"emergencyBell":true,"cctv":false,"source":"public","category":"public"},{"id":"202543510000100088","name":"동해우리주유소 화장실","lat":37.942707,"lng":128.782861,"roadAddr":"강원특별자치도 양양군 현남면 동해대로 376","openHours":"09:00~18:00","maleToilets":4,"femaleToilets":1,"disabled":false,"diaperTable":false,"emergencyBell":false,"cctv":false,"source":"public","category":"public"}]