[{"id":"202442010000101447","name":"주문진터미널","lat":37.88483,"lng":128.826776,"roadAddr":"강원특별자치도 강릉시 주문진읍 해안2길 12","jibunAddr":"강원특별자치도 강릉시 주문진읍 교항리 121-1","openHours":"상시","maleToilets":5,"femaleToilets":4,"disabled":false,"diaperTable":false,"emergencyBell":false,"cctv":false,"managerTel":"0336622559","source":"public","category":"public"},{"id":"202442010000101144","name":"수산시장화장실","lat":37.891428,"lng":128.827834,"roadAddr":"강원특별자치도 강릉시 주문진읍 시장3길 5","jibunAddr":"강원특별자치도 강릉시 주문진읍 주문리 312-91","openHours":"상시","maleToilets":9,"femaleToilets":7,"disabled":false,"diaperTable":false,"emergencyBell":false,"cctv":true,"managerTel":"0336617302","source":"public","category":"public"},{"id":"202442010000101145","name":"주문진종합시장1","lat":37.890606,"lng":128.826708,"roadAddr":"강원특별자치도 강릉시 주문진읍 작은다리길 21","jibunAddr":"강원특별자치도 강릉시 주문진읍 교항리 187-8","openHours":"상시","maleToilets":0,"femaleToilets":0,"disabled":false,"diaperTable":false,"emergencyBell":false,"cctv":true,"managerTel":"0330000000","source":"public","category":"public"},{"id":"202442010000101423","name":"교항14리 공중화장실","lat":37.882828,"lng":128.830313,"roadAddr":"강원특별자치도 강릉시 주문진읍 학교담길 1","jibunAddr":"강원특별자치도 강릉시 주문진읍 교항리 80-77","openHours":"상시","maleToilets":3,"femaleToilets":2,"disabled":false,"diaperTable":false,"emergencyBell":false,"cctv":false,"managerTel":"0336603443","source":"public","category":"public"},{"id":"202442010000101412","name":"홍합공중화장실","lat":37.901625,"lng":128.830907,"roadAddr":"강원특별자치도 강릉시 주문진읍 해안로 1919","jibunAddr":"강원특별자치도 강릉시 주문진읍 주문리 1584-10","openHours":"상시","maleToilets":2,"femaleToilets":1,"disabled":true,"diaperTable":false,"emergencyBell":true,"cctv":false,"managerTel":"0336603443","source":"public","category":"public"},{"id":"202442010000101416","name":"수협물양장","lat":37.894474,"lng":128.833175,"roadAddr":"강원특별자치도 강릉시 주문진읍 해안로 1816","jibunAddr":"강원특별자치도 강릉시 주문진읍 주문리 265-4","openHours":"상시","maleToilets":6,"femaleToilets":6,"disabled":false,"diaperTable":true,"emergencyBell":true,"cctv":false,"managerTel":"0336603443","source":"public","category":"public"},{"id":"202442010000101415","name":"주문1리 등대화장실","lat":37.895664,"lng":128.833027,"roadAddr":"강원특별자치도 강릉시 주문진읍 등대1길 2","jibunAddr":"강원특별자치도 강릉시 주문진읍 주문리 242-34","openHours":"상시","maleToilets":2,"femaleToilets":2,"disabled":false,"diaperTable":false,"emergencyBell":true,"cctv":false,"managerTel":"0336603443","source":"public","category":"public"},{"id":"202442010000101146","name":"주문진종합시장2","lat":37.891219,"lng":128.826888,"roadAddr":"강원특별자치도 강릉시 주문진읍 구시장길 8-1","jibunAddr":"강원특별자치도 강릉시 주문진읍 주문리 321-52","openHours":"상시","maleToilets":4,"femaleToilets":4,"disabled":false,"diaperTable":false,"emergencyBell":false,"cctv":true,"managerTel":"0336622180","source":"public","category":"public"},{"id":"202442010000101142","name":"나루쉼터화장실","lat":37.891144,"lng":128.828754,"roadAddr":"강원특별자치도 강릉시 주문진읍 해안로 1748","jibunAddr":"강원특별자치도 강릉시 주문진읍 주문리 312-708","openHours":"상시","maleToilets":13,"femaleToilets":14,"disabled":true,"diaperTable":true,"emergencyBell":true,"cctv":false,"managerTel":"0336617301","source":"public","category":"public"},{"id":"202442010000101424","name":"향호소공원화장실","lat":37.911375,"lng":128.814252,"roadAddr":"강원특별자치도 강릉시 주문진읍 동해대로 4887","jibunAddr":"강원특별자치도 강릉시 주문진읍 향호리 1-3","openHours":"상시","maleToilets":2,"femaleToilets":2,"disabled":true,"diaperTable":false,"emergencyBell":true,"cctv":false,"managerTel":"0336603443","source":"public","category":"public"},{"id":"202442010000101420","name":"중앙공원 공중화장실","lat":37.894411,"lng":128.828887,"roadAddr":"강원특별자치도 강릉시 주문진읍 주문로 128","jibunAddr":"강원특별자치도 강릉시 주문진읍 주문리 312-2","openHours":"상시","maleToilets":3,"femaleToilets":3,"disabled":false,"diaperTable":false,"emergencyBell":true,"cctv":false,"managerTel":"0336603443","source":"public","category":"public"},{"id":"202442010000101493","name":"북강릉농협하나로마트 연곡점","lat":37.887534,"lng":128.82585,"roadAddr":"강원특별자치도 강릉시 주문진읍 주문로 44","jibunAddr":"강원특별자치도 강릉시 주문진읍 교항리 178-9","openHours":"상시","maleToilets":4,"femaleToilets":3,"disabled":false,"diaperTable":false,"emergencyBell":false,"cctv":false,"managerTel":"0336627855","source":"public","category":"public"},{"id":"202442010000101147","name":"주문진활어회센타","lat":37.892174,"lng":128.828177,"roadAddr":"강원특별자치도 강릉시 주문진읍 해안로1759","jibunAddr":"강원특별자치도 강릉시 주문진읍 주문리 312-86","openHours":"상시","maleToilets":5,"femaleToilets":7,"disabled":true,"diaperTable":false,"emergencyBell":false,"cctv":false,"managerTel":"0336628563","source":"public","category":"public"},{"id":"202442010000101419","name":"고등어 화장실","lat":37.885312,"lng":128.828405,"roadAddr":"강원특별자치도 강릉시 주문진읍 신리천로 21","jibunAddr":"강원특별자치도 강릉시 주문진읍 교항리 158-1","openHours":"상시","maleToilets":2,"femaleToilets":3,"disabled":true,"diaperTable":true,"emergencyBell":true,"cctv":false,"managerTel":"0336603443","source":"public","category":"public"},{"id":"202442010000101426","name":"향호리버스종점공중화장실","lat":37.915204,"lng":128.810188,"roadAddr":"강원특별자치도 강릉시 주문진읍 참샘길 1","jibunAddr":"강원특별자치도 강릉시 주문진읍 향호리 78-38","openHours":"상시","maleToilets":0,"femaleToilets":0,"disabled":true,"diaperTable":false,"emergencyBell":true,"cctv":false,"managerTel":"0336603443","source":"public","category":"public"},{"id":"202442010000101414","name":"주문1리마을공동화장실","lat":37.895757,"lng":128.833079,"roadAddr":"강원특별자치도 강릉시 주문진읍 등대2길 11","jibunAddr":"강원특별자치도 강릉시 주문진읍 주문리 242-26","openHours":"상시","maleToilets":6,"femaleToilets":4,"disabled":false,"diaperTable":false,"emergencyBell":true,"cctv":false,"managerTel":"0336603443","source":"public","category":"public"},{"id":"202442010000101207","name":"주문진통합보건지소","lat":37.894042,"lng":128.823383,"roadAddr":"강원특별자치도 강릉시 주문진읍 항구로 19","jibunAddr":"강원특별자치도 강릉시 주문리 1033","openHours":"정시","maleToilets":5,"femaleToilets":4,"disabled":true,"diaperTable":false,"emergencyBell":false,"cctv":true,"managerTel":"0336603500","source":"public","category":"public"},{"id":"202442010000101410","name":"가족호텔옆공중화장실","lat":37.908817,"lng":128.821254,"roadAddr":"강원특별자치도 강릉시 주문진읍 해안로 1053","jibunAddr":"강원특별자치도 강릉시 주문진읍 향호리 1187-12","openHours":"상시","maleToilets":18,"femaleToilets":13,"disabled":true,"diaperTable":true,"emergencyBell":true,"cctv":false,"managerTel":"0336603443","source":"public","category":"public"},{"id":"202442010000101417","name":"주문8리 공중화장실","lat":37.894156,"lng":128.830392,"roadAddr":"강원특별자치도 강릉시 주문진읍 해안로 1788","jibunAddr":"강원특별자치도 강릉시 주문진읍 주문리 312-495","openHours":"상시","maleToilets":6,"femaleToilets":3,"disabled":true,"diaperTable":false,"emergencyBell":true,"cctv":false,"managerTel":"0336603443","source":"public","category":"public"},{"id":"202442010000101418","name":"배공중화장실","lat":37.892498,"lng":128.829239,"roadAddr":"강원특별자치도 강릉시 주문진읍 주문리 312-688","jibunAddr":"강원특별자치도 강릉시 주문진읍 주문리 312-688","openHours":"상시","maleToilets":5,"femaleToilets":4,"disabled":true,"diaperTable":false,"emergencyBell":true,"cctv":false,"managerTel":"0336603443","source":"public","category":"public"},{"id":"202442010000101411","name":"소돌 아들바위 공중화장실","lat":37.90516,"lng":128.829676,"roadAddr":"강원특별자치도 강릉시 주문진읍 해안로 1968-4","jibunAddr":"강원특별자치도 강릉시 주문진읍 주문리 791-34","openHours":"상시","maleToilets":5,"femaleToilets":6,"disabled":true,"diaperTable":true,"emergencyBell":true,"cctv":false,"managerTel":"0336603443","source":"public","category":"public"},{"id":"202442010000101408","name":"주문진해수욕장상가밑 화장실","lat":37.910132,"lng":128.817676,"roadAddr":"강원특별자치도 강릉시 주문진읍 주문북로 210","jibunAddr":"강원특별자치도 강릉시 주문진읍 향호리 8-19","openHours":"상시","maleToilets":5,"femaleToilets":5,"disabled":true,"diaperTable":true,"emergencyBell":true,"cctv":false,"managerTel":"0336603443","source":"public","category":"public"},{"id":"202442010000101123","name":"강원도환동해본부 민원실(본관1층)","lat":37.885265,"lng":128.826041,"roadAddr":"강원특별자치도 강릉시 주문진읍 주문로 14","jibunAddr":"강원특별자치도 강릉시 주문진읍 교항리 118-1","openHours":"정시","maleToilets":4,"femaleToilets":2,"disabled":true,"diaperTable":false,"emergencyBell":false,"cctv":false,"managerTel":"0336608314","source":"public","category":"public"},{"id":"202442010000101407","name":"주문진해수욕장 주차장 화장실","lat":37.910132,"lng":128.817676,"roadAddr":"강원특별자치도 강릉시 주문진읍 주문북로 210","jibunAddr":"강원특별자치도 강릉시 주문진읍 향호리 8-17","openHours":"상시","maleToilets":14,"femaleToilets":8,"disabled":true,"diaperTable":true,"emergencyBell":true,"cctv":false,"managerTel":"0336603443","source":"public","category":"public"},{"id":"202442010000101494","name":"원마트 주문진점","lat":37.888275,"lng":128.826357,"roadAddr":"강원특별자치도 강릉시 주문진읍 장성로 51","jibunAddr":"강원특별자치도 강릉시 주문진읍 교항리 176","openHours":"정시","maleToilets":5,"femaleToilets":3,"disabled":false,"diaperTable":false,"emergencyBell":false,"cctv":false,"managerTel":"0336608890","source":"public","category":"public"},{"id":"202442010000101413","name":"시인과 바다 옆 공중화장실","lat":37.899316,"lng":128.833958,"roadAddr":"강원특별자치도 강릉시 주문진읍 해안로 1879","jibunAddr":"강원특별자치도 강릉시 주문진읍 주문리 122-3","openHours":"상시","maleToilets":2,"femaleToilets":4,"disabled":true,"diaperTable":true,"emergencyBell":true,"cctv":false,"managerTel":"0336603443","source":"public","category":"public"},{"id":"202442010000101143","name":"해안주차타워화장실","lat":37.890738,"lng":128.828808,"roadAddr":"강원특별자치도 강릉시 주문진읍 해안로 1740","jibunAddr":"강원특별자치도 강릉시 주문진읍 주문리 312-684","openHours":"상시","maleToilets":15,"femaleToilets":6,"disabled":true,"diaperTable":true,"emergencyBell":true,"cctv":true,"managerTel":"0336617301","source":"public","category":"public"},{"id":"202442010000101409","name":"주문진해변샤워장옆 공중화장실","lat":37.910132,"lng":128.817676,"roadAddr":"강원특별자치도 강릉시 주문진읍 주문북로 210","jibunAddr":"강원특별자치도 강릉시 주문진읍 향호리 8-17","openHours":"상시","maleToilets":9,"femaleToilets":6,"disabled":false,"diaperTable":true,"emergencyBell":true,"cctv":false,"managerTel":"0336603443","source":"public","category":"public"},{"id":"202442010000101406","name":"주문진읍사무소","lat":37.894042,"lng":128.823383,"roadAddr":"강원특별자치도 강릉시 주문진읍 항구로 19","jibunAddr":"강원특별자치도 강릉시 주문진읍 주문리 1033","openHours":"정시","maleToilets":12,"femaleToilets":9,"disabled":true,"diaperTable":true,"emergencyBell":true,"cctv":true,"managerTel":"0336603443","source":"public","category":"public"}]