[{"id":"202442010000101303","name":"강릉궁도장","lat":37.802467,"lng":128.859986,"roadAddr":"강원특별자치도 강릉시 과학단지로 106-65","jibunAddr":"강원특별자치도 강릉시 대전동 223","openHours":"06:00~22:00","maleToilets":5,"femaleToilets":4,"disabled":true,"diaperTable":false,"emergencyBell":false,"cctv":false,"managerTel":"0336464177","source":"public","category":"public"},{"id":"202442010000101403","name":"양미리","lat":37.836391,"lng":128.875625,"roadAddr":"강원특별자치도 강릉시 사천면 진리항구길 40","jibunAddr":"강원특별자치도 강릉시 사천면 사천진리 86-155","openHours":"상시","maleToilets":3,"femaleToilets":4,"disabled":true,"diaperTable":true,"emergencyBell":true,"cctv":false,"managerTel":"0336603659","source":"public","category":"public"},{"id":"202442010000101503","name":"강릉사천농협하나로마트","lat":37.823793,"lng":128.850055,"roadAddr":"강원특별자치도 강릉시 미노길 78-7","jibunAddr":"강원특별자치도 강릉시 사천면 미노리 493","openHours":"09:00~22:00","maleToilets":2,"femaleToilets":1,"disabled":false,"diaperTable":false,"emergencyBell":false,"cctv":false,"managerTel":"0336418251","source":"public","category":"public"},{"id":"202442010000101215","name":"사천진보건진료소","lat":37.835574,"lng":128.875429,"roadAddr":"강원특별자치도 강릉시 사천면 진리항구길","jibunAddr":"강원특별자치도 강릉시 사천면 사천진리","openHours":"(평일) 09:00~18:00","maleToilets":0,"femaleToilets":0,"disabled":false,"diaperTable":true,"emergencyBell":true,"cctv":true,"managerTel":"0336440195","source":"public","category":"public"},{"id":"202442010000101200","name":"임대사업소","lat":37.818268,"lng":128.854378,"roadAddr":"강원특별자치도 강릉시 사천면 동해대로 3738-17","jibunAddr":"강원특별자치도 강릉시 사천면 미노리 440-1","openHours":"(평일)09:00~18:00","maleToilets":3,"femaleToilets":1,"disabled":false,"diaperTable":false,"emergencyBell":false,"cctv":false,"managerTel":"0336603236","source":"public","category":"public"},{"id":"202442010000101404","name":"사천해변","lat":37.828855,"lng":128.878714,"roadAddr":"강원특별자치도 강릉시 사천면 해안로 870","jibunAddr":"강원특별자치도 강릉시 사천면 방동리 산284-9","openHours":"상시","maleToilets":5,"femaleToilets":5,"disabled":true,"diaperTable":true,"emergencyBell":true,"cctv":false,"managerTel":"0336603659","source":"public","category":"public"},{"id":"202442010000101198","name":"주경야독관","lat":37.818268,"lng":128.854378,"roadAddr":"강원특별자치도 강릉시 사천면 동해대로 3738-17","jibunAddr":"강원특별자치도 강릉시 사천면 미노리 440-1","openHours":"(평일)09:00~18:00","maleToilets":2,"femaleToilets":1,"disabled":true,"diaperTable":false,"emergencyBell":false,"cctv":false,"managerTel":"0336603139","source":"public","category":"public"},{"id":"202442010000101214","name":"사천보건지소","lat":37.822257,"lng":128.849235,"roadAddr":"강원특별자치도 강릉시 미노길","jibunAddr":"강원특별자치도 강릉시 사천면 미노리","openHours":"(평일) 09:00~18:00","maleToilets":3,"femaleToilets":1,"disabled":true,"diaperTable":true,"emergencyBell":true,"cctv":false,"managerTel":"0336602350","source":"public","category":"public"},{"id":"202442010000101400","name":"사천면사무소","lat":37.823794,"lng":128.848629,"roadAddr":"강원특별자치도 강릉시 사천면 미노길 67","jibunAddr":"강원특별자치도 강릉시 사천면 미노리 383","openHours":"평일","maleToilets":4,"femaleToilets":1,"disabled":true,"diaperTable":false,"emergencyBell":false,"cctv":false,"managerTel":"0336603659","source":"public","category":"public"},{"id":"202442010000101405","name":"미노리게이트볼장","lat":37.825427,"lng":128.850731,"roadAddr":"강원특별자치도 강릉시 사천면 미노리 459-5","jibunAddr":"강원특별자치도 강릉시 사천면 미노리 459-5","openHours":"상시","maleToilets":2,"femaleToilets":2,"disabled":false,"diaperTable":false,"emergencyBell":false,"cctv":false,"managerTel":"0336603659","source":"public","category":"public"},{"id":"202442010000101199","name":"미생물연구관","lat":37.818268,"lng":128.854378,"roadAddr":"강원특별자치도 강릉시 사천면 동해대로 3738-17","jibunAddr":"강원특별자치도 강릉시 사천면 미노리 440-1","openHours":"(평일)09:00~18:00","maleToilets":2,"femaleToilets":2,"disabled":false,"diaperTable":false,"emergencyBell":false,"cctv":false,"managerTel":"0336603231","source":"public","category":"public"},{"id":"202442010000101158","name":"순포습지","lat":37.820005,"lng":128.888258,"roadAddr":"강원특별자치도 강릉시 사천면 해안로 741-9","jibunAddr":"강원특별자치도 강릉시 사천면 산대월리 3-17","openHours":"상시","maleToilets":3,"femaleToilets":2,"disabled":false,"diaperTable":false,"emergencyBell":true,"cctv":false,"managerTel":"0336405353","source":"public","category":"public"},{"id":"202442010000101465","name":"사천현대주유소","lat":37.811778,"lng":128.857069,"roadAddr":"강원특별자치도 강릉시 사천면 동해대로 3660","jibunAddr":"강원특별자치도 강릉시 사천면 방동리 595","openHours":"상시","maleToilets":3,"femaleToilets":2,"disabled":false,"diaperTable":false,"emergencyBell":false,"cctv":false,"managerTel":"0336455182","source":"public","category":"public"},{"id":"202442010000101129","name":"강원특별자치도 보건환경연구원동부지원","lat":37.814134,"lng":128.860647,"roadAddr":"강원특별자치도 강릉시 사천면 산대월길 38-9","jibunAddr":"강원특별자치도 강릉시 사천면 방동리 461","openHours":"09:00∼18:00","maleToilets":9,"femaleToilets":6,"disabled":true,"diaperTable":false,"emergencyBell":false,"cctv":false,"managerTel":"0332498618","source":"public","category":"public"},{"id":"202442010000101197","name":"농업기술센터","lat":37.818268,"lng":128.854378,"roadAddr":"강원특별자치도 강릉시 사천면 동해대로 3738-17","jibunAddr":"강원특별자치도 강릉시 사천면 미노리 440-1","openHours":"(평일)09:00~18:00","maleToilets":15,"femaleToilets":6,"disabled":false,"diaperTable":false,"emergencyBell":false,"cctv":false,"managerTel":"0336603139","source":"public","category":"public"},{"id":"202442010000101489","name":"강릉과학산업진흥원 본관(1층)","lat":37.803216,"lng":128.8549,"roadAddr":"강원특별자치도 강릉시 과학단지로 106-11","jibunAddr":"강원특별자치도 강릉시 대전동 897-2","openHours":"평일(09:00∼18:00)","maleToilets":12,"femaleToilets":10,"disabled":true,"diaperTable":false,"emergencyBell":true,"cctv":false,"managerTel":"0336503353","source":"public","category":"public"},{"id":"202442010000101496","name":"경포주유소","lat":37.800426,"lng":128.864851,"roadAddr":"강원특별자치도 강릉시 안현로 40 (안현동)","jibunAddr":"강원특별자치도 강릉시 안현동 792","openHours":"연중무휴","maleToilets":2,"femaleToilets":1,"disabled":false,"diaperTable":false,"emergencyBell":false,"cctv":false,"managerTel":"0336445145","source":"public","category":"public"}]