[{"id":"202442010000101492","name":"정동진역","lat":37.69134,"lng":129.032829,"roadAddr":"강원특별자치도 강릉시 강동면 정동역길 17","jibunAddr":"강원특별자치도 강릉시 강동면 정동진리 303","openHours":"상시","maleToilets":13,"femaleToilets":10,"disabled":true,"diaperTable":true,"emergencyBell":true,"cctv":false,"managerTel":"0335208708","source":"public","category":"public"},{"id":"202442010000101326","name":"강동무료주차장","lat":37.687949,"lng":129.031313,"roadAddr":"강원특별자치도 강릉시 강동면 헌화로 1071-22","jibunAddr":"강원특별자치도 강릉시 강동면 정동진리 296-13","openHours":"상시","maleToilets":6,"femaleToilets":4,"disabled":true,"diaperTable":false,"emergencyBell":true,"cctv":false,"managerTel":"0336603611","source":"public","category":"public"},{"id":"202442010000101508","name":"강릉농협하나로마트 정동점","lat":37.688186,"lng":129.03336,"roadAddr":"강원특별자치도 강릉시 강동면 헌화로 1060","jibunAddr":"강원특별자치도 강릉시 강동면 정동진리 244-3","openHours":"정시","maleToilets":2,"femaleToilets":1,"disabled":false,"diaperTable":false,"emergencyBell":false,"cctv":false,"managerTel":"0336445575","source":"public","category":"public"},{"id":"202442010000101321","name":"고성목해변","lat":37.690583,"lng":129.033785,"roadAddr":"강원특별자치도 강릉시 강동면 정동역길 32-1","jibunAddr":"강원특별자치도 강릉시 강동면 정동진리 303-2","openHours":"상시","maleToilets":6,"femaleToilets":8,"disabled":true,"diaperTable":true,"emergencyBell":true,"cctv":false,"managerTel":"0336603611","source":"public","category":"public"},{"id":"202442010000101322","name":"정동진2리(전망대)","lat":37.686067,"lng":129.040503,"roadAddr":"강원특별자치도 강릉시 강동면 헌화로 982","jibunAddr":"강원특별자치도 강릉시 강동면 정동진리 570-1","openHours":"상시","maleToilets":7,"femaleToilets":3,"disabled":true,"diaperTable":false,"emergencyBell":true,"cctv":false,"managerTel":"0336603611","source":"public","category":"public"},{"id":"202442010000101324","name":"심곡항구","lat":37.665776,"lng":129.053377,"roadAddr":"강원특별자치도 강릉시 강동면 헌화로 648-6","jibunAddr":"강원특별자치도 강릉시 강동면 심곡리 157-48","openHours":"상시","maleToilets":3,"femaleToilets":3,"disabled":true,"diaperTable":false,"emergencyBell":true,"cctv":true,"managerTel":"0336603611","source":"public","category":"public"}]