[{"id":"202441400000100822","name":"동이제방(임진강주상절리)","lat":38.0183,"lng":127.013956,"roadAddr":"경기도 연천군 미산면 마동로196번길 226-28","jibunAddr":"경기도 연천군 미산면 동이리 67-1","openHours":"불규칙","maleToilets":2,"femaleToilets":1,"disabled":false,"diaperTable":false,"emergencyBell":false,"cctv":false,"managerTel":"0319568306","source":"public","category":"public"},{"id":"202441400000100695","name":"연천파크골프장 화장실2","lat":38.055123,"lng":127.020992,"jibunAddr":"경기도 연천군 군남면 진상리 610","openHours":"정시","maleToilets":4,"femaleToilets":2,"disabled":true,"diaperTable":false,"emergencyBell":false,"cctv":false,"managerTel":"0318392374","source":"public","category":"public"},{"id":"202441400000100813","name":"임진물새롬센터","lat":38.051115,"lng":127.017207,"roadAddr":"경기도 연천군 미산면 청정로1706번길 118","jibunAddr":"경기도 연천군 미산면 우정리 313","openHours":"정시","maleToilets":6,"femaleToilets":6,"disabled":false,"diaperTable":true,"emergencyBell":false,"cctv":false,"managerTel":"0318394340","source":"public","category":"public"},{"id":"202541400000100001","name":"우정제방","lat":38.05069,"lng":127.019417,"jibunAddr":"경기도 연천군 미산면 우정리 29","openHours":"불규칙","maleToilets":2,"femaleToilets":1,"disabled":false,"diaperTable":false,"emergencyBell":false,"cctv":false,"managerTel":"0318392375","source":"public","category":"public"},{"id":"202441400000100679","name":"임진강주유소","lat":38.049192,"lng":127.031107,"roadAddr":"경기도 연천군 군남면 청정로 1992","jibunAddr":"경기도 연천군 군남면 황지리 551","openHours":"불규칙","maleToilets":0,"femaleToilets":0,"disabled":false,"diaperTable":false,"emergencyBell":false,"cctv":false,"managerTel":"0318337600","source":"public","category":"public"},{"id":"202441400000100696","name":"연천파크골프장 화장실1","lat":38.055294,"lng":127.020032,"roadAddr":"경기도 연천군 군남면 청정로 1818-40","jibunAddr":"경기도 연천군 군남면 진상리 617-7","openHours":"정시","maleToilets":4,"femaleToilets":2,"disabled":true,"diaperTable":false,"emergencyBell":false,"cctv":false,"managerTel":"0318392374","source":"public","category":"public"},{"id":"202441400000100751","name":"연천미산우체국","lat":38.053831,"lng":127.011705,"roadAddr":"경기도 연천군 미산면 청정로 1734","jibunAddr":"경기도 연천군 미산면 우정리 405-6","openHours":"정시","maleToilets":2,"femaleToilets":0,"disabled":false,"diaperTable":false,"emergencyBell":false,"cctv":false,"managerTel":"0318337301","source":"public","category":"public"},{"id":"202441400000100694","name":"진상리 축구장 화장실","lat":38.056276,"lng":127.020371,"roadAddr":"경기도 연천군 군남면 청정로 1818-30","jibunAddr":"경기도 연천군 군남면 진상리 618-3","openHours":"정시","maleToilets":3,"femaleToilets":2,"disabled":false,"diaperTable":false,"emergencyBell":false,"cctv":false,"managerTel":"0318392374","source":"public","category":"public"}]