[{"id":"202441400000100691","name":"백학터미널 화장실","lat":38.032089,"lng":126.914225,"roadAddr":"경기도 연천군 백학면 두백로 32","jibunAddr":"경기도 연천군 백학면 두일리 528-9","openHours":"정시","maleToilets":4,"femaleToilets":2,"disabled":false,"diaperTable":false,"emergencyBell":true,"cctv":false,"managerTel":"0318392715","source":"public","category":"public"},{"id":"202441400000100848","name":"백학면사무소2층","lat":38.02976,"lng":126.917946,"roadAddr":"경기도 연천군 백학면 청정로 534","jibunAddr":"경기도 연천군 백학면 두일리 370","openHours":"정시","maleToilets":5,"femaleToilets":3,"disabled":true,"diaperTable":false,"emergencyBell":true,"cctv":false,"managerTel":"0318392715","source":"public","category":"public"},{"id":"202441400000100844","name":"연천백학우체국","lat":38.031052,"lng":126.914417,"roadAddr":"경기도 연천군 백학면 두백로 21","jibunAddr":"경기도 연천군 백학면 두일리 519-11","openHours":"정시","maleToilets":1,"femaleToilets":1,"disabled":false,"diaperTable":false,"emergencyBell":false,"cctv":false,"managerTel":"0318355205","source":"public","category":"public"},{"id":"202441400000100849","name":"백학면사무소1층","lat":38.02976,"lng":126.917946,"roadAddr":"경기도 연천군 백학면 청정로 534","jibunAddr":"경기도 연천군 백학면 두일리 370","openHours":"정시","maleToilets":5,"femaleToilets":3,"disabled":true,"diaperTable":false,"emergencyBell":false,"cctv":false,"managerTel":"0318392715","source":"public","category":"public"},{"id":"202441400000100689","name":"전곡농협 백학 주유소","lat":38.027872,"lng":126.91698,"roadAddr":"경기도 연천군 백학면 청정로 516-1","jibunAddr":"경기도 연천군 백학면 두일리 374-3","openHours":"정시","maleToilets":3,"femaleToilets":2,"disabled":false,"diaperTable":false,"emergencyBell":false,"cctv":false,"managerTel":"0318322153","source":"public","category":"public"},{"id":"202441400000100692","name":"백학자연생태학습장","lat":38.02611,"lng":126.921924,"jibunAddr":"경기도 연천군 백학면 통구리 222","openHours":"상시","maleToilets":10,"femaleToilets":7,"disabled":true,"diaperTable":false,"emergencyBell":false,"cctv":false,"managerTel":"0318392408","source":"public","category":"public"},{"id":"202441400000100829","name":"백학저수지","lat":38.031485,"lng":126.924546,"jibunAddr":"경기도 연천군 백학면 통구리 산 53-2","openHours":"불규칙","maleToilets":2,"femaleToilets":2,"disabled":false,"diaperTable":false,"emergencyBell":false,"cctv":false,"managerTel":"0318392375","source":"public","category":"public"}]