[{"id":"202441400000100773","name":"연천우체국","lat":38.101868,"lng":127.075299,"roadAddr":"경기도 연천군 연천읍 연천로 280","jibunAddr":"경기도 연천군 연천읍 차탄리 34-7","openHours":"정시","maleToilets":19,"femaleToilets":8,"disabled":true,"diaperTable":false,"emergencyBell":false,"cctv":true,"managerTel":"0318340003","source":"public","category":"public"},{"id":"202441400000100780","name":"수레울아트홀1","lat":38.107141,"lng":127.079725,"roadAddr":"경기도 연천군 연천읍 문화로 150","jibunAddr":"경기도 연천군 연천읍 옥산리 320","openHours":"정시","maleToilets":17,"femaleToilets":20,"disabled":true,"diaperTable":true,"emergencyBell":true,"cctv":false,"managerTel":"0318343770","source":"public","category":"public"},{"id":"202441400000100749","name":"옥산제방","lat":38.112582,"lng":127.078031,"jibunAddr":"경기도 연천군 연천읍 옥산리 476-8","openHours":"상시","maleToilets":1,"femaleToilets":1,"disabled":false,"diaperTable":false,"emergencyBell":false,"cctv":false,"managerTel":"0318392248","source":"public","category":"public"},{"id":"202441400000100779","name":"종합운동장야외","lat":38.107141,"lng":127.079725,"roadAddr":"경기도 연천군 연천읍 문화로 150","jibunAddr":"경기도 연천군 연천읍 옥산리 320","openHours":"상시","maleToilets":7,"femaleToilets":4,"disabled":true,"diaperTable":true,"emergencyBell":true,"cctv":false,"managerTel":"0318343770","source":"public","category":"public"},{"id":"202441400000100717","name":"연천보건지소","lat":38.134974,"lng":127.077044,"roadAddr":"경기도 연천군 연천읍 신망로15번길 30","jibunAddr":"경기도 연천군 연천읍 상리 149","openHours":"정시","maleToilets":2,"femaleToilets":1,"disabled":true,"diaperTable":false,"emergencyBell":false,"cctv":false,"managerTel":"0318394084","source":"public","category":"public"},{"id":"202441400000100775","name":"연천공영버스터미널","lat":38.101351,"lng":127.078412,"roadAddr":"경기도 연천군 연천읍 연천역로 29","jibunAddr":"경기도 연천군 연천읍 옥산리 459-11","openHours":"상시","maleToilets":8,"femaleToilets":8,"disabled":true,"diaperTable":true,"emergencyBell":true,"cctv":false,"managerTel":"0318345777","source":"public","category":"public"},{"id":"202441400000100668","name":"신망리","lat":38.13261,"lng":127.078291,"roadAddr":"경기도 연천군 연천읍 연신로483번길 1","jibunAddr":"경기도 연천군 연천읍 상리 131-1","openHours":"상시","maleToilets":1,"femaleToilets":1,"disabled":false,"diaperTable":false,"emergencyBell":false,"cctv":false,"managerTel":"15447788","source":"public","category":"public"},{"id":"202441400000100669","name":"형제주유소","lat":38.110565,"lng":127.075004,"roadAddr":"경기도 연천군 연천읍 연천로 377","jibunAddr":"경기도 연천군 연천읍 현가리 37","openHours":"상시","maleToilets":2,"femaleToilets":1,"disabled":false,"diaperTable":false,"emergencyBell":false,"cctv":true,"managerTel":"0318345151","source":"public","category":"public"},{"id":"202441400000100731","name":"망곡산 체육공원","lat":38.103529,"lng":127.071891,"jibunAddr":"경기도 연천군 연천읍 차탄리 산 1-1","openHours":"정시","maleToilets":2,"femaleToilets":1,"disabled":false,"diaperTable":false,"emergencyBell":false,"cctv":false,"managerTel":"0318392248","source":"public","category":"public"},{"id":"202441400000100781","name":"수레울아트홀2","lat":38.107141,"lng":127.079725,"roadAddr":"경기도 연천군 연천읍 문화로 150","jibunAddr":"경기도 연천군 연천읍 옥산리 320","openHours":"정시","maleToilets":14,"femaleToilets":12,"disabled":true,"diaperTable":false,"emergencyBell":true,"cctv":false,"managerTel":"0318343770","source":"public","category":"public"},{"id":"202441400000100832","name":"평화의길12코스(옥산리)화장실","lat":38.135337,"lng":127.085913,"jibunAddr":"경기도 연천군 연천읍 옥산리 769-1","openHours":"상시","maleToilets":2,"femaleToilets":2,"disabled":false,"diaperTable":false,"emergencyBell":true,"cctv":false,"managerTel":"0319568306","source":"public","category":"public"},{"id":"202441400000100850","name":"연천교육지원청","lat":38.10882,"lng":127.076026,"roadAddr":"경기도 연천군 연천읍 연천로 356-1","jibunAddr":"경기도 연천군 연천읍 현가리 43-13","openHours":"정시","maleToilets":5,"femaleToilets":2,"disabled":true,"diaperTable":false,"emergencyBell":false,"cctv":false,"managerTel":"0318390212","source":"public","category":"public"},{"id":"202441400000100792","name":"상리작은도서관","lat":38.134862,"lng":127.078365,"roadAddr":"경기도 연천군 연천읍 신망로 26","jibunAddr":"경기도 연천군 연천읍 상리 139-3","openHours":"정시","maleToilets":2,"femaleToilets":1,"disabled":false,"diaperTable":false,"emergencyBell":true,"cctv":false,"managerTel":"0318344448","source":"public","category":"public"}]