[{"id":"202443110000100143","name":"화천유치원","lat":38.104743,"lng":127.708847,"roadAddr":"강원특별자치도 화천군 화천읍 화천새싹길57","jibunAddr":"강원특별자치도 화천군 화천읍 하리 211-2","openHours":"09:00~18:00","maleToilets":9,"femaleToilets":11,"disabled":false,"diaperTable":false,"emergencyBell":false,"cctv":true,"managerTel":"0334423384","source":"public","category":"public"},{"id":"202443110000100142","name":"화천군청","lat":38.105621,"lng":127.707928,"roadAddr":"강원특별자치도 화천군 화천읍 화천새싹길45","jibunAddr":"강원특별자치도 화천군 화천읍 아리 239","openHours":"09:00~18:00","maleToilets":32,"femaleToilets":14,"disabled":true,"diaperTable":false,"emergencyBell":true,"cctv":true,"managerTel":"0334402277","source":"public","category":"public"},{"id":"202443110000100068","name":"재단법인나라","lat":38.112487,"lng":127.709853,"roadAddr":"강원특별자치도 화천군 화천읍 산천어길137","jibunAddr":"강원특별자치도 화천군 화천읍 중리 186-5","openHours":"09:00~18:00","maleToilets":5,"femaleToilets":3,"disabled":false,"diaperTable":false,"emergencyBell":false,"cctv":false,"managerTel":"0334417575","source":"public","category":"public"},{"id":"202443110000100121","name":"KT화천지사","lat":38.103849,"lng":127.708668,"roadAddr":"강원특별자치도 화천군 화천읍 중앙로33-14","jibunAddr":"강원특별자치도 화천군 화천읍 하리 14-2","openHours":"09:00~18:00","maleToilets":17,"femaleToilets":3,"disabled":false,"diaperTable":false,"emergencyBell":true,"cctv":true,"managerTel":"0334422858","source":"public","category":"public"},{"id":"202443110000100066","name":"화천군선거관리위원회","lat":38.110533,"lng":127.707959,"roadAddr":"강원특별자치도 화천군 화천읍 산수화로49","jibunAddr":"강원특별자치도 화천군 화천읍 상리 2-29","openHours":"09:00~18:00","maleToilets":2,"femaleToilets":1,"disabled":false,"diaperTable":false,"emergencyBell":false,"cctv":false,"managerTel":"0334422857","source":"public","category":"public"},{"id":"202443110000100065","name":"한국국토정보공사화천지사","lat":38.110175,"lng":127.708267,"roadAddr":"강원특별자치도 화천군 화천읍 산수화로48","jibunAddr":"강원특별자치도 화천군 화천읍 상리 2-52","openHours":"09:00~18:00","maleToilets":2,"femaleToilets":1,"disabled":false,"diaperTable":false,"emergencyBell":false,"cctv":false,"managerTel":"0334422569","source":"public","category":"public"},{"id":"202443110000100125","name":"하리파출소","lat":38.102761,"lng":127.705128,"roadAddr":"강원특별자치도 화천군 화천읍 중앙로6길40","jibunAddr":"강원특별자치도 화천군 화천읍 하리 53-44","openHours":"09:00~18:00","maleToilets":2,"femaleToilets":1,"disabled":true,"diaperTable":false,"emergencyBell":false,"cctv":false,"managerTel":"0334422113","source":"public","category":"public"},{"id":"202443110000100119","name":"화천시내버스터미널","lat":38.103905,"lng":127.706426,"roadAddr":"강원특별자치도 화천군 화천읍 중앙로24","jibunAddr":"강원특별자치도 화천군 화천읍 하리 50-7","openHours":"06:00~22:00","maleToilets":5,"femaleToilets":3,"disabled":false,"diaperTable":false,"emergencyBell":false,"cctv":true,"managerTel":"0334422092","source":"public","category":"public"},{"id":"202443110000100118","name":"화천농협","lat":38.104757,"lng":127.705757,"roadAddr":"강원특별자치도 화천군 화천읍 중앙로13","jibunAddr":"강원특별자치도 화천군 화천읍 하리 44-22","openHours":"09:00~18:00","maleToilets":7,"femaleToilets":4,"disabled":true,"diaperTable":false,"emergencyBell":false,"cctv":true,"managerTel":"0334422480","source":"public","category":"public"},{"id":"202443110000100141","name":"화천군 의회","lat":38.105472,"lng":127.707262,"roadAddr":"강원특별자치도 화천군 화천읍 화천새싹길40","jibunAddr":"강원특별자치도 화천군 화천읍 아리 256-3","openHours":"09:00~18:00","maleToilets":12,"femaleToilets":6,"disabled":true,"diaperTable":false,"emergencyBell":false,"cctv":false,"managerTel":"0334402721","source":"public","category":"public"},{"id":"202443110000100124","name":"화천군산림조합","lat":38.103159,"lng":127.705906,"roadAddr":"강원특별자치도 화천군 화천읍 중앙로6길21-2","jibunAddr":"강원특별자치도 화천군 화천읍 하리 51-6","openHours":"09:00~18:00","maleToilets":2,"femaleToilets":1,"disabled":false,"diaperTable":false,"emergencyBell":false,"cctv":false,"managerTel":"0334413232","source":"public","category":"public"},{"id":"202443110000100123","name":"강원다누리신용협동조합","lat":38.104427,"lng":127.706204,"roadAddr":"강원특별자치도 화천군 화천읍 중앙로5길2","jibunAddr":"강원특별자치도 화천군 화천읍 하리 47-7","openHours":"09:00~18:00","maleToilets":3,"femaleToilets":2,"disabled":false,"diaperTable":false,"emergencyBell":false,"cctv":true,"managerTel":"0334422727","source":"public","category":"public"},{"id":"202443110000100102","name":"춘천지방법원화천군법원(화천등기소)","lat":38.109904,"lng":127.705372,"roadAddr":"강원특별자치도 화천군 화천읍 상승로102","jibunAddr":"강원특별자치도 화천군 화천읍 상리 49-5","openHours":"09:00~18:00","maleToilets":7,"femaleToilets":2,"disabled":true,"diaperTable":false,"emergencyBell":false,"cctv":false,"managerTel":"15440773","source":"public","category":"public"},{"id":"202443110000100067","name":"한국전력공사","lat":38.111234,"lng":127.708027,"roadAddr":"강원특별자치도 화천군 화천읍 산수화로53","jibunAddr":"강원특별자치도 화천군 화천읍 상리 2-26","openHours":"09:00~18:00","maleToilets":14,"femaleToilets":6,"disabled":true,"diaperTable":false,"emergencyBell":false,"cctv":true,"managerTel":"0332452000","source":"public","category":"public"},{"id":"202443110000100070","name":"청소년수련관","lat":38.108729,"lng":127.711594,"roadAddr":"강원특별자치도 화천군 화천읍 산천어길79","jibunAddr":"강원특별자치도 화천군 화천읍 중리 212-7","openHours":"09:00~18:00","maleToilets":15,"femaleToilets":10,"disabled":true,"diaperTable":false,"emergencyBell":false,"cctv":true,"managerTel":"0334427953","source":"public","category":"public"},{"id":"202443110000100126","name":"평화주유소","lat":38.132321,"lng":127.742339,"roadAddr":"강원특별자치도 화천군 화천읍 평화로1115","jibunAddr":"강원특별자치도 화천군 화천읍 풍산리 1278-1","openHours":"상시","maleToilets":4,"femaleToilets":0,"disabled":false,"diaperTable":false,"emergencyBell":false,"cctv":false,"managerTel":"0334410088","source":"public","category":"public"},{"id":"202443110000100144","name":"화천초등학교","lat":38.104743,"lng":127.708847,"roadAddr":"강원특별자치도 화천군 화천읍 화천새싹길57화천초등학교","jibunAddr":"강원특별자치도 화천군 화천읍 하리 211-2","openHours":"09:00~18:00","maleToilets":35,"femaleToilets":33,"disabled":false,"diaperTable":false,"emergencyBell":false,"cctv":false,"managerTel":"0334412122","source":"public","category":"public"},{"id":"202443110000100122","name":"화천시장가동","lat":38.103712,"lng":127.705674,"roadAddr":"강원특별자치도 화천군 화천읍 중앙로4길13-8","jibunAddr":"강원특별자치도 화천군 화천읍 하리 52-19","openHours":"09:00~18:00","maleToilets":8,"femaleToilets":4,"disabled":true,"diaperTable":false,"emergencyBell":true,"cctv":true,"managerTel":"0334424013","source":"public","category":"public"},{"id":"202443110000100058","name":"화천군 보건의료원","lat":38.107383,"lng":127.709078,"roadAddr":"강원특별자치도 화천군 화천읍 강변로111","jibunAddr":"강원특별자치도 화천군 화천읍 중리 242-4","openHours":"09:00~18:00","maleToilets":16,"femaleToilets":12,"disabled":true,"diaperTable":false,"emergencyBell":false,"cctv":false,"managerTel":"0334422804","source":"public","category":"public"},{"id":"202443110000100120","name":"화천우체국","lat":38.103824,"lng":127.707464,"roadAddr":"강원특별자치도 화천군 화천읍 중앙로29","jibunAddr":"강원특별자치도 화천군 화천읍 하리 17-4","openHours":"09:00~18:00","maleToilets":19,"femaleToilets":7,"disabled":true,"diaperTable":false,"emergencyBell":false,"cctv":false,"managerTel":"0334423003","source":"public","category":"public"},{"id":"202443110000100140","name":"화천경찰서","lat":38.10638,"lng":127.707742,"roadAddr":"강원특별자치도 화천군 화천읍 화천새싹길33","jibunAddr":"강원특별자치도 화천군 화천읍 아리 241","openHours":"00:00~00:00","maleToilets":14,"femaleToilets":2,"disabled":true,"diaperTable":false,"emergencyBell":true,"cctv":false,"managerTel":"0334400112","source":"public","category":"public"}]