[{"id":"202443110000100008","name":"간동파출소","lat":38.054502,"lng":127.812833,"roadAddr":"강원특별자치도 화천군 간동면 파로호로1144","jibunAddr":"강원특별자치도 화천군 간동면 오음리 2-53","openHours":"09:00~18:00","maleToilets":1,"femaleToilets":0,"disabled":true,"diaperTable":false,"emergencyBell":false,"cctv":false,"managerTel":"0334425112","source":"public","category":"public"},{"id":"202443110000100052","name":"간동야구장","lat":38.054077,"lng":127.832093,"roadAddr":"강원특별자치도 화천군 간동면 오음리89","jibunAddr":"강원특별자치도 화천군 간동면 오음리 89","openHours":"상시","maleToilets":5,"femaleToilets":3,"disabled":true,"diaperTable":false,"emergencyBell":false,"cctv":false,"managerTel":"0334402357","source":"public","category":"public"},{"id":"202443110000100003","name":"오음초등학교","lat":38.054612,"lng":127.821838,"roadAddr":"강원특별자치도 화천군 간동면 동림길47오음초등학교","jibunAddr":"강원특별자치도 화천군 간동면 오음리 248","openHours":"09:00~18:00","maleToilets":12,"femaleToilets":6,"disabled":true,"diaperTable":false,"emergencyBell":false,"cctv":false,"managerTel":"0334421014","source":"public","category":"public"},{"id":"202443110000100051","name":"월남파병용사만남의광장","lat":38.052917,"lng":127.833049,"roadAddr":"강원특별자치도 화천군 간동면 오음리87-7","jibunAddr":"강원특별자치도 화천군 간동면 오음리 87-7","openHours":"09:00~18:00","maleToilets":15,"femaleToilets":8,"disabled":true,"diaperTable":false,"emergencyBell":false,"cctv":false,"managerTel":"0334418002","source":"public","category":"public"},{"id":"202443110000100007","name":"푸른주유소","lat":38.028894,"lng":127.821589,"roadAddr":"강원특별자치도 화천군 간동면 춘양로932","jibunAddr":"강원특별자치도 화천군 간동면 간척리 681-16","openHours":"09:00~18:00","maleToilets":3,"femaleToilets":2,"disabled":false,"diaperTable":false,"emergencyBell":false,"cctv":false,"managerTel":"0334422000","source":"public","category":"public"},{"id":"202443110000100045","name":"오음보건소","lat":38.052884,"lng":127.817777,"roadAddr":"강원특별자치도 화천군 간동면 간척명월로292","jibunAddr":"강원특별자치도 화천군 간동면 오음리 593-1","openHours":"09:00~18:00","maleToilets":0,"femaleToilets":0,"disabled":true,"diaperTable":false,"emergencyBell":false,"cctv":false,"managerTel":"0334425207","source":"public","category":"public"},{"id":"202443110000100049","name":"간동농협협동조합","lat":38.053632,"lng":127.816566,"roadAddr":"강원특별자치도 화천군 간동면 간척월명로299","jibunAddr":"강원특별자치도 화천군 간동면 오음리 586-2","openHours":"09:00~18:00","maleToilets":8,"femaleToilets":4,"disabled":false,"diaperTable":false,"emergencyBell":false,"cctv":false,"managerTel":"0334425034","source":"public","category":"public"},{"id":"202443110000100001","name":"화천소방소간동119지역대","lat":38.055217,"lng":127.819503,"roadAddr":"강원특별자치도 화천군 간동면 동림길17","jibunAddr":"강원특별자치도 화천군 간동면 오음리 647-1","openHours":"09:00~18:00","maleToilets":3,"femaleToilets":0,"disabled":false,"diaperTable":false,"emergencyBell":false,"cctv":false,"managerTel":"0334407221","source":"public","category":"public"},{"id":"202443110000100048","name":"간동종합문화센터","lat":38.053449,"lng":127.816812,"roadAddr":"강원특별자치도 화천군 간동면 간척월명로293","jibunAddr":"강원특별자치도 화천군 간동면 오음리 612-1","openHours":"09:00~18:00","maleToilets":10,"femaleToilets":6,"disabled":true,"diaperTable":true,"emergencyBell":false,"cctv":false,"managerTel":"0334402637","source":"public","category":"public"},{"id":"202443110000100050","name":"간동우체국","lat":38.054629,"lng":127.816974,"roadAddr":"강원특별자치도 화천군 간동면 간척월명로307","jibunAddr":"강원특별자치도 화천군 간동면 오음리 592-6","openHours":"09:00~18:00","maleToilets":0,"femaleToilets":0,"disabled":true,"diaperTable":false,"emergencyBell":false,"cctv":false,"managerTel":"0334405001","source":"public","category":"public"},{"id":"202443110000100002","name":"오음초등학교병설유치원","lat":38.054612,"lng":127.821838,"roadAddr":"강원특별자치도 화천군 간동면 동림길47","jibunAddr":"강원특별자치도 화천군 간동면 오음리 248","openHours":"09:00~18:00","maleToilets":0,"femaleToilets":0,"disabled":false,"diaperTable":false,"emergencyBell":false,"cctv":false,"managerTel":"0334421054","source":"public","category":"public"},{"id":"202443110000100047","name":"간동주유소","lat":38.052918,"lng":127.817874,"roadAddr":"강원특별자치도 화천군 간동면 간척월명로286","jibunAddr":"강원특별자치도 화천군 간동면 오음리 574-4","openHours":"09:00~18:00","maleToilets":2,"femaleToilets":1,"disabled":false,"diaperTable":false,"emergencyBell":false,"cctv":false,"managerTel":"0334421136","source":"public","category":"public"}]