[{"id":"202443110000100111","name":"정보산업고등학교체육관","lat":38.107712,"lng":127.704803,"roadAddr":"강원특별자치도 화천군 화천읍 상승로69","jibunAddr":"강원특별자치도 화천군 화천읍 하리 76","openHours":"09:00~18:00","maleToilets":7,"femaleToilets":4,"disabled":false,"diaperTable":false,"emergencyBell":false,"cctv":false,"managerTel":"0334401615","source":"public","category":"public"},{"id":"202443110000100110","name":"춘천철원축협화천지점","lat":38.104828,"lng":127.703887,"roadAddr":"강원특별자치도 화천군 화천읍 상승로41","jibunAddr":"강원특별자치도 화천군 화천읍 하리 101-1","openHours":"09:00~18:00","maleToilets":8,"femaleToilets":6,"disabled":false,"diaperTable":false,"emergencyBell":false,"cctv":false,"managerTel":"0334424182","source":"public","category":"public"},{"id":"202443110000100107","name":"화천시외버스터미널","lat":38.104467,"lng":127.70429,"roadAddr":"강원특별자치도 화천군 화천읍 상승로38-5","jibunAddr":"강원특별자치도 화천군 회천읍 하리 43-53","openHours":"06:00~22:00","maleToilets":7,"femaleToilets":6,"disabled":true,"diaperTable":true,"emergencyBell":true,"cctv":true,"managerTel":"0334422902","source":"public","category":"public"},{"id":"202443110000100031","name":"화천초등학교논미분교장","lat":38.109249,"lng":127.668819,"roadAddr":"강원특별자치도 화천군 하남면 논미1길153","jibunAddr":"강원특별자치도 화천군 하남면 논미리 275-2","openHours":"09:00~18:00","maleToilets":4,"femaleToilets":2,"disabled":true,"diaperTable":false,"emergencyBell":false,"cctv":false,"managerTel":"0334422809","source":"public","category":"public"},{"id":"202443110000100112","name":"화천경영팀춘천국유림사무실","lat":38.110718,"lng":127.704926,"roadAddr":"강원특별자치도 화천군 화천읍 상승로7길17","jibunAddr":"강원특별자치도 화천군 화천읍 상리 52-3","openHours":"09:00~18:00","maleToilets":2,"femaleToilets":0,"disabled":true,"diaperTable":false,"emergencyBell":false,"cctv":false,"managerTel":"0334414466","source":"public","category":"public"},{"id":"202443110000100079","name":"화천농기계임대사업소","lat":38.116544,"lng":127.682935,"roadAddr":"강원특별자치도 화천군 상서면 영서로 6387-6","jibunAddr":"강원특별자치도 화천군 화천읍 신풍리 795","openHours":"09:00~18:00","maleToilets":3,"femaleToilets":1,"disabled":false,"diaperTable":false,"emergencyBell":false,"cctv":false,"managerTel":"0334416258","source":"public","category":"public"},{"id":"202443110000100113","name":"화천군문화복지센터","lat":38.111676,"lng":127.70495,"roadAddr":"강원특별자치도 화천군 화천읍 상승로8길15-19","jibunAddr":"강원특별자치도 화천군 화천읍 상리 20-10","openHours":"09:00~18:00","maleToilets":16,"femaleToilets":20,"disabled":true,"diaperTable":false,"emergencyBell":true,"cctv":true,"managerTel":"0334402323","source":"public","category":"public"},{"id":"202443110000100080","name":"화천군 농업기술센터","lat":38.115855,"lng":127.681852,"roadAddr":"강원특별자치도 화천군 상서면 영서로 6387-9","jibunAddr":"강원특별자치도 화천군 화천읍 신풍리 809","openHours":"09:00~18:00","maleToilets":9,"femaleToilets":9,"disabled":true,"diaperTable":false,"emergencyBell":false,"cctv":false,"managerTel":"0334402902","source":"public","category":"public"},{"id":"202443110000100109","name":"화천도서관","lat":38.106761,"lng":127.704405,"roadAddr":"강원특별자치도 화천군 화천읍 상승로3길22","jibunAddr":"강원특별자치도 화천군 상서면 산양리 738-8","openHours":"09:00~18:00","maleToilets":10,"femaleToilets":2,"disabled":true,"diaperTable":false,"emergencyBell":false,"cctv":false,"managerTel":"0334420079","source":"public","category":"public"},{"id":"202443110000100117","name":"화천시장나동","lat":38.104377,"lng":127.705031,"roadAddr":"강원특별자치도 화천군 화천읍 중앙로10-10","jibunAddr":"강원특별자치도 화천군 화천읍 하리 44-34","openHours":"상시","maleToilets":5,"femaleToilets":4,"disabled":true,"diaperTable":true,"emergencyBell":true,"cctv":false,"managerTel":"0334424013","source":"public","category":"public"},{"id":"202443110000100106","name":"산천어시네마","lat":38.106228,"lng":127.702866,"roadAddr":"강원특별자치도 화천군 화천읍 상승로2길25-10","jibunAddr":"강원특별자치도 화천군 화천읍 하리 97-1","openHours":"09:00~18:00","maleToilets":6,"femaleToilets":3,"disabled":false,"diaperTable":false,"emergencyBell":false,"cctv":false,"managerTel":"0334417053","source":"public","category":"public"},{"id":"202443110000100105","name":"화천상하수도사업소","lat":38.104396,"lng":127.696083,"roadAddr":"강원특별자치도 화천군 화천읍 상승로1길67","jibunAddr":"강원특별자치도 화천군 화천읍 하리 산2-9","openHours":"09:00~18:00","maleToilets":8,"femaleToilets":2,"disabled":false,"diaperTable":false,"emergencyBell":false,"cctv":false,"managerTel":"0334402370","source":"public","category":"public"},{"id":"202443110000100116","name":"화천농협중앙간이지소","lat":38.113422,"lng":127.683288,"roadAddr":"강원특별자치도 화천군 화천읍 영서로6371-1","jibunAddr":"강원특별자치도 화천군 화천읍 상리 366","openHours":"09:00~18:00","maleToilets":10,"femaleToilets":5,"disabled":false,"diaperTable":false,"emergencyBell":false,"cctv":true,"managerTel":"0334422480","source":"public","category":"public"},{"id":"202443110000100081","name":"화천군 농업기술센터별관","lat":38.115855,"lng":127.681852,"roadAddr":"강원특별자치도 화천군 상서면 영서로 6387-9","jibunAddr":"강원특별자치도 화천군 화천읍 신풍리 809","openHours":"09:00~18:00","maleToilets":12,"femaleToilets":9,"disabled":true,"diaperTable":false,"emergencyBell":false,"cctv":false,"managerTel":"0334402902","source":"public","category":"public"},{"id":"202443110000100059","name":"문화공간예술텃밭텃밭극장","lat":38.134414,"lng":127.699719,"roadAddr":"강원특별자치도 화천군 화천읍 노신로274","jibunAddr":"강원특별자치도 화천군 화천읍 신읍리 951-10","openHours":"09:00~18:00","maleToilets":1,"femaleToilets":1,"disabled":false,"diaperTable":false,"emergencyBell":false,"cctv":false,"managerTel":"0334423881","source":"public","category":"public"},{"id":"202443110000100108","name":"화천농협주유소","lat":38.10454,"lng":127.703699,"roadAddr":"강원특별자치도 화천군 화천읍 상승로39","jibunAddr":"강원특별자치도 화천군 화천읍 하리 35-1","openHours":"09:00~18:00","maleToilets":2,"femaleToilets":1,"disabled":false,"diaperTable":false,"emergencyBell":false,"cctv":false,"managerTel":"0334422167","source":"public","category":"public"},{"id":"202443110000100104","name":"화천어린이도서관","lat":38.103846,"lng":127.702311,"roadAddr":"강원특별자치도 화천군 화천읍 상승로1길 9","jibunAddr":"강원특별자치도 화천군 화천읍 하리 31-22","openHours":"09:00~18:00","maleToilets":7,"femaleToilets":5,"disabled":false,"diaperTable":false,"emergencyBell":false,"cctv":false,"managerTel":"0334400078","source":"public","category":"public"},{"id":"202443110000100069","name":"도로관리사업소북부지소","lat":38.114702,"lng":127.703289,"roadAddr":"강원특별자치도 화천군 화천읍 산천어길188","jibunAddr":"강원특별자치도 화천군 화천읍 신읍리 658-11","openHours":"09:00~18:00","maleToilets":9,"femaleToilets":3,"disabled":true,"diaperTable":false,"emergencyBell":false,"cctv":false,"managerTel":"0334412691","source":"public","category":"public"},{"id":"202443110000100103","name":"화천교육지원청","lat":38.103315,"lng":127.702682,"roadAddr":"강원특별자치도 화천군 화천읍 상승로19","jibunAddr":"강원특별자치도 화천군 화천읍 하리 29-2","openHours":"09:00~18:00","maleToilets":6,"femaleToilets":6,"disabled":true,"diaperTable":false,"emergencyBell":true,"cctv":true,"managerTel":"0334401519","source":"public","category":"public"},{"id":"202443110000100114","name":"화천읍사무소","lat":38.108667,"lng":127.704741,"roadAddr":"강원특별자치도 화천군 화천읍 상승로91","jibunAddr":"강원특별자치도 화천군 화천읍 하리 84-1","openHours":"09:00~18:00","maleToilets":18,"femaleToilets":9,"disabled":false,"diaperTable":false,"emergencyBell":true,"cctv":false,"managerTel":"0334402573","source":"public","category":"public"},{"id":"202443110000100115","name":"물레방아공원","lat":38.109115,"lng":127.704478,"roadAddr":"강원특별자치도 화천군 화천읍 상승로95","jibunAddr":"강원특별자치도 화천군 화천읍 상리 38-1","openHours":"상시","maleToilets":4,"femaleToilets":4,"disabled":false,"diaperTable":false,"emergencyBell":false,"cctv":false,"managerTel":"0334402446","source":"public","category":"public"}]