[{"id":"202443110000100093","name":"군장병안내소","lat":38.210903,"lng":127.664236,"roadAddr":"강원특별자치도 화천군 상서면 주파령로4","jibunAddr":"강원특별자치도 화천군 상서면 산양리 512-46","openHours":"09:00~18:00","maleToilets":6,"femaleToilets":4,"disabled":false,"diaperTable":false,"emergencyBell":false,"cctv":false,"managerTel":"0334402619","source":"public","category":"public"},{"id":"202443110000100029","name":"화천소방소 상서119지역대","lat":38.210705,"lng":127.663198,"roadAddr":"강원특별자치도 화천군 상서면 영서로7759-15","jibunAddr":"강원특별자치도 화천군 상서면 산양리 511-5","openHours":"상시","maleToilets":4,"femaleToilets":1,"disabled":false,"diaperTable":false,"emergencyBell":false,"cctv":false,"managerTel":"0334407221","source":"public","category":"public"},{"id":"202443110000100027","name":"산양병설유치원","lat":38.212556,"lng":127.663134,"roadAddr":"강원특별자치도 화천군 상서면 영서로 7778","jibunAddr":"강원특별자치도 화천군 상서면 산양리 707","openHours":"09:00~18:00","maleToilets":0,"femaleToilets":1,"disabled":false,"diaperTable":false,"emergencyBell":false,"cctv":false,"managerTel":"0334420033","source":"public","category":"public"},{"id":"202443110000100028","name":"산양초등학교","lat":38.212556,"lng":127.663134,"roadAddr":"강원특별자치도 화천군 상서면 영서로 7778","jibunAddr":"강원특별자치도 화천군 상서면 산양리 707","openHours":"09:00~18:00","maleToilets":10,"femaleToilets":8,"disabled":true,"diaperTable":false,"emergencyBell":false,"cctv":false,"managerTel":"0334426006","source":"public","category":"public"},{"id":"202443110000100086","name":"산양보건지소","lat":38.210585,"lng":127.663348,"roadAddr":"강원특별자치도 화천군 상서면 영서로 7759-17","jibunAddr":"강원특별자치도 화천군 상서면 산양리 511-7","openHours":"09:00~18:00","maleToilets":0,"femaleToilets":0,"disabled":false,"diaperTable":false,"emergencyBell":false,"cctv":false,"managerTel":"0334426121","source":"public","category":"public"},{"id":"202443110000100091","name":"산양시외버스터미널","lat":38.207125,"lng":127.66205,"roadAddr":"강원특별자치도 화천군 상서면 영서로7715","jibunAddr":"강원특별자치도 화천군 상서면 산양리 738-41","openHours":"06:00~22:00","maleToilets":4,"femaleToilets":3,"disabled":false,"diaperTable":false,"emergencyBell":false,"cctv":true,"managerTel":"0334426189","source":"public","category":"public"},{"id":"202443110000100084","name":"상서우체국","lat":38.206259,"lng":127.661978,"roadAddr":"강원특별자치도 화천군 상서면 영서로 7703","jibunAddr":"강원특별자치도 화천군 상서면 산양리 738-4","openHours":"09:00~18:00","maleToilets":2,"femaleToilets":1,"disabled":false,"diaperTable":false,"emergencyBell":false,"cctv":false,"managerTel":"0334426001","source":"public","category":"public"},{"id":"202443110000100090","name":"상서주유소","lat":38.197585,"lng":127.666613,"roadAddr":"강원특별자치도 화천군 상서면 영서로7588","jibunAddr":"강원특별자치도 화천군 상서면 산양리 424-1","openHours":"06:00~22:00","maleToilets":2,"femaleToilets":2,"disabled":false,"diaperTable":false,"emergencyBell":false,"cctv":false,"managerTel":"0334426600","source":"public","category":"public"},{"id":"202443110000100085","name":"DMZ체육관","lat":38.209993,"lng":127.662502,"roadAddr":"강원특별자치도 화천군 상서면 영서로 7739","jibunAddr":"강원특별자치도 화천군 상서면 산양리 737","openHours":"09:00~18:00","maleToilets":9,"femaleToilets":3,"disabled":true,"diaperTable":false,"emergencyBell":false,"cctv":false,"managerTel":"0334402357","source":"public","category":"public"}]