[{"id":"202243310000100041","name":"용대관광지2","lat":38.185768,"lng":128.306667,"jibunAddr":"북면 용대리 1795","openHours":"24시간","maleToilets":10,"femaleToilets":12,"disabled":true,"diaperTable":false,"emergencyBell":true,"cctv":false,"managerTel":"0334602063","source":"public","category":"public"},{"id":"202243310000100027","name":"12선녀탕주유소","lat":38.184074,"lng":128.292672,"roadAddr":"강원특별자치도 인제군 북면 미시령로 660","openHours":"영업시간","maleToilets":2,"femaleToilets":1,"disabled":false,"diaperTable":false,"emergencyBell":false,"cctv":false,"source":"public","category":"public"},{"id":"202243310000100040","name":"용대관광지1","lat":38.185646,"lng":128.303462,"jibunAddr":"북면 용대리 1788-1","openHours":"24시간","maleToilets":6,"femaleToilets":6,"disabled":true,"diaperTable":false,"emergencyBell":true,"cctv":false,"managerTel":"0334602063","source":"public","category":"public"},{"id":"202243310000100103","name":"용대관광지내 솔밭","lat":38.184537,"lng":128.311244,"jibunAddr":"북면 용대리 1828-1","openHours":"24시간","maleToilets":1,"femaleToilets":2,"disabled":false,"diaperTable":false,"emergencyBell":false,"cctv":false,"managerTel":"0334602063","source":"public","category":"public"},{"id":"202243310000100043","name":"12선녀탕","lat":38.182646,"lng":128.300907,"jibunAddr":"북면 용대리 1333-17","openHours":"24시간","maleToilets":5,"femaleToilets":5,"disabled":false,"diaperTable":false,"emergencyBell":true,"cctv":false,"managerTel":"0334602063","source":"public","category":"public"}]