[{"id":"202543510000100078","name":"낙산어촌계 화장실","lat":38.123043,"lng":128.632091,"roadAddr":"강원특별자치도 양양군 강현면 낙산사로 54-20","jibunAddr":"강원특별자치도 양양군 강현면 전진리 3-15","openHours":"09:00~18:00","maleToilets":3,"femaleToilets":1,"disabled":false,"diaperTable":false,"emergencyBell":false,"cctv":false,"source":"public","category":"public"},{"id":"202543510000100102","name":"양양농협주유소 화장실","lat":38.113686,"lng":128.630686,"roadAddr":"강원특별자치도 양양군 양양읍 동해대로 3039","openHours":"09:00~18:00","maleToilets":3,"femaleToilets":0,"disabled":false,"diaperTable":false,"emergencyBell":false,"cctv":false,"source":"public","category":"public"},{"id":"202543510000100122","name":"낙산해경옆 화장실","lat":38.123077,"lng":128.632265,"roadAddr":"강원특별자치도 양양군 강현면 낙산사로 54-16","jibunAddr":"강원특별자치도 양양군 강현면 전진리 3-13","openHours":"24시간","maleToilets":4,"femaleToilets":5,"disabled":true,"diaperTable":false,"emergencyBell":true,"cctv":false,"source":"public","category":"public"},{"id":"202543510000100124","name":"낙산A지구 백사장 공중화장실","lat":38.11987,"lng":128.631575,"roadAddr":"강원특별자치도 양양군 강현면 해맞이길 17","jibunAddr":"강원특별자치도 양양군 강현면 전진리 7","openHours":"24시간","maleToilets":10,"femaleToilets":8,"disabled":true,"diaperTable":false,"emergencyBell":true,"cctv":false,"source":"public","category":"public"},{"id":"202543510000100165","name":"낙산C지구백사장 화장실","lat":38.114889,"lng":128.635769,"jibunAddr":"강원특별자치도 양양군 양양읍 조산리 433-32","openHours":"24시간","maleToilets":9,"femaleToilets":10,"disabled":true,"diaperTable":false,"emergencyBell":true,"cctv":false,"source":"public","category":"public"},{"id":"202543510000100125","name":"낙산대형주차장 도로변 공중화장실","lat":38.119153,"lng":128.629101,"roadAddr":"강원특별자치도 양양군 강현면 낙산사로 18","jibunAddr":"강원특별자치도 양양군 강현면 전진리 19-7","openHours":"24시간","maleToilets":15,"femaleToilets":6,"disabled":true,"diaperTable":false,"emergencyBell":true,"cctv":false,"source":"public","category":"public"},{"id":"202543510000100116","name":"조산 야영장 화장실","lat":38.112231,"lng":128.639055,"roadAddr":"강원특별자치도 양양군 양양읍 일출로 127-9","jibunAddr":"강원특별자치도 양양군 양양읍 조산리 399-56","openHours":"24시간","maleToilets":5,"femaleToilets":6,"disabled":true,"diaperTable":false,"emergencyBell":false,"cctv":false,"source":"public","category":"public"},{"id":"202543510000100164","name":"낙산C지구주차장 화장실","lat":38.112665,"lng":128.636805,"jibunAddr":"강원특별자치도 양양군 양양읍 조산리 433-13","openHours":"24시간","maleToilets":11,"femaleToilets":9,"disabled":true,"diaperTable":false,"emergencyBell":true,"cctv":false,"source":"public","category":"public"},{"id":"202543510000100123","name":"낙산유선조합옆 화장실","lat":38.121935,"lng":128.630949,"roadAddr":"강원특별자치도 양양군 강현면 낙산사로 54-2","jibunAddr":"강원특별자치도 양양군 강현면 전진리 3-17","openHours":"24시간","maleToilets":6,"femaleToilets":4,"disabled":false,"diaperTable":false,"emergencyBell":true,"cctv":false,"source":"public","category":"public"},{"id":"202543510000100127","name":"낙산B지구 백사장 공중화장실","lat":38.117332,"lng":128.63355,"roadAddr":"강원특별자치도 양양군 강현면 해맞이길 55","jibunAddr":"강원특별자치도 양양군 강현면 주청리 1-1","openHours":"24시간","maleToilets":9,"femaleToilets":4,"disabled":true,"diaperTable":false,"emergencyBell":true,"cctv":false,"source":"public","category":"public"},{"id":"202543510000100163","name":"낙산오션밸리 앞 화장실","lat":38.110036,"lng":128.640867,"roadAddr":"강원특별자치도 양양군 양양읍 일출로 127-37","jibunAddr":"강원특별자치도 양양군 양양읍 조산리 399-57","openHours":"24시간","maleToilets":5,"femaleToilets":6,"disabled":true,"diaperTable":false,"emergencyBell":true,"cctv":false,"source":"public","category":"public"},{"id":"202543510000100011","name":"해수욕장 운영계 화장실","lat":38.116976,"lng":128.633825,"roadAddr":"강원특별자치도 양양군 강현면 해맞이길 59","openHours":"09:00~18:00","maleToilets":2,"femaleToilets":1,"disabled":false,"diaperTable":false,"emergencyBell":false,"cctv":false,"source":"public","category":"public"},{"id":"202543510000100126","name":"낙산B지구 주차장 공중화장실","lat":38.116702,"lng":128.632392,"roadAddr":"강원특별자치도 양양군 강현면 일출로 43-7","jibunAddr":"강원특별자치도 양양군 강현면 주청리 2-56","openHours":"24시간","maleToilets":10,"femaleToilets":8,"disabled":true,"diaperTable":false,"emergencyBell":true,"cctv":false,"source":"public","category":"public"},{"id":"202543510000100083","name":"낙산주유소 화장실","lat":38.117178,"lng":128.628622,"roadAddr":"강원특별자치도 양양군 강현면 동해대로 3081","openHours":"09:00~18:00","maleToilets":2,"femaleToilets":2,"disabled":false,"diaperTable":false,"emergencyBell":false,"cctv":false,"source":"public","category":"public"}]