[{"id":"202343410000101310","name":"문암1리항","lat":38.302987,"lng":128.548168,"jibunAddr":"강원특별자치도 고성군 죽왕면 문암진리 10-91","openHours":"상시","maleToilets":2,"femaleToilets":3,"disabled":true,"diaperTable":false,"emergencyBell":true,"cctv":false,"managerTel":"0336803518","source":"public","category":"public"},{"id":"202343410000101317","name":"아야진1리해변","lat":38.276519,"lng":128.552761,"roadAddr":"강원특별자치도 고성군 토성면 아야진해변길 157","jibunAddr":"강원특별자치도 고성군 토성면 아야진리 230-3","openHours":"상시","maleToilets":8,"femaleToilets":5,"disabled":true,"diaperTable":false,"emergencyBell":true,"cctv":false,"managerTel":"0336803356","source":"public","category":"public"},{"id":"202343410000101347","name":"시온주유소","lat":38.291274,"lng":128.544596,"roadAddr":"강원특별자치도 고성군 토성면 동해대로 5439","jibunAddr":"강원특별자치도 고성군 토성면 교암리 44-1","openHours":"상시","maleToilets":4,"femaleToilets":2,"disabled":false,"diaperTable":false,"emergencyBell":false,"cctv":false,"managerTel":"0336339700","source":"public","category":"public"},{"id":"202343410000101355","name":"아야진졸음쉼터","lat":38.27876,"lng":128.54914,"jibunAddr":"강원특별자치도 고성군 토성면 아야진리 산62-5","openHours":"상시","maleToilets":1,"femaleToilets":2,"disabled":true,"diaperTable":true,"emergencyBell":false,"cctv":false,"managerTel":"0336726431","source":"public","category":"public"},{"id":"202343410000101311","name":"백도해변","lat":38.300988,"lng":128.545665,"jibunAddr":"강원특별자치도 고성군 죽왕면 문암진리 19-14","openHours":"상시","maleToilets":4,"femaleToilets":5,"disabled":true,"diaperTable":true,"emergencyBell":true,"cctv":false,"managerTel":"0336803356","source":"public","category":"public"},{"id":"202343410000101314","name":"문암2리항","lat":38.296292,"lng":128.550533,"roadAddr":"강원특별자치도 고성군 죽왕면 괘진길 71-1","jibunAddr":"강원특별자치도 고성군 죽왕면 문암진리 134-37","openHours":"상시","maleToilets":3,"femaleToilets":4,"disabled":true,"diaperTable":true,"emergencyBell":true,"cctv":false,"managerTel":"0336803518","source":"public","category":"public"},{"id":"202343410000101033","name":"동광119안전센터","lat":38.281197,"lng":128.549169,"roadAddr":"강원특별자치도 고성군 토성면 동해대로 5320","jibunAddr":"강원특별자치도 고성군 토성면 아야진리 253-15","openHours":"상시","maleToilets":6,"femaleToilets":2,"disabled":true,"diaperTable":false,"emergencyBell":false,"cctv":false,"managerTel":"0336311119","source":"public","category":"public"},{"id":"202343410000101316","name":"아야진1리해변(신건물)","lat":38.278771,"lng":128.552842,"jibunAddr":"강원특별자치도 고성군 토성면 아야진리 249-2","openHours":"상시","maleToilets":5,"femaleToilets":5,"disabled":true,"diaperTable":true,"emergencyBell":true,"cctv":false,"managerTel":"0336803356","source":"public","category":"public"},{"id":"202343410000101309","name":"자작도해변","lat":38.308719,"lng":128.542268,"roadAddr":"강원특별자치도 고성군 죽왕면 자작도선사길 105-1","jibunAddr":"강원특별자치도 고성군 죽왕면 문암진리 460-9","openHours":"상시","maleToilets":4,"femaleToilets":3,"disabled":true,"diaperTable":true,"emergencyBell":true,"cctv":false,"managerTel":"0336803518","source":"public","category":"public"},{"id":"202343410000101313","name":"문암2리항(입구)","lat":38.295762,"lng":128.549801,"roadAddr":"강원특별자치도 고성군 죽왕면 교암2길 72 인근","jibunAddr":"강원특별자치도 고성군 죽왕면 문암진리 134-86","openHours":"상시","maleToilets":3,"femaleToilets":2,"disabled":false,"diaperTable":false,"emergencyBell":false,"cctv":false,"managerTel":"0336803419","source":"public","category":"public"},{"id":"202343410000101312","name":"문암2리해변","lat":38.296103,"lng":128.548505,"jibunAddr":"강원특별자치도 고성군 죽왕면 문암진리 134-49","openHours":"상시","maleToilets":3,"femaleToilets":2,"disabled":false,"diaperTable":false,"emergencyBell":true,"cctv":false,"managerTel":"0336803356","source":"public","category":"public"}]