[{"id":"202442310000100377","name":"설악동 B 주차장","lat":38.168142,"lng":128.518825,"roadAddr":"강원특별자치도 속초시 설악산로 813(설악동)","jibunAddr":"강원특별자치도 속초시 설악동 3-1","openHours":"상시","maleToilets":6,"femaleToilets":5,"disabled":true,"diaperTable":true,"emergencyBell":true,"cctv":false,"managerTel":"0336392078","source":"public","category":"public"},{"id":"202542310000100060","name":"비룡화장실(비룡폭포가동 화장실)","lat":38.169763,"lng":128.496405,"roadAddr":"강원특별자치도 속초시 설악산로 1065-72","jibunAddr":"강원특별자치도 속초시 설악동 120-1","openHours":"상시","maleToilets":7,"femaleToilets":6,"disabled":false,"diaperTable":false,"emergencyBell":false,"cctv":false,"managerTel":"0338010901","source":"public","category":"public"},{"id":"202442310000100356","name":"설악동 C1 주차장","lat":38.166385,"lng":128.532939,"roadAddr":"강원특별자치도 속초시 청봉로 139-1(설악동)","jibunAddr":"강원특별자치도 속초시 설악동 309","openHours":"상시","maleToilets":10,"femaleToilets":8,"disabled":true,"diaperTable":true,"emergencyBell":true,"cctv":false,"managerTel":"0336392078","source":"public","category":"public"},{"id":"202542310000100058","name":"토왕골화장실(비룡폭포나동 화장실)","lat":38.167925,"lng":128.502412,"roadAddr":"강원특별자치도 속초시 설악산로 1065-129","jibunAddr":"강원특별자치도 속초시 설악동 88-2","openHours":"상시","maleToilets":7,"femaleToilets":6,"disabled":false,"diaperTable":false,"emergencyBell":false,"cctv":false,"managerTel":"0338010901","source":"public","category":"public"},{"id":"202542310000100028","name":"설악동 C2 주차장","lat":38.166212,"lng":128.535997,"roadAddr":"강원특별자치도 속초시 청봉로 99(설악동)","jibunAddr":"강원특별자치도 속초시 설악동 322","openHours":"상시","maleToilets":7,"femaleToilets":3,"disabled":true,"diaperTable":true,"emergencyBell":true,"cctv":false,"managerTel":"0336392078","source":"public","category":"public"}]