[{"id":"202542310000100003","name":"속초해변(남문)","lat":38.186957,"lng":128.605461,"roadAddr":"강원특별자치도 속초시 해오름로 140 (조양동)","jibunAddr":"강원특별자치도 속초시 조양동 1469","openHours":"상시","maleToilets":7,"femaleToilets":8,"disabled":true,"diaperTable":false,"emergencyBell":true,"cctv":false,"managerTel":"0336392027","source":"public","category":"public"},{"id":"202442310000100394","name":"외옹치 해수욕장","lat":38.182702,"lng":128.608623,"roadAddr":"강원특별자치도 속초시 해오름로 86-1","jibunAddr":"강원특별자치도 속초시 대포동 594-2","openHours":"상시","maleToilets":5,"femaleToilets":4,"disabled":true,"diaperTable":false,"emergencyBell":true,"cctv":false,"managerTel":"0336392452","source":"public","category":"public"},{"id":"202542310000100038","name":"대포항 입구","lat":38.17359,"lng":128.60541,"roadAddr":"강원특별자치도 속초시 대포항희망1길 57-1(대포동)","jibunAddr":"강원특별자치도 속초시 대포동 966 공중화장실","openHours":"상시","maleToilets":12,"femaleToilets":12,"disabled":true,"diaperTable":false,"emergencyBell":true,"cctv":false,"managerTel":"0336392413","source":"public","category":"public"},{"id":"202542310000100088","name":"대흥주유소","lat":38.161181,"lng":128.599794,"roadAddr":"강원특별자치도 속초시 설악산로 74, 대흥주유소 (도문동)","jibunAddr":"강원특별자치도 속초시 도문동 1628-12 대흥주유소","openHours":"상시","maleToilets":2,"femaleToilets":3,"disabled":false,"diaperTable":false,"emergencyBell":false,"cctv":false,"managerTel":"0336313766","source":"public","category":"public"},{"id":"202542310000100110","name":"SK에너지(주) 속초주유소","lat":38.17729,"lng":128.603345,"roadAddr":"강원특별자치도 속초시 동해대로 3834","jibunAddr":"강원특별자치도 속초시 대포동 472-1","openHours":"상시","maleToilets":3,"femaleToilets":1,"disabled":false,"diaperTable":false,"emergencyBell":false,"cctv":false,"managerTel":"0336359705","source":"public","category":"public"},{"id":"202442310000100429","name":"도서체육센터","lat":38.186717,"lng":128.590646,"roadAddr":"강원특별자치도 속초시 조양로 89, 속초시도서체육센터 (조양동)","jibunAddr":"강원특별자치도 속초시 조양동 1083 속초시도서체육센터","openHours":"08:00-20:00","maleToilets":24,"femaleToilets":22,"disabled":true,"diaperTable":false,"emergencyBell":true,"cctv":false,"managerTel":"0336393719","source":"public","category":"public"},{"id":"202442310000100460","name":"동해유업주유소","lat":38.181487,"lng":128.601205,"roadAddr":"강원특별자치도 속초시 동해대로 3885","jibunAddr":"강원특별자치도 속초시 조양동 1287-8","openHours":"상시","maleToilets":4,"femaleToilets":1,"disabled":false,"diaperTable":false,"emergencyBell":false,"cctv":false,"managerTel":"0336332829","source":"public","category":"public"},{"id":"202442310000100390","name":"외옹치항 활어판매장","lat":38.179297,"lng":128.609467,"roadAddr":"강원특별자치도 속초시 대포항길 180-2","jibunAddr":"강원특별자치도 속초시 대포동 728-11","openHours":"상시","maleToilets":6,"femaleToilets":4,"disabled":true,"diaperTable":false,"emergencyBell":true,"cctv":false,"managerTel":"0336325127","source":"public","category":"public"},{"id":"202442310000100389","name":"대포항 제2주차장","lat":38.171501,"lng":128.606368,"roadAddr":"강원특별자치도 속초시 대포항희망1길 27","jibunAddr":"강원특별자치도 속초시 대포동 966-7","openHours":"상시","maleToilets":9,"femaleToilets":8,"disabled":true,"diaperTable":false,"emergencyBell":true,"cctv":false,"managerTel":"0336392413","source":"public","category":"public"},{"id":"202442310000100392","name":"외옹치항(남자 전용)","lat":38.179605,"lng":128.610789,"roadAddr":"강원특별자치도 속초시 대포항길 180-13","jibunAddr":"강원특별자치도 속초시 대포동 719","openHours":"상시","maleToilets":9,"femaleToilets":0,"disabled":true,"diaperTable":false,"emergencyBell":false,"cctv":false,"managerTel":"0336325127","source":"public","category":"public"},{"id":"202542310000100091","name":"구도일주유소 뉴설악","lat":38.162001,"lng":128.6041,"roadAddr":"강원특별자치도 속초시 설악산로 35 (도문동)","jibunAddr":"강원특별자치도 속초시 도문동 1678-11","openHours":"상시","maleToilets":4,"femaleToilets":2,"disabled":false,"diaperTable":false,"emergencyBell":false,"cctv":false,"managerTel":"0336355308","source":"public","category":"public"},{"id":"202442310000100393","name":"외옹치항(여자 전용)","lat":38.179605,"lng":128.610789,"roadAddr":"강원특별자치도 속초시 대포항길 180-13","jibunAddr":"강원특별자치도 속초시 대포동 718","openHours":"상시","maleToilets":0,"femaleToilets":7,"disabled":true,"diaperTable":false,"emergencyBell":true,"cctv":false,"managerTel":"0336325127","source":"public","category":"public"},{"id":"202542310000100092","name":"조양동주민센터","lat":38.187653,"lng":128.590999,"roadAddr":"강원특별자치도 속초시 선사로1길 16, 조양동주민센터 (조양동)","jibunAddr":"강원특별자치도 속초시 조양동 1524 조양동주민센터","openHours":"(평일)09:00-18:00","maleToilets":13,"femaleToilets":7,"disabled":false,"diaperTable":false,"emergencyBell":false,"cctv":false,"managerTel":"0336392836","source":"public","category":"public"},{"id":"202542310000100109","name":"영동에너지충전소","lat":38.179672,"lng":128.601782,"roadAddr":"강원특별자치도 속초시 동해대로 3859","jibunAddr":"강원특별자치도 속초시 대포동 497-5","openHours":"상시","maleToilets":4,"femaleToilets":2,"disabled":false,"diaperTable":false,"emergencyBell":false,"cctv":false,"managerTel":"0336356114","source":"public","category":"public"},{"id":"202442310000100391","name":"대포항 제1주차장","lat":38.175609,"lng":128.609199,"roadAddr":"강원특별자치도 속초시 대포항길 94-1","jibunAddr":"강원특별자치도 속초시 대포동 993","openHours":"상시","maleToilets":12,"femaleToilets":9,"disabled":true,"diaperTable":false,"emergencyBell":true,"cctv":false,"managerTel":"0336392413","source":"public","category":"public"},{"id":"202542310000100036","name":"설악해맞이공원 안내소","lat":38.163152,"lng":128.608515,"roadAddr":"강원특별자치도 속초시 동해대로 3664","jibunAddr":"강원특별자치도 속초시 대포동 178-9","openHours":"상시","maleToilets":6,"femaleToilets":5,"disabled":true,"diaperTable":false,"emergencyBell":true,"cctv":false,"managerTel":"0336392539","source":"public","category":"public"},{"id":"202543510000100079","name":"물치어촌계 화장실","lat":38.155694,"lng":128.609994,"roadAddr":"강원특별자치도 양양군 강현면 동해대로 3580","jibunAddr":"강원특별자치도 양양군 강현면 물치리 7-8","openHours":"09:00~18:00","maleToilets":10,"femaleToilets":6,"disabled":true,"diaperTable":false,"emergencyBell":false,"cctv":false,"source":"public","category":"public"},{"id":"202543510000100118","name":"물치해수욕장 화장실","lat":38.153745,"lng":128.608003,"roadAddr":"강원특별자치도 양양군 강현면 동해대로 3552","jibunAddr":"강원특별자치도 양양군 강현면 물치리 67-23","openHours":"24시간","maleToilets":3,"femaleToilets":3,"disabled":true,"diaperTable":false,"emergencyBell":true,"cctv":false,"source":"public","category":"public"},{"id":"202543510000100012","name":"강현면 게이트볼장 화장실","lat":38.14743,"lng":128.596302,"roadAddr":"강원특별자치도 양양군 강현면 장산1길 42","openHours":"09:00~18:00","maleToilets":3,"femaleToilets":2,"disabled":false,"diaperTable":false,"emergencyBell":false,"cctv":false,"source":"public","category":"public"},{"id":"202543510000100117","name":"물치주차장 꽃게 화장실","lat":38.157262,"lng":128.609773,"roadAddr":"강원특별자치도 양양군 강현면 동해대로 3594","jibunAddr":"강원특별자치도 양양군 강현면 물치리 7-5","openHours":"24시간","maleToilets":3,"femaleToilets":3,"disabled":true,"diaperTable":true,"emergencyBell":true,"cctv":false,"source":"public","category":"public"},{"id":"202543510000100168","name":"강현생활체육공원 공중화장실","lat":38.147128,"lng":128.59952,"jibunAddr":"강원특별자치도 양양군 강현면 정암리 565번지","openHours":"24시간","maleToilets":8,"femaleToilets":2,"disabled":true,"diaperTable":true,"emergencyBell":true,"cctv":false,"source":"public","category":"public"},{"id":"202543510000100013","name":"해경 옆 물치항 화장실","lat":38.155694,"lng":128.609994,"roadAddr":"강원특별자치도 양양군 강현면 동해대로 3580","jibunAddr":"강원특별자치도 양양군 강현면 물치리 7-8","openHours":"09:00~18:00","maleToilets":7,"femaleToilets":7,"disabled":true,"diaperTable":true,"emergencyBell":false,"cctv":false,"source":"public","category":"public"},{"id":"202543510000100014","name":"강현면보건지소 화장실","lat":38.153558,"lng":128.60733,"roadAddr":"강원특별자치도 양양군 강현면 동해대로 3549","openHours":"09:00~18:00","maleToilets":3,"femaleToilets":1,"disabled":true,"diaperTable":false,"emergencyBell":false,"cctv":false,"source":"public","category":"public"},{"id":"202543510000100015","name":"강현면사무소 화장실","lat":38.149931,"lng":128.607639,"roadAddr":"강원특별자치도 양양군 강현면 동해대로 3509","openHours":"09:00~18:00","maleToilets":3,"femaleToilets":1,"disabled":true,"diaperTable":false,"emergencyBell":false,"cctv":false,"source":"public","category":"public"}]