[{"id":"202343410000101283","name":"간성전통시장(주차장)","lat":38.380192,"lng":128.470559,"roadAddr":"강원특별자치도 고성군 간성읍 간성북로 13-9","jibunAddr":"강원특별자치도 고성군 간성읍 신안리 313-4","openHours":"상시","maleToilets":3,"femaleToilets":3,"disabled":false,"diaperTable":false,"emergencyBell":true,"cctv":false,"managerTel":"0336803246","source":"public","category":"public"},{"id":"202343410000101103","name":"고성여성회관(지하1층)","lat":38.380166,"lng":128.464189,"roadAddr":"강원특별자치도 고성군 간성읍 간성로 97","jibunAddr":"강원특별자치도 고성군 간성읍 상리 210-1","openHours":"상시","maleToilets":0,"femaleToilets":2,"disabled":false,"diaperTable":false,"emergencyBell":false,"cctv":false,"managerTel":"0336803664","source":"public","category":"public"},{"id":"202343410000101134","name":"종합체육관내부(1)","lat":38.374923,"lng":128.462022,"roadAddr":"강원특별자치도 고성군 간성읍 수성로 111","jibunAddr":"강원특별자치도 고성군 간성읍 상리 500","openHours":"상시","maleToilets":5,"femaleToilets":3,"disabled":true,"diaperTable":false,"emergencyBell":false,"cctv":false,"managerTel":"0336803715","source":"public","category":"public"},{"id":"202343410000101274","name":"북천수변공원","lat":38.398358,"lng":128.465904,"jibunAddr":"강원특별자치도 고성군 거진읍 대대리 8","openHours":"상시","maleToilets":4,"femaleToilets":4,"disabled":false,"diaperTable":false,"emergencyBell":true,"cctv":false,"managerTel":"0336803423","source":"public","category":"public"},{"id":"202343410000101275","name":"북천생태공원","lat":38.393943,"lng":128.462385,"jibunAddr":"강원특별자치도 고성군 거진읍 대대리 197-3","openHours":"상시","maleToilets":2,"femaleToilets":3,"disabled":true,"diaperTable":false,"emergencyBell":true,"cctv":false,"managerTel":"0336803423","source":"public","category":"public"},{"id":"202343410000101346","name":"고성LPG","lat":38.379947,"lng":128.489021,"roadAddr":"강원특별자치도 고성군 죽왕면 동해대로 6604","jibunAddr":"강원특별자치도 고성군 죽왕면 향목리 116-1","openHours":"상시","maleToilets":3,"femaleToilets":1,"disabled":false,"diaperTable":false,"emergencyBell":false,"cctv":false,"managerTel":"0336816900","source":"public","category":"public"},{"id":"202343410000101135","name":"종합체육관외부","lat":38.374923,"lng":128.462022,"roadAddr":"강원특별자치도 고성군 간성읍 수성로 111","jibunAddr":"강원특별자치도 고성군 간성읍 상리 500","openHours":"상시","maleToilets":4,"femaleToilets":2,"disabled":false,"diaperTable":false,"emergencyBell":false,"cctv":false,"managerTel":"0336803715","source":"public","category":"public"},{"id":"202343410000101068","name":"고성군치매안심센터","lat":38.377675,"lng":128.472094,"roadAddr":"강원특별자치도 고성군 간성읍 수성로 30","jibunAddr":"강원특별자치도 고성군 간성읍 신안리 177-2","openHours":"상시","maleToilets":2,"femaleToilets":1,"disabled":false,"diaperTable":false,"emergencyBell":true,"cctv":true,"managerTel":"0336803542","source":"public","category":"public"},{"id":"202343410000101057","name":"간성읍행정복지센터(2층)","lat":38.378163,"lng":128.466875,"roadAddr":"강원특별자치도 고성군 간성읍 간성로67번길 14","jibunAddr":"강원특별자치도 고성군 간성읍 하리 28","openHours":"상시","maleToilets":5,"femaleToilets":1,"disabled":false,"diaperTable":false,"emergencyBell":false,"cctv":false,"managerTel":"0336812006","source":"public","category":"public"},{"id":"202343410000101227","name":"달홀문화센터(1층)","lat":38.379123,"lng":128.474079,"roadAddr":"강원특별자치도 고성군 간성읍 수성로 3","jibunAddr":"강원특별자치도 고성군 간성읍 신안리 146-3","openHours":"상시","maleToilets":4,"femaleToilets":6,"disabled":true,"diaperTable":false,"emergencyBell":true,"cctv":false,"managerTel":"0336804313","source":"public","category":"public"},{"id":"202343410000101282","name":"간성전통시장","lat":38.380198,"lng":128.469068,"roadAddr":"강원특별자치도 고성군 간성읍 간성로52번길 9","jibunAddr":"강원특별자치도 고성군 간성읍 신안리 275","openHours":"상시","maleToilets":3,"femaleToilets":3,"disabled":true,"diaperTable":true,"emergencyBell":true,"cctv":false,"managerTel":"0336803377","source":"public","category":"public"},{"id":"202343410000101285","name":"동호리체육공원","lat":38.385791,"lng":128.494679,"jibunAddr":"강원특별자치도 고성군 간성읍 동호리 12-1","openHours":"상시","maleToilets":2,"femaleToilets":1,"disabled":false,"diaperTable":false,"emergencyBell":true,"cctv":false,"managerTel":"0336803423","source":"public","category":"public"},{"id":"202343410000101226","name":"고성군선거관리위원회(2.5층)","lat":38.379976,"lng":128.464666,"roadAddr":"강원특별자치도 고성군 간성읍 간성로 91","jibunAddr":"강원특별자치도 고성군 간성읍 상리 210-2","openHours":"상시","maleToilets":2,"femaleToilets":0,"disabled":false,"diaperTable":false,"emergencyBell":false,"cctv":false,"managerTel":"0336811390","source":"public","category":"public"},{"id":"202343410000101047","name":"고성군청신관(1층)","lat":38.381297,"lng":128.468044,"roadAddr":"강원특별자치도 고성군 간성읍 고성중앙길 9","jibunAddr":"강원특별자치도 고성군 간성읍 하리 12","openHours":"상시","maleToilets":4,"femaleToilets":4,"disabled":true,"diaperTable":false,"emergencyBell":false,"cctv":false,"managerTel":"0336803294","source":"public","category":"public"},{"id":"202343410000101056","name":"간성읍행정복지센터(1층)","lat":38.378163,"lng":128.466875,"roadAddr":"강원특별자치도 고성군 간성읍 간성로67번길 14","jibunAddr":"강원특별자치도 고성군 간성읍 하리 28","openHours":"상시","maleToilets":3,"femaleToilets":0,"disabled":true,"diaperTable":false,"emergencyBell":false,"cctv":false,"managerTel":"0336812006","source":"public","category":"public"},{"id":"202343410000101279","name":"수성샘터","lat":38.376329,"lng":128.465043,"roadAddr":"강원특별자치도 고성군 간성읍 수성로 87","jibunAddr":"강원특별자치도 고성군 간성읍 422 인근","openHours":"상시","maleToilets":3,"femaleToilets":4,"disabled":true,"diaperTable":false,"emergencyBell":true,"cctv":false,"managerTel":"0336803715","source":"public","category":"public"},{"id":"202343410000101062","name":"고성군보건소(1층)_좌","lat":38.377675,"lng":128.472094,"roadAddr":"강원특별자치도 고성군 간성읍 수성로 30","jibunAddr":"강원특별자치도 고성군 간성읍 신안리 177-2","openHours":"상시","maleToilets":2,"femaleToilets":3,"disabled":true,"diaperTable":true,"emergencyBell":false,"cctv":true,"managerTel":"0336803542","source":"public","category":"public"},{"id":"202343410000101130","name":"종합운동장(골프장)","lat":38.374923,"lng":128.462022,"roadAddr":"강원특별자치도 고성군 간성읍 수성로 111","jibunAddr":"강원특별자치도 고성군 간성읍 상리 500","openHours":"상시","maleToilets":3,"femaleToilets":2,"disabled":false,"diaperTable":false,"emergencyBell":false,"cctv":false,"managerTel":"0336803715","source":"public","category":"public"},{"id":"202343410000101224","name":"고성군선거관리위원회(1층)","lat":38.379976,"lng":128.464666,"roadAddr":"강원특별자치도 고성군 간성읍 간성로 91","jibunAddr":"강원특별자치도 고성군 간성읍 상리 210-2","openHours":"상시","maleToilets":0,"femaleToilets":0,"disabled":false,"diaperTable":false,"emergencyBell":false,"cctv":false,"managerTel":"0336811390","source":"public","category":"public"},{"id":"202343410000101105","name":"고성여성회관(2층)","lat":38.380166,"lng":128.464189,"roadAddr":"강원특별자치도 고성군 간성읍 간성로 97","jibunAddr":"강원특별자치도 고성군 간성읍 상리 210-1","openHours":"상시","maleToilets":5,"femaleToilets":2,"disabled":false,"diaperTable":false,"emergencyBell":false,"cctv":false,"managerTel":"0336803664","source":"public","category":"public"},{"id":"202343410000101044","name":"고성군청본관(2층)","lat":38.381297,"lng":128.468044,"roadAddr":"강원특별자치도 고성군 간성읍 고성중앙길 9","jibunAddr":"강원특별자치도 고성군 간성읍 하리 12","openHours":"상시","maleToilets":4,"femaleToilets":1,"disabled":true,"diaperTable":false,"emergencyBell":false,"cctv":false,"managerTel":"0336803294","source":"public","category":"public"},{"id":"202343410000101066","name":"고성군보건소(3층)_좌","lat":38.377675,"lng":128.472094,"roadAddr":"강원특별자치도 고성군 간성읍 수성로 30","jibunAddr":"강원특별자치도 고성군 간성읍 신안리 177-2","openHours":"상시","maleToilets":2,"femaleToilets":4,"disabled":true,"diaperTable":true,"emergencyBell":false,"cctv":false,"managerTel":"0336803542","source":"public","category":"public"},{"id":"202343410000101139","name":"고성교육지원청본관(1층)","lat":38.38031,"lng":128.466791,"roadAddr":"강원특별자치도 고성군 간성읍 간성로 80","jibunAddr":"강원특별자치도 고성군 간성읍 상리 198","openHours":"상시","maleToilets":5,"femaleToilets":3,"disabled":true,"diaperTable":false,"emergencyBell":false,"cctv":false,"managerTel":"0336806065","source":"public","category":"public"},{"id":"202343410000101067","name":"고성군보건소(3층)_우","lat":38.377675,"lng":128.472094,"roadAddr":"강원특별자치도 고성군 간성읍 수성로 30","jibunAddr":"강원특별자치도 고성군 간성읍 신안리 177-2","openHours":"상시","maleToilets":3,"femaleToilets":2,"disabled":false,"diaperTable":false,"emergencyBell":false,"cctv":false,"managerTel":"0336803542","source":"public","category":"public"},{"id":"202343410000101344","name":"SK대일가스 충전소","lat":38.384879,"lng":128.452258,"roadAddr":"강원특별자치도 고성군 간성읍 진부령로 2803","jibunAddr":"강원특별자치도 고성군 간성읍 교동리 2","openHours":"상시","maleToilets":2,"femaleToilets":1,"disabled":false,"diaperTable":false,"emergencyBell":false,"cctv":false,"managerTel":"0336815457","source":"public","category":"public"},{"id":"202343410000101036","name":"고성경찰서 별관(1층)","lat":38.376556,"lng":128.476884,"roadAddr":"강원특별자치도 고성군 간성읍 탑동길12","jibunAddr":"강원특별자치도 고성군 간성읍 신안리 134-2","openHours":"상시","maleToilets":4,"femaleToilets":2,"disabled":true,"diaperTable":false,"emergencyBell":true,"cctv":false,"managerTel":"0336806321","source":"public","category":"public"},{"id":"202343410000101116","name":"고성문화의집(3층)","lat":38.378679,"lng":128.466899,"roadAddr":"강원특별자치도 고성군 간성읍 간성로 71-7","jibunAddr":"강원특별자치도 고성군 간성읍 하리 27-1","openHours":"상시","maleToilets":1,"femaleToilets":1,"disabled":true,"diaperTable":false,"emergencyBell":false,"cctv":false,"managerTel":"0336804055","source":"public","category":"public"},{"id":"202343410000101092","name":"고성군농업기술센터(교육관 2층)","lat":38.386542,"lng":128.473596,"roadAddr":"강원특별자치도 고성군 간성읍 간성북로 87","jibunAddr":"강원특별자치도 고성군 간성읍 신안리 390","openHours":"상시","maleToilets":5,"femaleToilets":3,"disabled":true,"diaperTable":false,"emergencyBell":false,"cctv":false,"managerTel":"0336803372","source":"public","category":"public"},{"id":"202343410000101064","name":"고성군보건소(2층)_좌","lat":38.377675,"lng":128.472094,"roadAddr":"강원특별자치도 고성군 간성읍 수성로 30","jibunAddr":"강원특별자치도 고성군 간성읍 신안리 177-2","openHours":"상시","maleToilets":2,"femaleToilets":4,"disabled":true,"diaperTable":true,"emergencyBell":false,"cctv":true,"managerTel":"0336803542","source":"public","category":"public"},{"id":"202343410000101141","name":"고성교육지원청본관(3층)","lat":38.38031,"lng":128.466791,"roadAddr":"강원특별자치도 고성군 간성읍 간성로 80","jibunAddr":"강원특별자치도 고성군 간성읍 상리 198","openHours":"상시","maleToilets":3,"femaleToilets":2,"disabled":false,"diaperTable":false,"emergencyBell":false,"cctv":false,"managerTel":"0336806065","source":"public","category":"public"},{"id":"202343410000101228","name":"달홀문화센터(2층)","lat":38.379123,"lng":128.474079,"roadAddr":"강원특별자치도 고성군 간성읍 수성로 3","jibunAddr":"강원특별자치도 고성군 간성읍 신안리 146-3","openHours":"상시","maleToilets":4,"femaleToilets":6,"disabled":true,"diaperTable":false,"emergencyBell":true,"cctv":false,"managerTel":"0336804313","source":"public","category":"public"},{"id":"202343410000101037","name":"고성경찰서 본관(1층)","lat":38.376556,"lng":128.476884,"roadAddr":"강원특별자치도 고성군 간성읍 탑동길12","jibunAddr":"강원특별자치도 고성군 간성읍 신안리 134-2","openHours":"상시","maleToilets":4,"femaleToilets":2,"disabled":true,"diaperTable":false,"emergencyBell":true,"cctv":false,"managerTel":"0336806321","source":"public","category":"public"},{"id":"202343410000101284","name":"달홀공원","lat":38.377715,"lng":128.474215,"jibunAddr":"강원특별자치도 고성군 간성읍 신안리 137","openHours":"상시","maleToilets":2,"femaleToilets":3,"disabled":true,"diaperTable":false,"emergencyBell":true,"cctv":false,"managerTel":"0336803423","source":"public","category":"public"},{"id":"202343410000101087","name":"고성군농업기술센터(1층)","lat":38.386542,"lng":128.473596,"roadAddr":"강원특별자치도 고성군 간성읍 간성북로 87","jibunAddr":"강원특별자치도 고성군 간성읍 신안리 390","openHours":"상시","maleToilets":5,"femaleToilets":3,"disabled":true,"diaperTable":false,"emergencyBell":false,"cctv":false,"managerTel":"0336803372","source":"public","category":"public"},{"id":"202343410000101131","name":"종합운동장(식당동)","lat":38.374923,"lng":128.462022,"roadAddr":"강원특별자치도 고성군 간성읍 수성로 111","jibunAddr":"강원특별자치도 고성군 간성읍 상리 500","openHours":"상시","maleToilets":3,"femaleToilets":2,"disabled":false,"diaperTable":false,"emergencyBell":false,"cctv":false,"managerTel":"0336803715","source":"public","category":"public"},{"id":"202343410000101106","name":"고성여성회관(3층)","lat":38.380166,"lng":128.464189,"roadAddr":"강원특별자치도 고성군 간성읍 간성로 97","jibunAddr":"강원특별자치도 고성군 간성읍 상리 210-1","openHours":"상시","maleToilets":5,"femaleToilets":2,"disabled":false,"diaperTable":false,"emergencyBell":false,"cctv":false,"managerTel":"0336803664","source":"public","category":"public"},{"id":"202343410000101342","name":"간성시외버스터미널","lat":38.379118,"lng":128.47243,"roadAddr":"강원특별자치도 고성군 간성읍 간성로 24","jibunAddr":"강원특별자치도 고성군 간성읍 신안리 250-1","openHours":"상시","maleToilets":7,"femaleToilets":3,"disabled":false,"diaperTable":false,"emergencyBell":false,"cctv":false,"managerTel":"0336812233","source":"public","category":"public"},{"id":"202343410000101117","name":"고성문화의집(2층)","lat":38.378679,"lng":128.466899,"roadAddr":"강원특별자치도 고성군 간성읍 간성로 71-7","jibunAddr":"강원특별자치도 고성군 간성읍 하리 27-1","openHours":"상시","maleToilets":1,"femaleToilets":1,"disabled":true,"diaperTable":false,"emergencyBell":false,"cctv":false,"managerTel":"0336804055","source":"public","category":"public"},{"id":"202343410000101039","name":"간성파출소","lat":38.381102,"lng":128.464628,"roadAddr":"강원특별자치도 고성군 간성읍 간성로 104","jibunAddr":"강원특별자치도 고성군 간성읍 상리 180","openHours":"상시","maleToilets":2,"femaleToilets":1,"disabled":true,"diaperTable":false,"emergencyBell":false,"cctv":false,"managerTel":"0336820112","source":"public","category":"public"},{"id":"202343410000101129","name":"종합운동장(수성정)","lat":38.374923,"lng":128.462022,"roadAddr":"강원특별자치도 고성군 간성읍 수성로 111","jibunAddr":"강원특별자치도 고성군 간성읍 상리 500","openHours":"상시","maleToilets":4,"femaleToilets":4,"disabled":true,"diaperTable":false,"emergencyBell":false,"cctv":false,"managerTel":"0336803715","source":"public","category":"public"},{"id":"202343410000101140","name":"고성교육지원청본관(2층)","lat":38.38031,"lng":128.466791,"roadAddr":"강원특별자치도 고성군 간성읍 간성로 80","jibunAddr":"강원특별자치도 고성군 간성읍 상리 198","openHours":"상시","maleToilets":4,"femaleToilets":3,"disabled":false,"diaperTable":false,"emergencyBell":false,"cctv":false,"managerTel":"0336806065","source":"public","category":"public"},{"id":"202343410000101043","name":"고성군청본관(1층)","lat":38.381297,"lng":128.468044,"roadAddr":"강원특별자치도 고성군 간성읍 고성중앙길 9","jibunAddr":"강원특별자치도 고성군 간성읍 하리 12","openHours":"상시","maleToilets":4,"femaleToilets":1,"disabled":true,"diaperTable":false,"emergencyBell":false,"cctv":false,"managerTel":"0336803294","source":"public","category":"public"},{"id":"202343410000101132","name":"종합체육관내부(3)","lat":38.374923,"lng":128.462022,"roadAddr":"강원특별자치도 고성군 간성읍 수성로 111","jibunAddr":"강원특별자치도 고성군 간성읍 상리 500","openHours":"상시","maleToilets":0,"femaleToilets":0,"disabled":true,"diaperTable":false,"emergencyBell":false,"cctv":false,"managerTel":"0336803715","source":"public","category":"public"},{"id":"202343410000101343","name":"간성셀프주유소","lat":38.377349,"lng":128.476039,"roadAddr":"강원특별자치도 고성군 간성읍 탑동길 4-15","jibunAddr":"강원특별자치도 고성군 간성읍 신안리 134","openHours":"상시","maleToilets":1,"femaleToilets":0,"disabled":false,"diaperTable":false,"emergencyBell":false,"cctv":false,"managerTel":"0336815155","source":"public","category":"public"},{"id":"202343410000101273","name":"북천철교","lat":38.397542,"lng":128.466561,"jibunAddr":"강원특별자치도 고성군 간성읍 봉호리 368","openHours":"상시","maleToilets":2,"femaleToilets":1,"disabled":false,"diaperTable":false,"emergencyBell":true,"cctv":false,"managerTel":"0336803397","source":"public","category":"public"},{"id":"202343410000101128","name":"종합운동장(테니스장)","lat":38.374923,"lng":128.462022,"roadAddr":"강원특별자치도 고성군 간성읍 수성로 111","jibunAddr":"강원특별자치도 고성군 간성읍 상리 500","openHours":"상시","maleToilets":2,"femaleToilets":1,"disabled":false,"diaperTable":false,"emergencyBell":false,"cctv":false,"managerTel":"0336803715","source":"public","category":"public"},{"id":"202343410000101118","name":"고성문화의집(1층)","lat":38.378679,"lng":128.466899,"roadAddr":"강원특별자치도 고성군 간성읍 간성로 71-7","jibunAddr":"강원특별자치도 고성군 간성읍 하리 27-1","openHours":"상시","maleToilets":1,"femaleToilets":1,"disabled":true,"diaperTable":false,"emergencyBell":false,"cctv":false,"managerTel":"0336804055","source":"public","category":"public"},{"id":"202343410000101091","name":"고성군농업기술센터(교육관 1층)","lat":38.386542,"lng":128.473596,"roadAddr":"강원특별자치도 고성군 간성읍 간성북로 87","jibunAddr":"강원특별자치도 고성군 간성읍 신안리 390","openHours":"상시","maleToilets":5,"femaleToilets":3,"disabled":true,"diaperTable":false,"emergencyBell":false,"cctv":false,"managerTel":"0336803372","source":"public","category":"public"},{"id":"202343410000101046","name":"고성군청본관(4층)","lat":38.381297,"lng":128.468044,"roadAddr":"강원특별자치도 고성군 간성읍 고성중앙길 9","jibunAddr":"강원특별자치도 고성군 간성읍 하리 12","openHours":"상시","maleToilets":4,"femaleToilets":1,"disabled":true,"diaperTable":false,"emergencyBell":false,"cctv":false,"managerTel":"0336803294","source":"public","category":"public"},{"id":"202343410000101090","name":"고성군농업기술센터(별관)","lat":38.386542,"lng":128.473596,"roadAddr":"강원특별자치도 고성군 간성읍 간성북로 87","jibunAddr":"강원특별자치도 고성군 간성읍 신안리 390","openHours":"상시","maleToilets":3,"femaleToilets":1,"disabled":false,"diaperTable":false,"emergencyBell":false,"cctv":false,"managerTel":"0336803372","source":"public","category":"public"},{"id":"202343410000101104","name":"고성여성회관(지상1층)","lat":38.380166,"lng":128.464189,"roadAddr":"강원특별자치도 고성군 간성읍 간성로 97","jibunAddr":"강원특별자치도 고성군 간성읍 상리 210-1","openHours":"상시","maleToilets":4,"femaleToilets":2,"disabled":true,"diaperTable":false,"emergencyBell":false,"cctv":false,"managerTel":"0336803664","source":"public","category":"public"},{"id":"202343410000101280","name":"고성군종합운동장","lat":38.376329,"lng":128.465043,"roadAddr":"강원특별자치도 고성군 간성읍 수성로 87","jibunAddr":"강원특별자치도 고성군 간성읍 상리 491-4","openHours":"상시","maleToilets":15,"femaleToilets":6,"disabled":true,"diaperTable":false,"emergencyBell":true,"cctv":false,"managerTel":"0336803715","source":"public","category":"public"},{"id":"202343410000101281","name":"와우산충혼탑","lat":38.380491,"lng":128.466444,"jibunAddr":"강원특별자치도 고성군 간성읍 상리 197 일원","openHours":"상시","maleToilets":2,"femaleToilets":1,"disabled":false,"diaperTable":false,"emergencyBell":false,"cctv":false,"managerTel":"0336803518","source":"public","category":"public"},{"id":"202343410000101341","name":"동해안주유소","lat":38.387937,"lng":128.458991,"roadAddr":"강원특별자치도 고성군 거진읍 진부령로 2875","jibunAddr":"강원특별자치도 고성군 거진읍 대대리 304-50","openHours":"상시","maleToilets":1,"femaleToilets":0,"disabled":false,"diaperTable":false,"emergencyBell":false,"cctv":false,"managerTel":"0336812649","source":"public","category":"public"},{"id":"202343410000101225","name":"고성군선거관리위원회(1.5층)","lat":38.379976,"lng":128.464666,"roadAddr":"강원특별자치도 고성군 간성읍 간성로 91","jibunAddr":"강원특별자치도 고성군 간성읍 상리 210-2","openHours":"상시","maleToilets":0,"femaleToilets":1,"disabled":false,"diaperTable":false,"emergencyBell":false,"cctv":false,"managerTel":"0336811390","source":"public","category":"public"},{"id":"202343410000101048","name":"고성군청신관(2층)","lat":38.381297,"lng":128.468044,"roadAddr":"강원특별자치도 고성군 간성읍 고성중앙길 9","jibunAddr":"강원특별자치도 고성군 간성읍 하리 12","openHours":"상시","maleToilets":4,"femaleToilets":4,"disabled":true,"diaperTable":false,"emergencyBell":false,"cctv":false,"managerTel":"0336803294","source":"public","category":"public"},{"id":"202343410000101088","name":"고성군농업기술센터(2층)","lat":38.386542,"lng":128.473596,"roadAddr":"강원특별자치도 고성군 간성읍 간성북로 87","jibunAddr":"강원특별자치도 고성군 간성읍 신안리 390","openHours":"상시","maleToilets":5,"femaleToilets":3,"disabled":true,"diaperTable":false,"emergencyBell":false,"cctv":false,"managerTel":"0336803372","source":"public","category":"public"},{"id":"202343410000101049","name":"고성군청신관(3층)","lat":38.381297,"lng":128.468044,"roadAddr":"강원특별자치도 고성군 간성읍 고성중앙길 9","jibunAddr":"강원특별자치도 고성군 간성읍 하리 12","openHours":"상시","maleToilets":5,"femaleToilets":5,"disabled":true,"diaperTable":false,"emergencyBell":false,"cctv":false,"managerTel":"0336803294","source":"public","category":"public"},{"id":"202343410000101032","name":"고성소방서","lat":38.376856,"lng":128.474092,"roadAddr":"강원특별자치도 고성군 간성읍 수성로 37-11","jibunAddr":"강원특별자치도 고성군 간성읍 신안리 170","openHours":"상시","maleToilets":8,"femaleToilets":4,"disabled":true,"diaperTable":false,"emergencyBell":false,"cctv":false,"managerTel":"0336811119","source":"public","category":"public"},{"id":"202343410000101089","name":"고성군농업기술센터(3층)","lat":38.386542,"lng":128.473596,"roadAddr":"강원특별자치도 고성군 간성읍 간성북로 87","jibunAddr":"강원특별자치도 고성군 간성읍 신안리 390","openHours":"상시","maleToilets":5,"femaleToilets":3,"disabled":true,"diaperTable":false,"emergencyBell":false,"cctv":false,"managerTel":"0336803372","source":"public","category":"public"},{"id":"202343410000101234","name":"국립농산물품질관리원사무소","lat":38.386943,"lng":128.47555,"roadAddr":"강원특별자치도 고성군 간성읍 간성북로 103","jibunAddr":"강원특별자치도 고성군 간성읍 동호리 760-3","openHours":"상시","maleToilets":4,"femaleToilets":1,"disabled":true,"diaperTable":false,"emergencyBell":false,"cctv":false,"managerTel":"0336816070","source":"public","category":"public"},{"id":"202343410000101063","name":"고성군보건소(1층)_우","lat":38.377675,"lng":128.472094,"roadAddr":"강원특별자치도 고성군 간성읍 수성로 30","jibunAddr":"강원특별자치도 고성군 간성읍 신안리 177-2","openHours":"상시","maleToilets":3,"femaleToilets":2,"disabled":false,"diaperTable":false,"emergencyBell":false,"cctv":true,"managerTel":"0336803542","source":"public","category":"public"},{"id":"202343410000101065","name":"고성군보건소(2층)_우","lat":38.377675,"lng":128.472094,"roadAddr":"강원특별자치도 고성군 간성읍 수성로 30","jibunAddr":"강원특별자치도 고성군 간성읍 신안리 177-2","openHours":"상시","maleToilets":3,"femaleToilets":2,"disabled":false,"diaperTable":false,"emergencyBell":false,"cctv":false,"managerTel":"0336803542","source":"public","category":"public"},{"id":"202343410000101045","name":"고성군청본관(3층)","lat":38.381297,"lng":128.468044,"roadAddr":"강원특별자치도 고성군 간성읍 고성중앙길 9","jibunAddr":"강원특별자치도 고성군 간성읍 하리 12","openHours":"상시","maleToilets":4,"femaleToilets":1,"disabled":true,"diaperTable":false,"emergencyBell":false,"cctv":false,"managerTel":"0336803294","source":"public","category":"public"},{"id":"202343410000101133","name":"종합체육관내부(2)","lat":38.374923,"lng":128.462022,"roadAddr":"강원특별자치도 고성군 간성읍 수성로 111","jibunAddr":"강원특별자치도 고성군 간성읍 상리 500","openHours":"상시","maleToilets":5,"femaleToilets":3,"disabled":true,"diaperTable":false,"emergencyBell":false,"cctv":false,"managerTel":"0336803715","source":"public","category":"public"},{"id":"202343410000101127","name":"종합운동장본부석(1층)","lat":38.374923,"lng":128.462022,"roadAddr":"강원특별자치도 고성군 간성읍 수성로 111","jibunAddr":"강원특별자치도 고성군 간성읍 상리 500","openHours":"상시","maleToilets":7,"femaleToilets":3,"disabled":false,"diaperTable":false,"emergencyBell":false,"cctv":false,"managerTel":"0336803715","source":"public","category":"public"}]