[{"id":"202343410000101053","name":"거진읍행정복지센터(2층)","lat":38.43608,"lng":128.452455,"roadAddr":"강원특별자치도 고성군 거진읍 자산천로 240","jibunAddr":"강원특별자치도 고성군 거진읍 자산천로 240","openHours":"상시","maleToilets":4,"femaleToilets":2,"disabled":true,"diaperTable":false,"emergencyBell":false,"cctv":false,"managerTel":"0336821001","source":"public","category":"public"},{"id":"202343410000101052","name":"거진읍행정복지센터(3층)","lat":38.43608,"lng":128.452455,"roadAddr":"강원특별자치도 고성군 거진읍 자산천로 240","jibunAddr":"강원특별자치도 고성군 거진읍 자산천로 240","openHours":"상시","maleToilets":4,"femaleToilets":2,"disabled":true,"diaperTable":false,"emergencyBell":false,"cctv":false,"managerTel":"0336821001","source":"public","category":"public"},{"id":"202343410000101272","name":"반암해변","lat":38.423195,"lng":128.462583,"jibunAddr":"강원특별자치도 고성군 거진읍 반암리 1 인근","openHours":"상시","maleToilets":2,"femaleToilets":1,"disabled":true,"diaperTable":false,"emergencyBell":true,"cctv":false,"managerTel":"0336803356","source":"public","category":"public"},{"id":"202343410000101253","name":"거진1리(해오름쉼터)","lat":38.451401,"lng":128.46412,"roadAddr":"강원특별자치도 고성군 거진읍 빨래골길 14-3","jibunAddr":"강원특별자치도 고성군 거진읍 거진리 10-6","openHours":"상시","maleToilets":2,"femaleToilets":1,"disabled":false,"diaperTable":false,"emergencyBell":true,"cctv":false,"managerTel":"0336803518","source":"public","category":"public"},{"id":"202343410000101038","name":"금강파출소","lat":38.449248,"lng":128.45711,"roadAddr":"강원특별자치도 고성군 거진읍 거진길 67","jibunAddr":"강원특별자치도 고성군 거진읍 거진리 160-2","openHours":"상시","maleToilets":2,"femaleToilets":1,"disabled":true,"diaperTable":false,"emergencyBell":false,"cctv":false,"managerTel":"0336822112","source":"public","category":"public"},{"id":"202343410000101260","name":"거진3리항","lat":38.448496,"lng":128.458426,"roadAddr":"강원특별자치도 고성군 거진읍 거진항1길 4 인근","jibunAddr":"강원특별자치도 고성군 거진읍 거진리 148-2 인근","openHours":"상시","maleToilets":4,"femaleToilets":3,"disabled":true,"diaperTable":false,"emergencyBell":true,"cctv":false,"managerTel":"0336803518","source":"public","category":"public"},{"id":"202343410000101119","name":"고성군문화복지센터","lat":38.43608,"lng":128.452455,"roadAddr":"강원특별자치도 고성군 거진읍 자산천로 240","jibunAddr":"강원특별자치도 고성군 거진읍 송포리634","openHours":"상시","maleToilets":7,"femaleToilets":8,"disabled":true,"diaperTable":false,"emergencyBell":false,"cctv":false,"managerTel":"0336804315","source":"public","category":"public"},{"id":"202343410000101262","name":"거진항(연승대기소)","lat":38.445537,"lng":128.455306,"roadAddr":"강원특별자치도 고성군 거진읍 거진항길 6-1 인근","jibunAddr":"강원특별자치도 고성군 거진읍 거진리 22-1 인근","openHours":"상시","maleToilets":2,"femaleToilets":1,"disabled":true,"diaperTable":true,"emergencyBell":true,"cctv":false,"managerTel":"0336803419","source":"public","category":"public"},{"id":"202343410000101269","name":"거진11리해변","lat":38.443224,"lng":128.455066,"jibunAddr":"강원특별자치도 고성군 거진읍 거진리 22-59","openHours":"상시","maleToilets":6,"femaleToilets":6,"disabled":false,"diaperTable":false,"emergencyBell":true,"cctv":false,"managerTel":"0336803356","source":"public","category":"public"},{"id":"202343410000101268","name":"거진전통시장(신축)","lat":38.447484,"lng":128.454413,"roadAddr":"강원특별자치도 고성군 거진읍 거진시장길 13-3","jibunAddr":"강원특별자치도 고성군 거진읍 거진리 272","openHours":"상시","maleToilets":3,"femaleToilets":4,"disabled":true,"diaperTable":false,"emergencyBell":true,"cctv":false,"managerTel":"0336803377","source":"public","category":"public"},{"id":"202443410000100018","name":"거진우체국 공중화장실","lat":38.444407,"lng":128.453945,"roadAddr":"강원특별자치도 고성군 거진읍 거탄진로 102, 거진우체국","jibunAddr":"강원특별자치도 고성군 거진읍 거진리 337-1 거진우체국","openHours":"09:00~18:00","maleToilets":1,"femaleToilets":0,"disabled":true,"diaperTable":false,"emergencyBell":true,"cctv":true,"source":"public","category":"public"},{"id":"202343410000101271","name":"반암항","lat":38.424109,"lng":128.462033,"roadAddr":"강원특별자치도 고성군 거진읍 자산천로 102-21","jibunAddr":"강원특별자치도 고성군 거진읍 반암리 1-6","openHours":"상시","maleToilets":3,"femaleToilets":3,"disabled":true,"diaperTable":true,"emergencyBell":false,"cctv":false,"managerTel":"0336803419","source":"public","category":"public"},{"id":"202343410000101267","name":"거진전통시장(주차장)","lat":38.44814,"lng":128.454668,"roadAddr":"강원특별자치도 고성군 거진읍 거진시장길 18-1","jibunAddr":"강원특별자치도 고성군 거진읍 거진리 265","openHours":"상시","maleToilets":4,"femaleToilets":2,"disabled":true,"diaperTable":false,"emergencyBell":true,"cctv":false,"managerTel":"0336803377","source":"public","category":"public"},{"id":"202343410000101257","name":"거진항(조형물)","lat":38.448951,"lng":128.462245,"roadAddr":"강원특별자치도 고성군 거진읍 거진항1길 39","jibunAddr":"강원특별자치도 고성군 거진읍 거진리 22-13","openHours":"상시","maleToilets":5,"femaleToilets":6,"disabled":true,"diaperTable":true,"emergencyBell":true,"cctv":false,"managerTel":"0336803419","source":"public","category":"public"},{"id":"202343410000101261","name":"거진5리(주차장)","lat":38.447903,"lng":128.458285,"roadAddr":"강원특별자치도 고성군 거진읍 거진항길 44 인근","jibunAddr":"강원특별자치도 고성군 거진읍 거진리 22-3 인근","openHours":"상시","maleToilets":2,"femaleToilets":1,"disabled":false,"diaperTable":false,"emergencyBell":false,"cctv":false,"managerTel":"0336803518","source":"public","category":"public"},{"id":"202343410000101054","name":"거진읍행정복지센터(1층)","lat":38.43608,"lng":128.452455,"roadAddr":"강원특별자치도 고성군 거진읍 자산천로 240","jibunAddr":"강원특별자치도 고성군 거진읍 자산천로 240","openHours":"상시","maleToilets":4,"femaleToilets":2,"disabled":true,"diaperTable":false,"emergencyBell":false,"cctv":false,"managerTel":"0336821001","source":"public","category":"public"},{"id":"202343410000101337","name":"거진SK주유소","lat":38.442748,"lng":128.453703,"roadAddr":"강원특별자치도 고성군 거진읍 거탄진로 84","jibunAddr":"강원특별자치도 고성군 거진읍 거진리 339-7","openHours":"상시","maleToilets":2,"femaleToilets":1,"disabled":false,"diaperTable":false,"emergencyBell":false,"cctv":false,"managerTel":"0336823070","source":"public","category":"public"},{"id":"202343410000101072","name":"건강생활지원센터(1층)","lat":38.449444,"lng":128.455146,"roadAddr":"강원특별자치도 고성군 거진읍 행랑골길 24","jibunAddr":"강원특별자치도 고성군 거진읍 거진리 248","openHours":"상시","maleToilets":5,"femaleToilets":2,"disabled":false,"diaperTable":true,"emergencyBell":false,"cctv":true,"managerTel":"0336803545","source":"public","category":"public"},{"id":"202343410000101136","name":"고성국민체육센터(2층)","lat":38.435534,"lng":128.453219,"roadAddr":"강원특별자치도 고성군 거진읍 자산천로 236","jibunAddr":"강원특별자치도 고성군 거진읍 송포리 634-1","openHours":"상시","maleToilets":5,"femaleToilets":2,"disabled":true,"diaperTable":false,"emergencyBell":false,"cctv":false,"managerTel":"0336803599","source":"public","category":"public"},{"id":"202343410000101255","name":"거진1리(버스회차지)","lat":38.448114,"lng":128.464498,"jibunAddr":"강원특별자치도 고성군 거진읍 거진리 35","openHours":"상시","maleToilets":2,"femaleToilets":2,"disabled":false,"diaperTable":false,"emergencyBell":true,"cctv":false,"managerTel":"0336803518","source":"public","category":"public"},{"id":"202343410000101073","name":"건강생활지원센터(2층)","lat":38.449444,"lng":128.455146,"roadAddr":"강원특별자치도 고성군 거진읍 행랑골길 24","jibunAddr":"강원특별자치도 고성군 거진읍 거진리 248","openHours":"상시","maleToilets":5,"femaleToilets":2,"disabled":true,"diaperTable":false,"emergencyBell":false,"cctv":true,"managerTel":"0336803545","source":"public","category":"public"},{"id":"202343410000101034","name":"거진119안전센터","lat":38.441041,"lng":128.452634,"roadAddr":"강원특별자치도 고성군 거진읍 수외길 19","jibunAddr":"강원특별자치도 고성군 거진읍 거진리 386-8","openHours":"상시","maleToilets":11,"femaleToilets":5,"disabled":true,"diaperTable":false,"emergencyBell":false,"cctv":false,"managerTel":"0336817119","source":"public","category":"public"},{"id":"202343410000101108","name":"거진청소년문화의집(2층)","lat":38.448905,"lng":128.454818,"roadAddr":"강원특별자치도 고성군 거진읍 행랑골길 19","jibunAddr":"강원특별자치도 고성군 거진읍 거진리 46-1","openHours":"상시","maleToilets":2,"femaleToilets":2,"disabled":false,"diaperTable":false,"emergencyBell":false,"cctv":false,"managerTel":"0336804243","source":"public","category":"public"},{"id":"202343410000101042","name":"속초해경거진파출소","lat":38.446688,"lng":128.456232,"roadAddr":"강원특별자치도 고성군 거진읍 거진항길26","jibunAddr":"강원특별자치도 고성군 거진읍 거진리 22-1","openHours":"상시","maleToilets":4,"femaleToilets":1,"disabled":true,"diaperTable":false,"emergencyBell":false,"cctv":false,"managerTel":"0336342231","source":"public","category":"public"},{"id":"202343410000101256","name":"거진항(관광형)","lat":38.445676,"lng":128.461732,"roadAddr":"강원특별자치도 고성군 거진읍 거진항1길 62-3","jibunAddr":"강원특별자치도 고성군 거진읍 거진리 22-75","openHours":"상시","maleToilets":3,"femaleToilets":2,"disabled":false,"diaperTable":false,"emergencyBell":true,"cctv":false,"managerTel":"0336803419","source":"public","category":"public"},{"id":"202343410000101338","name":"거진활어회센터","lat":38.447221,"lng":128.463937,"roadAddr":"강원특별자치도 고성군 거진읍 거진항1길 62","jibunAddr":"강원특별자치도 고성군 거진읍 거진리 25-5","openHours":"상시","maleToilets":4,"femaleToilets":3,"disabled":false,"diaperTable":false,"emergencyBell":false,"cctv":false,"managerTel":"0336822782","source":"public","category":"public"},{"id":"202343410000101137","name":"고성국민체육센터(1층)","lat":38.435534,"lng":128.453219,"roadAddr":"강원특별자치도 고성군 거진읍 자산천로 236","jibunAddr":"강원특별자치도 고성군 거진읍 송포리 634-1","openHours":"상시","maleToilets":5,"femaleToilets":2,"disabled":true,"diaperTable":false,"emergencyBell":false,"cctv":false,"managerTel":"0336803599","source":"public","category":"public"},{"id":"202343410000101259","name":"거진2리항","lat":38.449209,"lng":128.460757,"roadAddr":"강원특별자치도 고성군 거진읍 거탄진로 190 인근","jibunAddr":"강원특별자치도 고성군 거진읍 거진리 22-9 인근","openHours":"상시","maleToilets":2,"femaleToilets":2,"disabled":true,"diaperTable":false,"emergencyBell":true,"cctv":false,"managerTel":"0336803419","source":"public","category":"public"},{"id":"202343410000101265","name":"거진8리(터미널)","lat":38.446357,"lng":128.453443,"roadAddr":"강원특별자치도 고성군 거진읍 거진길 21-14","jibunAddr":"강원특별자치도 고성군 거진읍 거진리 304-14","openHours":"상시","maleToilets":5,"femaleToilets":5,"disabled":true,"diaperTable":true,"emergencyBell":true,"cctv":false,"managerTel":"0336803518","source":"public","category":"public"},{"id":"202343410000101074","name":"건강생활지원센터(3층)","lat":38.449444,"lng":128.455146,"roadAddr":"강원특별자치도 고성군 거진읍 행랑골길 24","jibunAddr":"강원특별자치도 고성군 거진읍 거진리 248","openHours":"상시","maleToilets":5,"femaleToilets":2,"disabled":false,"diaperTable":false,"emergencyBell":false,"cctv":false,"managerTel":"0336803545","source":"public","category":"public"},{"id":"202343410000101258","name":"거진항(판매장)","lat":38.447726,"lng":128.462766,"roadAddr":"강원특별자치도 고성군 거진읍 거진항1길 54-1","jibunAddr":"강원특별자치도 고성군 거진읍 거진리 25-13","openHours":"상시","maleToilets":4,"femaleToilets":6,"disabled":true,"diaperTable":true,"emergencyBell":true,"cctv":false,"managerTel":"0336803419","source":"public","category":"public"},{"id":"202343410000101254","name":"거진1리(백섬)","lat":38.44932,"lng":128.466676,"roadAddr":"강원특별자치도 고성군 거진읍 거탄진로 209-17","jibunAddr":"강원특별자치도 고성군 거진읍 거진리 33-6 인근","openHours":"상시","maleToilets":2,"femaleToilets":1,"disabled":false,"diaperTable":false,"emergencyBell":false,"cctv":false,"managerTel":"0336803356","source":"public","category":"public"},{"id":"202343410000101266","name":"거진전통시장(어시장)","lat":38.44776,"lng":128.45366,"roadAddr":"강원특별자치도 고성군 거진읍 거진시장길 15-1","jibunAddr":"강원특별자치도 고성군 거진읍 거진리 272-64외","openHours":"상시","maleToilets":5,"femaleToilets":3,"disabled":false,"diaperTable":false,"emergencyBell":true,"cctv":false,"managerTel":"0336803377","source":"public","category":"public"},{"id":"202343410000101336","name":"거진농협주유소","lat":38.439151,"lng":128.45215,"roadAddr":"강원특별자치도 고성군 거진읍 거탄진로 44","jibunAddr":"강원특별자치도 고성군 거진읍 거진리 395-1","openHours":"상시","maleToilets":3,"femaleToilets":2,"disabled":false,"diaperTable":false,"emergencyBell":false,"cctv":false,"managerTel":"0336828245","source":"public","category":"public"},{"id":"202343410000101107","name":"거진청소년문화의집(1층)","lat":38.448905,"lng":128.454818,"roadAddr":"강원특별자치도 고성군 거진읍 행랑골길 19","jibunAddr":"강원특별자치도 고성군 거진읍 거진리 46-1","openHours":"상시","maleToilets":3,"femaleToilets":3,"disabled":true,"diaperTable":false,"emergencyBell":false,"cctv":false,"managerTel":"0336804243","source":"public","category":"public"},{"id":"202343410000101270","name":"거진11리해맞이광장","lat":38.439639,"lng":128.454204,"roadAddr":"강원특별자치도 고성군 거진읍 해오름해변길 125","jibunAddr":"강원특별자치도 고성군 거진읍 거진리 340-42","openHours":"상시","maleToilets":4,"femaleToilets":8,"disabled":true,"diaperTable":false,"emergencyBell":true,"cctv":false,"managerTel":"0336803518","source":"public","category":"public"}]