[{"id":"202437100000100612","name":"현대오일뱅크㈜ 직영 울산현대주유소 화장실","lat":35.532603,"lng":129.432238,"roadAddr":"울산광역시 동구 방어진순환도로 1025 (방어동)","jibunAddr":"울산광역시 동구 서부동 279-4","openHours":"정시","maleToilets":4,"femaleToilets":1,"disabled":false,"diaperTable":false,"emergencyBell":false,"cctv":false,"managerTel":"0522518873","source":"public","category":"public"},{"id":"202437100000100766","name":"너나들이쉼터화장실","lat":35.544548,"lng":129.433272,"jibunAddr":"울산광역시 동구 동부동 592-18","openHours":"상시","maleToilets":2,"femaleToilets":2,"disabled":true,"diaperTable":false,"emergencyBell":false,"cctv":true,"managerTel":"0522093563","source":"public","category":"public"},{"id":"202437100000100634","name":"소명교회","lat":35.543183,"lng":129.429161,"roadAddr":"울산광역시 동구 동부동 330","jibunAddr":"울산광역시 동구 동부동 330","openHours":"정시","maleToilets":5,"femaleToilets":5,"disabled":false,"diaperTable":false,"emergencyBell":false,"cctv":false,"source":"public","category":"public"},{"id":"202437100000100662","name":"감나무골공원화장실","lat":35.547038,"lng":129.424391,"roadAddr":"울산광역시 동구 옥류로 91","jibunAddr":"울산광역시 동구 동부동 426-1","openHours":"상시","maleToilets":1,"femaleToilets":1,"disabled":true,"diaperTable":false,"emergencyBell":true,"cctv":false,"managerTel":"0522093563","source":"public","category":"public"},{"id":"202437100000100765","name":"주전보밑항연안공원화장실","lat":35.545441,"lng":129.452793,"jibunAddr":"울산광역시 동구 주전동 산198-5","openHours":"상시","maleToilets":4,"femaleToilets":5,"disabled":true,"diaperTable":false,"emergencyBell":false,"cctv":false,"managerTel":"0522093563","source":"public","category":"public"},{"id":"202437100000100666","name":"자전거쉼터화장실","lat":35.546185,"lng":129.435239,"roadAddr":"울산광역시 동구 동해안로 176","jibunAddr":"울산광역시 동구 동부동 산 181-7","openHours":"상시","maleToilets":2,"femaleToilets":2,"disabled":true,"diaperTable":false,"emergencyBell":true,"cctv":false,"managerTel":"0522093563","source":"public","category":"public"},{"id":"202437100000100692","name":"봉대산마성삼거리화장실","lat":35.540576,"lng":129.43694,"jibunAddr":"울산광역시 동구 동부동 산 195-4","openHours":"상시","maleToilets":2,"femaleToilets":2,"disabled":false,"diaperTable":false,"emergencyBell":false,"cctv":false,"managerTel":"0522093563","source":"public","category":"public"},{"id":"202437100000100619","name":"광림교회","lat":35.541378,"lng":129.423385,"roadAddr":"울산광역시 동구 남목 5길 30","jibunAddr":"울산광역시 동구 서부동 488","openHours":"상시","maleToilets":2,"femaleToilets":2,"disabled":false,"diaperTable":false,"emergencyBell":false,"cctv":false,"source":"public","category":"public"},{"id":"202437100000100625","name":"동울산종합시장","lat":35.508831,"lng":129.425429,"roadAddr":"울산광역시 동구 진성 14길 77","jibunAddr":"울산광역시 동구 전하동 661-1","openHours":"정시","maleToilets":18,"femaleToilets":6,"disabled":true,"diaperTable":false,"emergencyBell":false,"cctv":false,"source":"public","category":"public"},{"id":"202437100000100673","name":"동부동공영주차장화장실","lat":35.547311,"lng":129.424872,"roadAddr":"울산광역시 동구 옥류로 94","jibunAddr":"울산광역시 동구 동부동 425-1","openHours":"상시","maleToilets":2,"femaleToilets":1,"disabled":true,"diaperTable":false,"emergencyBell":true,"cctv":false,"managerTel":"0522093563","source":"public","category":"public"},{"id":"202437100000100656","name":"명덕수변공원화장실","lat":35.519138,"lng":129.426511,"roadAddr":"울산광역시 동구 봉수로 381","jibunAddr":"울산광역시 동구 전하동 290-14","openHours":"상시","maleToilets":2,"femaleToilets":4,"disabled":true,"diaperTable":true,"emergencyBell":true,"cctv":false,"managerTel":"0522093563","source":"public","category":"public"},{"id":"202437100000100601","name":"서부공영주차장 화장실","lat":35.527028,"lng":129.429346,"roadAddr":"울산광역시 동구 서부로 40","jibunAddr":"울산광역시 서부동 1051","openHours":"상시","maleToilets":3,"femaleToilets":3,"disabled":true,"diaperTable":false,"emergencyBell":true,"cctv":true,"managerTel":"0522093726","source":"public","category":"public"},{"id":"202537100000100010","name":"전하119안전센터 화장실","lat":35.509336,"lng":129.429083,"roadAddr":"울산광역시 동구 진성4가길 8, 전하소방파출소 (전하동)","jibunAddr":"울산광역시 동구 전하동 652-9 전하소방파출소","openHours":"상시","maleToilets":5,"femaleToilets":0,"disabled":false,"diaperTable":false,"emergencyBell":false,"cctv":false,"managerTel":"0522412769","source":"public","category":"public"},{"id":"202437100000100581","name":"전하2동주민센터 화장실","lat":35.508854,"lng":129.426634,"roadAddr":"울산광역시 동구 진성4길45","jibunAddr":"울산광역시 동구 전하동 663-1","openHours":"정시","maleToilets":15,"femaleToilets":8,"disabled":false,"diaperTable":false,"emergencyBell":false,"cctv":false,"managerTel":"0522094300","source":"public","category":"public"},{"id":"202437100000100589","name":"사회적경제일자리센터","lat":35.522496,"lng":129.430535,"roadAddr":"울산광역시 동구 명덕로 19","jibunAddr":"울산광역시 동구 서부동 100-23","openHours":"정시","maleToilets":12,"femaleToilets":12,"disabled":true,"diaperTable":false,"emergencyBell":false,"cctv":true,"managerTel":"0522096972","source":"public","category":"public"},{"id":"202437100000100584","name":"남목3동행정복지센터","lat":35.546041,"lng":129.431373,"roadAddr":"울산광역시 동구 동해안로 100","jibunAddr":"울산광역시 동구 동부동 114-7","openHours":"정시","maleToilets":6,"femaleToilets":4,"disabled":true,"diaperTable":false,"emergencyBell":false,"cctv":false,"managerTel":"0522094420","source":"public","category":"public"},{"id":"202437100000100691","name":"주전큰골어린이공원화장실","lat":35.551676,"lng":129.449544,"jibunAddr":"울산광역시 동구 주전동 637","openHours":"상시","maleToilets":2,"femaleToilets":2,"disabled":false,"diaperTable":false,"emergencyBell":true,"cctv":false,"managerTel":"0522093563","source":"public","category":"public"},{"id":"202437100000100624","name":"동부시장","lat":35.542646,"lng":129.428092,"roadAddr":"울산광역시 동구 남목17길 16","jibunAddr":"울산광역시 동구 동부동 310-15","openHours":"상시","maleToilets":5,"femaleToilets":3,"disabled":false,"diaperTable":false,"emergencyBell":false,"cctv":false,"source":"public","category":"public"},{"id":"202437100000100594","name":"동구노인복지관전하분관","lat":35.510616,"lng":129.427491,"roadAddr":"울산광역시 동구 진성12길 120","jibunAddr":"울산광역시 동구 전하동 635-5","openHours":"정시","maleToilets":9,"femaleToilets":8,"disabled":true,"diaperTable":false,"emergencyBell":true,"cctv":false,"managerTel":"0527160030","source":"public","category":"public"},{"id":"202437100000100583","name":"남목2동주민센터","lat":35.524617,"lng":129.431464,"roadAddr":"울산광역시 동구 명덕6길 33","jibunAddr":"울산광역시 동구 서부동 113-190","openHours":"정시","maleToilets":8,"femaleToilets":7,"disabled":true,"diaperTable":false,"emergencyBell":true,"cctv":false,"managerTel":"0522094390","source":"public","category":"public"},{"id":"202437100000100628","name":"히딩크드림필드화장실","lat":35.511479,"lng":129.421876,"roadAddr":"울산광역시 동구 봉수로 279","jibunAddr":"울산광역시 동구 전하동 559-5","openHours":"상시","maleToilets":4,"femaleToilets":1,"disabled":false,"diaperTable":false,"emergencyBell":true,"cctv":false,"managerTel":"0522093563","source":"public","category":"public"},{"id":"202437100000100648","name":"전하시장","lat":35.513664,"lng":129.430623,"roadAddr":"울산광역시 동구 녹수 2길 10","jibunAddr":"울산광역시 동구 전하동 451-3","openHours":"정시","maleToilets":3,"femaleToilets":1,"disabled":false,"diaperTable":false,"emergencyBell":false,"cctv":false,"source":"public","category":"public"},{"id":"202437100000100640","name":"울산갈릴리교회","lat":35.5431,"lng":129.427507,"roadAddr":"울산광역시 동구 남목18길 27","jibunAddr":"울산광역시 동구 동부동 293","openHours":"정시","maleToilets":5,"femaleToilets":3,"disabled":false,"diaperTable":false,"emergencyBell":false,"cctv":false,"managerTel":"0522517382","source":"public","category":"public"},{"id":"202437100000100621","name":"남목시장","lat":35.542724,"lng":129.427387,"roadAddr":"울산광역시 동구 남목 17길 9","jibunAddr":"울산광역시 동구 동부동 310-2","openHours":"상시","maleToilets":2,"femaleToilets":1,"disabled":false,"diaperTable":false,"emergencyBell":false,"cctv":false,"source":"public","category":"public"},{"id":"202437100000100690","name":"동울산시장공영주차장화장실","lat":35.510173,"lng":129.426312,"roadAddr":"울산광역시 동구 진성3길 59","jibunAddr":"울산광역시 동구 전하동 647-1","openHours":"상시","maleToilets":3,"femaleToilets":4,"disabled":true,"diaperTable":false,"emergencyBell":true,"cctv":false,"managerTel":"0522093563","source":"public","category":"public"},{"id":"202437100000100603","name":"전하공영주차장 화장실","lat":35.510785,"lng":129.429455,"roadAddr":"울산광역시 동구 진성8길 119","jibunAddr":"울산광역시 동구 전하동 638-4","openHours":"상시","maleToilets":3,"femaleToilets":1,"disabled":true,"diaperTable":false,"emergencyBell":false,"cctv":true,"managerTel":"0522093726","source":"public","category":"public"},{"id":"202437100000100638","name":"남목3동주민센터공중화장실","lat":35.546041,"lng":129.431373,"roadAddr":"울산광역시 동구 동해안로 100","jibunAddr":"울산광역시 동구 동부동 114-7","openHours":"상시","maleToilets":2,"femaleToilets":1,"disabled":false,"diaperTable":false,"emergencyBell":true,"cctv":false,"managerTel":"0522093563","source":"public","category":"public"},{"id":"202437100000100580","name":"전하1동주민센터","lat":35.51682,"lng":129.428609,"roadAddr":"울산광역시 동구 바드래3길55","jibunAddr":"울산광역시 동구 전하동 300-168","openHours":"정시","maleToilets":8,"femaleToilets":4,"disabled":true,"diaperTable":false,"emergencyBell":false,"cctv":false,"managerTel":"0522094390","source":"public","category":"public"},{"id":"202437100000100588","name":"동구평생학습관","lat":35.509357,"lng":129.429324,"roadAddr":"울산광역시 동구 진성8길 91, 2층, 3층","jibunAddr":"울산광역시 동구 전하동 652-4","openHours":"정시","maleToilets":5,"femaleToilets":4,"disabled":false,"diaperTable":false,"emergencyBell":false,"cctv":false,"managerTel":"0522094497","source":"public","category":"public"},{"id":"202437100000100639","name":"수정각","lat":35.524721,"lng":129.432529,"roadAddr":"울산광역시 동구 명덕 2길 5","jibunAddr":"울산광역시 동구 서부동 181-36","openHours":"정시","maleToilets":3,"femaleToilets":2,"disabled":false,"diaperTable":false,"emergencyBell":false,"cctv":false,"managerTel":"0522512288","source":"public","category":"public"},{"id":"202437100000100586","name":"전하작은도서관 화장실","lat":35.509357,"lng":129.429324,"roadAddr":"울산광역시 동구 진성8길 91","jibunAddr":"울산광역시 동구 전하동 652-4","openHours":"정시","maleToilets":1,"femaleToilets":1,"disabled":true,"diaperTable":false,"emergencyBell":false,"cctv":false,"managerTel":"0522093936","source":"public","category":"public"},{"id":"202537100000100006","name":"명덕마을 복합문화광장 화장실","lat":35.524761,"lng":129.432053,"roadAddr":"울산광역시 동구 명덕6길 38, 명덕마을 복합문화광장 (서부동)","jibunAddr":"울산광역시 동구 서부동 187-1 명덕마을 복합문화광장","openHours":"정시","maleToilets":3,"femaleToilets":3,"disabled":true,"diaperTable":false,"emergencyBell":false,"cctv":true,"managerTel":"0527003338","source":"public","category":"public"},{"id":"202437100000100664","name":"쇠평어린이공원A동화장실","lat":35.550798,"lng":129.434017,"roadAddr":"울산광역시 동구 동해안로 263","jibunAddr":"울산광역시 동구 동부동 98","openHours":"상시","maleToilets":3,"femaleToilets":3,"disabled":false,"diaperTable":false,"emergencyBell":true,"cctv":false,"managerTel":"0522093563","source":"public","category":"public"},{"id":"202437100000100622","name":"남목청소년문화의집","lat":35.541323,"lng":129.425148,"roadAddr":"울산광역시 동구 남목 9길 13","jibunAddr":"울산광역시 동구 서부동 449","openHours":"정시","maleToilets":9,"femaleToilets":6,"disabled":false,"diaperTable":false,"emergencyBell":false,"cctv":false,"source":"public","category":"public"},{"id":"202437100000100696","name":"쟁골공원화장실","lat":35.544787,"lng":129.42965,"jibunAddr":"울산광역시 동구 동부동 666-2","openHours":"상시","maleToilets":0,"femaleToilets":1,"disabled":true,"diaperTable":false,"emergencyBell":true,"cctv":false,"managerTel":"0522093563","source":"public","category":"public"},{"id":"202437100000100595","name":"남목노인복지관","lat":35.537726,"lng":129.423258,"roadAddr":"울산광역시 동구 안산들로 55","jibunAddr":"울산광역시 동구 서부동 598","openHours":"정시","maleToilets":9,"femaleToilets":8,"disabled":true,"diaperTable":true,"emergencyBell":true,"cctv":true,"managerTel":"0522515100","source":"public","category":"public"},{"id":"202437100000100582","name":"남목1동주민센터 화장실","lat":35.539286,"lng":129.420753,"roadAddr":"울산광역시 동구 방어진순환도로 1170","jibunAddr":"울산광역시 동구 서부동 522-1","openHours":"정시","maleToilets":6,"femaleToilets":2,"disabled":true,"diaperTable":false,"emergencyBell":true,"cctv":false,"managerTel":"0522094360","source":"public","category":"public"},{"id":"202437100000100676","name":"남목3동체육소공원화장실","lat":35.541557,"lng":129.433402,"roadAddr":"울산광역시 동구 안산로 50-3","jibunAddr":"울산광역시 동구 동부동 161","openHours":"상시","maleToilets":2,"femaleToilets":2,"disabled":false,"diaperTable":false,"emergencyBell":true,"cctv":false,"managerTel":"0522093563","source":"public","category":"public"},{"id":"202437100000100593","name":"동구노인복지관","lat":35.524617,"lng":129.431464,"roadAddr":"울산광역시 동구 명덕6길 33","jibunAddr":"울산광역시 동구 서부동 113-190","openHours":"정시","maleToilets":6,"femaleToilets":6,"disabled":true,"diaperTable":true,"emergencyBell":true,"cctv":false,"managerTel":"0522522118","source":"public","category":"public"},{"id":"202437100000100614","name":"동울산주유소 화장실","lat":35.509067,"lng":129.429932,"roadAddr":"울산광역시 동구 방어진순환도로 753 (방어동)","jibunAddr":"울산광역시 동구 전하동 653-4","openHours":"정시","maleToilets":3,"femaleToilets":2,"disabled":false,"diaperTable":false,"emergencyBell":false,"cctv":false,"managerTel":"0522337000","source":"public","category":"public"},{"id":"202537100000100002","name":"전하체육센터","lat":35.512,"lng":129.422104,"roadAddr":"울산광역시 동구 봉수로 285, 전하체육센터 (전하동)","jibunAddr":"울산광역시 동구 전하동 559-8 전하체육센터","openHours":"정시","maleToilets":5,"femaleToilets":5,"disabled":true,"diaperTable":false,"emergencyBell":false,"cctv":false,"managerTel":"0522354411","source":"public","category":"public"},{"id":"202437100000100657","name":"큰마을저수지공원화장실","lat":35.529528,"lng":129.428252,"roadAddr":"울산광역시 동구 봉수로 523","jibunAddr":"울산광역시 동구 서부동 257-76","openHours":"상시","maleToilets":2,"femaleToilets":2,"disabled":false,"diaperTable":false,"emergencyBell":true,"cctv":false,"managerTel":"0522093563","source":"public","category":"public"},{"id":"202537100000100005","name":"나눔센터 화장실","lat":35.543112,"lng":129.427914,"roadAddr":"울산광역시 동구 남목18길 24 (동부동)","jibunAddr":"울산광역시 동구 동부동 295-8","openHours":"정시","maleToilets":8,"femaleToilets":8,"disabled":true,"diaperTable":false,"emergencyBell":false,"cctv":false,"managerTel":"0527070702","source":"public","category":"public"},{"id":"202437100000100693","name":"주전넘에화장실","lat":35.55095,"lng":129.454573,"jibunAddr":"울산광역시 동구 주전동 737-4","openHours":"상시","maleToilets":1,"femaleToilets":2,"disabled":false,"diaperTable":false,"emergencyBell":false,"cctv":false,"managerTel":"0522093563","source":"public","category":"public"},{"id":"202437100000100585","name":"울산남목도서관","lat":35.545229,"lng":129.426772,"roadAddr":"울산광역시 동구 남목12길 10","jibunAddr":"울산광역시 동구 동부동 365","openHours":"정시","maleToilets":9,"femaleToilets":9,"disabled":true,"diaperTable":false,"emergencyBell":false,"cctv":false,"managerTel":"0522094580","source":"public","category":"public"},{"id":"202437100000100658","name":"바드래공원화장실","lat":35.516948,"lng":129.426941,"roadAddr":"울산광역시 동구 바드래4길 92","jibunAddr":"울산광역시 동구 전하동 300-233","openHours":"상시","maleToilets":1,"femaleToilets":1,"disabled":true,"diaperTable":false,"emergencyBell":true,"cctv":false,"managerTel":"0522093563","source":"public","category":"public"}]