[{"id":"202537200000100513","name":"강동동주민센터 화장실","lat":35.612828,"lng":129.445645,"roadAddr":"울산광역시 북구 무룡로 1096","jibunAddr":"울산광역시 북구 정자동 280-6","openHours":"09:00~18:00","maleToilets":9,"femaleToilets":9,"disabled":true,"diaperTable":true,"emergencyBell":true,"cctv":false,"managerTel":"0522959001","source":"public","category":"public"},{"id":"202537200000100550","name":"화암 공중화장실","lat":35.631333,"lng":129.440641,"jibunAddr":"울산광역시 북구 산하동 956-1","openHours":"상시","maleToilets":7,"femaleToilets":5,"disabled":true,"diaperTable":true,"emergencyBell":true,"cctv":false,"managerTel":"0522417773","source":"public","category":"public"},{"id":"202537200000100551","name":"몽돌서재주차장 공중화장실","lat":35.627671,"lng":129.441704,"jibunAddr":"울산광역시 북구 산하동 367-15 외2필지","openHours":"상시","maleToilets":5,"femaleToilets":4,"disabled":true,"diaperTable":true,"emergencyBell":true,"cctv":false,"managerTel":"0522417753","source":"public","category":"public"},{"id":"202537200000100621","name":"강동동우체국 화장실","lat":35.618027,"lng":129.449134,"roadAddr":"울산광역시 북구 정자7길 37-2 (정자동, 강동동우체국)","openHours":"09:00~18:00","maleToilets":2,"femaleToilets":1,"disabled":false,"diaperTable":false,"emergencyBell":false,"cctv":true,"managerTel":"0522950001","source":"public","category":"public"},{"id":"202537200000100514","name":"강동문화센터 화장실","lat":35.630003,"lng":129.435964,"roadAddr":"울산광역시 북구 산하중앙3로 51","jibunAddr":"울산광역시 북구 산하동 산 98-11","openHours":"09:00~18:00","maleToilets":12,"femaleToilets":8,"disabled":true,"diaperTable":false,"emergencyBell":true,"cctv":false,"managerTel":"0522418735","source":"public","category":"public"},{"id":"202537200000100746","name":"정자교회 화장실","lat":35.616343,"lng":129.448268,"roadAddr":"울산광역시 북구 정자6길 3-2(정자동)","openHours":"05:00~20:00","maleToilets":9,"femaleToilets":5,"disabled":false,"diaperTable":false,"emergencyBell":false,"cctv":false,"managerTel":"0522980727","source":"public","category":"public"},{"id":"202537200000100549","name":"산하소공원 공중화장실","lat":35.625153,"lng":129.442898,"jibunAddr":"울산광역시 북구 산하동 964-3번지","openHours":"상시","maleToilets":9,"femaleToilets":5,"disabled":true,"diaperTable":true,"emergencyBell":true,"cctv":false,"managerTel":"0522417773","source":"public","category":"public"},{"id":"202537200000100539","name":"정자아름 공중화장실","lat":35.621302,"lng":129.446746,"jibunAddr":"울산광역시 북구 정자동 434-20","openHours":"상시","maleToilets":8,"femaleToilets":3,"disabled":true,"diaperTable":true,"emergencyBell":true,"cctv":false,"managerTel":"0522417773","source":"public","category":"public"},{"id":"202537200000100538","name":"정자항 공중화장실","lat":35.617654,"lng":129.450033,"jibunAddr":"울산광역시 북구 정자동 638-27","openHours":"상시","maleToilets":10,"femaleToilets":12,"disabled":false,"diaperTable":true,"emergencyBell":true,"cctv":false,"managerTel":"0522417773","source":"public","category":"public"},{"id":"202537200000100568","name":"제전 공중화장실","lat":35.607332,"lng":129.458421,"roadAddr":"울산광역시 북구 구유길 45","jibunAddr":"울산광역시 북구 구유동 127-13","openHours":"상시","maleToilets":3,"femaleToilets":3,"disabled":false,"diaperTable":false,"emergencyBell":true,"cctv":false,"managerTel":"0522417733","source":"public","category":"public"},{"id":"202537200000100559","name":"섶다리 공중화장실","lat":35.615081,"lng":129.452029,"jibunAddr":"울산광역시 북구 구유동 654-1","openHours":"상시","maleToilets":5,"femaleToilets":4,"disabled":true,"diaperTable":true,"emergencyBell":true,"cctv":false,"managerTel":"0522417773","source":"public","category":"public"},{"id":"202537200000100564","name":"주상절리 공중화장실","lat":35.634093,"lng":129.442189,"jibunAddr":"울산광역시 북구 산하동 7","openHours":"상시","maleToilets":2,"femaleToilets":2,"disabled":false,"diaperTable":false,"emergencyBell":true,"cctv":false,"managerTel":"0522417733","source":"public","category":"public"},{"id":"202537200000100567","name":"강동누리길(판지) 공중화장실","lat":35.613804,"lng":129.454983,"jibunAddr":"울산광역시 북구 구유동 327-3번지","openHours":"상시","maleToilets":2,"femaleToilets":2,"disabled":false,"diaperTable":false,"emergencyBell":true,"cctv":false,"managerTel":"0522417733","source":"public","category":"public"},{"id":"202537200000100552","name":"산하 공중화장실","lat":35.628862,"lng":129.441228,"jibunAddr":"울산광역시 북구 산하동 367-12","openHours":"상시","maleToilets":6,"femaleToilets":4,"disabled":true,"diaperTable":true,"emergencyBell":true,"cctv":false,"managerTel":"0522417733","source":"public","category":"public"},{"id":"202537200000100586","name":"강동중앙공원 화장실","lat":35.630386,"lng":129.440405,"roadAddr":"울산광역시 북구 동해안로 1639","openHours":"상시","maleToilets":5,"femaleToilets":5,"disabled":true,"diaperTable":false,"emergencyBell":true,"cctv":false,"managerTel":"0522417945","source":"public","category":"public"},{"id":"202537200000100691","name":"울산안전체험관 화장실","lat":35.617696,"lng":129.440317,"roadAddr":"울산광역시 북구 산하중앙2로 87-33","jibunAddr":"울산광역시 북구 정자동 산27","openHours":"09:00~17:00","maleToilets":3,"femaleToilets":4,"disabled":true,"diaperTable":false,"emergencyBell":false,"cctv":false,"managerTel":"0522796588","source":"public","category":"public"},{"id":"202537200000100531","name":"강동바다도서관 화장실","lat":35.630918,"lng":129.436175,"roadAddr":"울산광역시 북구 산하중앙3로 62","jibunAddr":"울산광역시 북구 산하동 1006-5","openHours":"(화~금) 06:00-20:00 (토~일) 09:00-18:00","maleToilets":0,"femaleToilets":2,"disabled":true,"diaperTable":false,"emergencyBell":true,"cctv":false,"managerTel":"0522417480","source":"public","category":"public"}]