[{"id":"202450200000100997","name":"양포리 조선소 간이화장실","lat":35.875828,"lng":129.517974,"roadAddr":"경상북도 포항시 남구 장기면 양포리 312-24","jibunAddr":"경상북도 포항시 남구 장기면 양포리 312-24","openHours":"상시","maleToilets":1,"femaleToilets":1,"disabled":false,"diaperTable":false,"emergencyBell":false,"cctv":false,"managerTel":"0542706668","source":"public","category":"public"},{"id":"202450200000100993","name":"신창 바위섬 간이화장실","lat":35.897377,"lng":129.525338,"roadAddr":"경상북도 포항시 남구 장기면 신창리 143-1","jibunAddr":"경상북도 포항시 남구 장기면 신창리 143-1","openHours":"상시","maleToilets":1,"femaleToilets":1,"disabled":false,"diaperTable":false,"emergencyBell":false,"cctv":false,"managerTel":"0542706668","source":"public","category":"public"},{"id":"202450200000101001","name":"소봉대화장실","lat":35.860266,"lng":129.527406,"roadAddr":"경상북도 포항시 남구 장기면 계원리 311-24","jibunAddr":"경상북도 포항시 남구 장기면 계원리 311-24","openHours":"상시","maleToilets":1,"femaleToilets":1,"disabled":false,"diaperTable":false,"emergencyBell":false,"cctv":false,"managerTel":"0542706668","source":"public","category":"public"},{"id":"202450200000101258","name":"양포 주유소 화장실","lat":35.880289,"lng":129.507178,"roadAddr":"경상북도 포항시 남구 장기면 장기로 103번길","openHours":"상시","maleToilets":2,"femaleToilets":1,"disabled":false,"diaperTable":false,"emergencyBell":false,"cctv":false,"managerTel":"0542848111","source":"public","category":"public"},{"id":"202450200000100992","name":"신창1리 방파제 간이화장실","lat":35.898775,"lng":129.52638,"roadAddr":"경상북도 포항시 남구 장기면 동해안로3550번길 11","jibunAddr":"경상북도 포항시 남구 장기면 신창리 887-1","openHours":"상시","maleToilets":1,"femaleToilets":2,"disabled":false,"diaperTable":false,"emergencyBell":false,"cctv":false,"managerTel":"0542706668","source":"public","category":"public"},{"id":"202450200000100991","name":"신창 국도변 주차장 화장실","lat":35.893705,"lng":129.524375,"roadAddr":"경상북도 포항시 남구 장기면 신창리 177-31","jibunAddr":"경상북도 포항시 남구 장기면 신창리 177-31","openHours":"상시","maleToilets":2,"femaleToilets":6,"disabled":true,"diaperTable":false,"emergencyBell":false,"cctv":false,"managerTel":"0542706668","source":"public","category":"public"},{"id":"202450200000100996","name":"양포 방파제 화장실","lat":35.876016,"lng":129.51774,"roadAddr":"경상북도 포항시 남구 장기면 동해안로 3248번길 18","jibunAddr":"경상북도 포항시 남구 장기면 신창리 421-1","openHours":"상시","maleToilets":5,"femaleToilets":3,"disabled":false,"diaperTable":false,"emergencyBell":false,"cctv":false,"managerTel":"0542706668","source":"public","category":"public"},{"id":"202250300000100018","name":"신창 국도변 주차장 화장실","lat":35.890418,"lng":129.524263,"jibunAddr":"경상북도 포항시 남구 장기면 신창리 895-1","openHours":"00:00 ~ 24:00","maleToilets":7,"femaleToilets":6,"disabled":true,"diaperTable":false,"emergencyBell":true,"cctv":true,"managerTel":"0542706668","source":"public","category":"public"},{"id":"202450200000100986","name":"계원국도변 화장실","lat":35.871918,"lng":129.522164,"roadAddr":"경상북도 포항시 남구 장기면 동해안로 3152","jibunAddr":"경상북도 포항시 남구 장기면 계원리 산 40-5","openHours":"상시","maleToilets":4,"femaleToilets":1,"disabled":false,"diaperTable":false,"emergencyBell":false,"cctv":false,"managerTel":"0542706668","source":"public","category":"public"}]