[{"id":"202450200000101047","name":"삼정1리 화장실(삼정1리 해안가)","lat":36.001756,"lng":129.569864,"roadAddr":"경상북도 포항시 남구 구룡포읍 일출로62번길 22 건너편","jibunAddr":"경상북도 포항시 남구 구룡포읍 삼정리 467 건너편","openHours":"상시","maleToilets":2,"femaleToilets":3,"disabled":true,"diaperTable":true,"emergencyBell":true,"cctv":false,"managerTel":"0542706569","source":"public","category":"public"},{"id":"202450200000101045","name":"충혼각 화장실","lat":35.991509,"lng":129.560833,"roadAddr":"경상북도 포항시 남구 구룡포읍 구룡포길 145-10","jibunAddr":"경상북도 포항시 남구 구룡포읍 구룡포리 382-7","openHours":"상시","maleToilets":3,"femaleToilets":1,"disabled":false,"diaperTable":false,"emergencyBell":false,"cctv":false,"managerTel":"0542706569","source":"public","category":"public"},{"id":"202450200000101231","name":"강사1리 해파랑길 끝","lat":36.033025,"lng":129.576937,"roadAddr":"경상북도 포항시 남구 호미곶면 고래마을길 13-1","jibunAddr":"경상북도 포항시 남구 호미곶면 강사리 228-1 다무포간이해수욕장 해파랑길 끝","openHours":"상시","maleToilets":2,"femaleToilets":1,"disabled":false,"diaperTable":false,"emergencyBell":false,"cctv":false,"managerTel":"0542706687","source":"public","category":"public"},{"id":"202450200000101368","name":"미래셀프주유소 화장실","lat":35.992446,"lng":129.563964,"roadAddr":"경상북도 포항시 남구 구룡포읍 용주로 25","openHours":"상시","maleToilets":3,"femaleToilets":2,"disabled":false,"diaperTable":false,"emergencyBell":false,"cctv":false,"managerTel":"0542847345","source":"public","category":"public"},{"id":"202250300000100050","name":"다무포간이해수욕장","lat":36.032952,"lng":129.577036,"jibunAddr":"경상북도 포항시 남구 호미곶면 강사리 228-1","openHours":"00:00 ~ 24:00","maleToilets":3,"femaleToilets":1,"disabled":false,"diaperTable":false,"emergencyBell":false,"cctv":false,"source":"public","category":"public"},{"id":"202250300000100051","name":"강사1리 해파랑길 끝","lat":36.032952,"lng":129.577036,"jibunAddr":"경상북도 포항시 남구 호미곶면 강사리 228-1 다무포간이해수욕장 해파랑길 끝","openHours":"00:00 ~ 24:00","maleToilets":2,"femaleToilets":1,"disabled":false,"diaperTable":false,"emergencyBell":false,"cctv":false,"source":"public","category":"public"},{"id":"202450200000101225","name":"다무포해수욕장 간이화장실","lat":36.034377,"lng":129.57706,"roadAddr":"경상북도 포항시 남구 호미곶면 고래마을길 27","jibunAddr":"경상북도 포항시 남구 호미곶면 강사리 229-12 우측","openHours":"상시","maleToilets":3,"femaleToilets":1,"disabled":false,"diaperTable":false,"emergencyBell":false,"cctv":false,"managerTel":"0542706687","source":"public","category":"public"},{"id":"202450200000101035","name":"구룡포7리해수욕장 화장실(엔젤펜션 옆)","lat":35.996706,"lng":129.565715,"roadAddr":"경상북도 포항시 남구 구룡포읍 호미로420-5","jibunAddr":"경상북도 포항시 남구 구룡포읍 구룡포리 9-43","openHours":"불규칙","maleToilets":5,"femaleToilets":4,"disabled":false,"diaperTable":false,"emergencyBell":true,"cctv":false,"managerTel":"0542706569","source":"public","category":"public"},{"id":"202450200000100980","name":"과메기문화관 화장실","lat":35.99274,"lng":129.561799,"roadAddr":"경상북도 포항시 남구 구룡포읍 구룡포길117번길 28-8","jibunAddr":"경상북도 포항시 남구 구룡포리 353","openHours":"정시","maleToilets":18,"femaleToilets":14,"disabled":true,"diaperTable":true,"emergencyBell":false,"cctv":false,"managerTel":"0542772860","source":"public","category":"public"},{"id":"202450200000101034","name":"구룡포7리해수욕장 화장실(스카이펜션 맞은편)","lat":35.99855,"lng":129.568175,"roadAddr":"경상북도 포항시 남구 구룡포읍 일출로62번길 65","jibunAddr":"경상북도 포항시 남구 구룡포읍 삼정리 505","openHours":"상시","maleToilets":13,"femaleToilets":11,"disabled":false,"diaperTable":false,"emergencyBell":true,"cctv":false,"managerTel":"0542706569","source":"public","category":"public"},{"id":"202450200000101226","name":"다무포해수욕장 공중화장실","lat":36.033025,"lng":129.576937,"roadAddr":"경상북도 포항시 남구 호미곶면 고래마을길 13-1","jibunAddr":"경상북도 포항시 남구 호미곶면 강사리 228-1","openHours":"상시","maleToilets":2,"femaleToilets":2,"disabled":false,"diaperTable":false,"emergencyBell":false,"cctv":false,"managerTel":"0542706687","source":"public","category":"public"},{"id":"202250300000100041","name":"구룡포6리 해안가","lat":35.992349,"lng":129.566778,"roadAddr":"경상북도 포항시 남구 구룡포읍 호미로 334-76","jibunAddr":"경상북도 포항시 남구 구룡포읍 구룡포리 190-62","openHours":"00:00 ~ 24:00","maleToilets":3,"femaleToilets":1,"disabled":false,"diaperTable":false,"emergencyBell":false,"cctv":false,"source":"public","category":"public"}]