[{"id":"202450200000101217","name":"포항경주공항 도착대합실 1층","lat":35.984113,"lng":129.434039,"roadAddr":"경상북도 포항시 남구 동해면 일월로 18","jibunAddr":"경상북도 포항시 남구 동해면 도구리 402-1","openHours":"공항운영시간(07:00~19:00)","maleToilets":6,"femaleToilets":6,"disabled":false,"diaperTable":true,"emergencyBell":false,"cctv":true,"managerTel":"16612626","source":"public","category":"public"},{"id":"202450200000101215","name":"포항경주공항 격리대합실 2층 동편","lat":35.984113,"lng":129.434039,"roadAddr":"경상북도 포항시 남구 동해면 일월로 18","jibunAddr":"경상북도 포항시 남구 동해면 도구리 402-1","openHours":"공항운영시간(07:00~19:00)","maleToilets":5,"femaleToilets":3,"disabled":true,"diaperTable":true,"emergencyBell":false,"cctv":true,"managerTel":"16612626","source":"public","category":"public"},{"id":"202450200000101279","name":"정천 주유소 화장실","lat":35.952908,"lng":129.454431,"roadAddr":"경상북도 포항시 남구 장기면 장기로 1264번길","jibunAddr":"경상북도 포항시 남구 장기면 정천리 319-5","openHours":"상시","maleToilets":2,"femaleToilets":2,"disabled":false,"diaperTable":false,"emergencyBell":false,"cctv":false,"managerTel":"0542848111","source":"public","category":"public"},{"id":"202450200000101380","name":"세계주유소 공중화장실","lat":35.958989,"lng":129.428916,"roadAddr":"경상북도 포항시 남구 오천읍 장기로 1551","openHours":"상시","maleToilets":3,"femaleToilets":2,"disabled":false,"diaperTable":false,"emergencyBell":false,"cctv":false,"managerTel":"0542925151","source":"public","category":"public"},{"id":"202450200000101214","name":"포항경주공항 일반대합실 2층 서편","lat":35.984113,"lng":129.434039,"roadAddr":"경상북도 포항시 남구 동해면 일월로 18","jibunAddr":"경상북도 포항시 남구 동해면 도구리 402-1","openHours":"공항운영시간(07:00~19:00)","maleToilets":3,"femaleToilets":4,"disabled":true,"diaperTable":true,"emergencyBell":true,"cctv":true,"managerTel":"16612626","source":"public","category":"public"},{"id":"202450200000101213","name":"포항경주공항 일반대합실 2층 동편","lat":35.984113,"lng":129.434039,"roadAddr":"경상북도 포항시 남구 동해면 일월로 18","jibunAddr":"경상북도 포항시 남구 동해면 도구리 402-1","openHours":"공항운영시간(07:00~19:00)","maleToilets":7,"femaleToilets":3,"disabled":true,"diaperTable":true,"emergencyBell":false,"cctv":true,"managerTel":"16612626","source":"public","category":"public"},{"id":"202450200000101313","name":"나우(NOW)주유소 공중화장실","lat":35.962868,"lng":129.422717,"roadAddr":"경상북도 포항시 남구 오천읍 장기로 1623","openHours":"상시","maleToilets":12,"femaleToilets":1,"disabled":false,"diaperTable":false,"emergencyBell":false,"cctv":false,"managerTel":"0542922500","source":"public","category":"public"},{"id":"202450200000101383","name":"솔로몬주유소","lat":35.990759,"lng":129.428928,"roadAddr":"경상북도 포항시 남구 동해안로 5794","openHours":"상시","maleToilets":3,"femaleToilets":1,"disabled":false,"diaperTable":false,"emergencyBell":false,"cctv":false,"managerTel":"0547261220","source":"public","category":"public"},{"id":"202450200000101339","name":"동해농협주유소 화장실","lat":35.988259,"lng":129.445316,"roadAddr":"경상북도 포항시 남구 동해면 일월로 113","openHours":"06:30~22:00","maleToilets":4,"femaleToilets":1,"disabled":false,"diaperTable":false,"emergencyBell":false,"cctv":false,"managerTel":"0542861199","source":"public","category":"public"},{"id":"202450200000101218","name":"포항경주공항 일반대합실 1층 서편","lat":35.984113,"lng":129.434039,"roadAddr":"경상북도 포항시 남구 동해면 일월로 18","jibunAddr":"경상북도 포항시 남구 동해면 도구리 402-1","openHours":"공항운영시간(07:00~19:00)","maleToilets":7,"femaleToilets":8,"disabled":true,"diaperTable":true,"emergencyBell":true,"cctv":true,"managerTel":"0542897314","source":"public","category":"public"},{"id":"202450200000101105","name":"금광리 공중화장실","lat":35.96189,"lng":129.451548,"roadAddr":"경상북도 포항시 남구 동해면 금광리","jibunAddr":"경상북도 포항시 남구 동해면 금광리 725","openHours":"상시","maleToilets":2,"femaleToilets":2,"disabled":false,"diaperTable":false,"emergencyBell":false,"cctv":false,"managerTel":"0542706648","source":"public","category":"public"},{"id":"202450200000101212","name":"포항경주공항 일반대합실 1층 동편","lat":35.984113,"lng":129.434039,"roadAddr":"경상북도 포항시 남구 동해면 일월로 18","jibunAddr":"경상북도 포항시 남구 동해면 도구리 402-1","openHours":"공항운영시간(07:00~19:00)","maleToilets":7,"femaleToilets":7,"disabled":true,"diaperTable":true,"emergencyBell":false,"cctv":true,"managerTel":"16612626","source":"public","category":"public"},{"id":"202450200000101216","name":"포항경주공항 격리대합실 2층 서편","lat":35.984113,"lng":129.434039,"roadAddr":"경상북도 포항시 남구 동해면 일월로 18","jibunAddr":"경상북도 포항시 남구 동해면 도구리 402-1","openHours":"공항운영시간(07:00~19:00)","maleToilets":5,"femaleToilets":4,"disabled":true,"diaperTable":true,"emergencyBell":true,"cctv":true,"managerTel":"16612626","source":"public","category":"public"}]