[{"id":"202450200000101040","name":"구룡포2리 주차장 화장실(구룡포파출소 뒤)","lat":35.988175,"lng":129.552788,"roadAddr":"경상북도 포항시 남구 구룡포읍 호미로188-27","jibunAddr":"경상북도 포항시 남구 구룡포읍 구룡포리 954-28","openHours":"상시","maleToilets":3,"femaleToilets":3,"disabled":true,"diaperTable":false,"emergencyBell":false,"cctv":false,"managerTel":"0542706569","source":"public","category":"public"},{"id":"202450200000101007","name":"여행자 플랫폼 피어라운지 화장실","lat":35.991049,"lng":129.560407,"roadAddr":"경상북도 포항시 남구 구룡포길 143","jibunAddr":"경상북도 포항시 남구 구룡포읍 구룡포리 249-58","openHours":"정시","maleToilets":2,"femaleToilets":1,"disabled":false,"diaperTable":false,"emergencyBell":false,"cctv":true,"managerTel":"0542897920","source":"public","category":"public"},{"id":"202250300000100040","name":"구룡포리 북방파제 입구","lat":35.990759,"lng":129.559408,"jibunAddr":"경상북도 포항시 남구 구룡포읍 구룡포리 954-32","openHours":"00:00 ~ 24:00","maleToilets":5,"femaleToilets":4,"disabled":true,"diaperTable":false,"emergencyBell":true,"cctv":true,"source":"public","category":"public"},{"id":"202450200000101041","name":"구룡포3리 버스종점 화장실(참마트 건너편)","lat":35.989335,"lng":129.554923,"roadAddr":"경상북도 포항시 남구 구룡포읍 구룡포리 954-2","jibunAddr":"경상북도 포항시 남구 구룡포읍 구룡포리 954-2","openHours":"상시","maleToilets":4,"femaleToilets":3,"disabled":true,"diaperTable":false,"emergencyBell":true,"cctv":false,"managerTel":"0542706569","source":"public","category":"public"},{"id":"202450200000101048","name":"구룡포 게이트볼장 화장실","lat":35.986357,"lng":129.551709,"roadAddr":"경상북도 포항시 남구 구룡포읍 호미로 180-30","jibunAddr":"경상북도 포항시 남구 구룡포읍 구룡포리 954-13","openHours":"상시","maleToilets":3,"femaleToilets":3,"disabled":false,"diaperTable":false,"emergencyBell":true,"cctv":false,"managerTel":"0542706569","source":"public","category":"public"},{"id":"202450200000101037","name":"구룡포시장 화장실(신협 뒤)","lat":35.990394,"lng":129.554324,"roadAddr":"경상북도 포항시 남구 구룡포읍 구룡포길76-2 뒤편","jibunAddr":"경상북도 포항시 남구 구룡포읍 구룡포리 708-55 뒤편","openHours":"상시","maleToilets":2,"femaleToilets":0,"disabled":false,"diaperTable":false,"emergencyBell":false,"cctv":false,"managerTel":"0542706569","source":"public","category":"public"},{"id":"202450200000101059","name":"구룡포 공영주차장 화장실","lat":35.987779,"lng":129.552727,"roadAddr":"경상북도 포항시 남구 구룡포읍 호미로 188-11","jibunAddr":"경상북도 포항시 남구 구룡포읍 구룡포리 954-28","openHours":"상시","maleToilets":0,"femaleToilets":0,"disabled":false,"diaperTable":false,"emergencyBell":false,"cctv":false,"managerTel":"0542703639","source":"public","category":"public"},{"id":"202450200000101042","name":"구룡포5리 방파제 화장실(아라광장)","lat":35.989335,"lng":129.554923,"roadAddr":"경상북도 포항시 남구 구룡포읍 구룡포리 954-2","jibunAddr":"경상북도 포항시 남구 구룡포읍 구룡포리 954-2","openHours":"상시","maleToilets":4,"femaleToilets":4,"disabled":true,"diaperTable":false,"emergencyBell":true,"cctv":true,"managerTel":"0542706569","source":"public","category":"public"},{"id":"202450200000101036","name":"구룡포시장 화장실(유창수산 앞)","lat":35.989584,"lng":129.553151,"roadAddr":"경상북도 포항시 남구 구룡포읍 구룡포길60-12","jibunAddr":"경상북도 포항시 남구 구룡포읍 구룡포리 963-116","openHours":"상시","maleToilets":4,"femaleToilets":2,"disabled":false,"diaperTable":false,"emergencyBell":false,"cctv":false,"managerTel":"0542706569","source":"public","category":"public"}]