[{"id":"202451800000100125","name":"대진항 대게공원","lat":36.5574,"lng":129.434026,"jibunAddr":"경상북도 영덕군 영해면 대진리 220-6","openHours":"상시","maleToilets":4,"femaleToilets":1,"disabled":false,"diaperTable":false,"emergencyBell":true,"cctv":false,"managerTel":"0547307703","source":"public","category":"public"},{"id":"202451800000100126","name":"해양파출소 대진출장소 옆","lat":36.558648,"lng":129.432536,"roadAddr":"경상북도 영덕군 영해면 영덕대게로 2742","openHours":"상시","maleToilets":6,"femaleToilets":2,"disabled":false,"diaperTable":false,"emergencyBell":true,"cctv":false,"managerTel":"0547307703","source":"public","category":"public"},{"id":"202451800000100131","name":"사진3리 폭포 옆","lat":36.525203,"lng":129.441317,"roadAddr":"경상북도 영덕군 영해면 영덕대게로 2299","openHours":"상시","maleToilets":1,"femaleToilets":1,"disabled":false,"diaperTable":false,"emergencyBell":false,"cctv":false,"managerTel":"0547307703","source":"public","category":"public"},{"id":"202451800000100137","name":"사진1리~대진3리사이 화장실","lat":36.544817,"lng":129.438821,"jibunAddr":"경상북도 영덕군 영해면 사진리 산130-1","openHours":"상시","maleToilets":2,"femaleToilets":1,"disabled":false,"diaperTable":false,"emergencyBell":false,"cctv":false,"managerTel":"0547307703","source":"public","category":"public"},{"id":"202451800000100127","name":"목은이색기념관","lat":36.543077,"lng":129.419062,"roadAddr":"경상북도 영덕군 영해면 호지마을1길 24-49","openHours":"상시","maleToilets":2,"femaleToilets":1,"disabled":false,"diaperTable":false,"emergencyBell":true,"cctv":false,"managerTel":"0547307703","source":"public","category":"public"},{"id":"202451800000100122","name":"대진2리 도해단 옆","lat":36.559857,"lng":129.432267,"roadAddr":"경상북도 영덕군 영해면 영덕대게로 2751","openHours":"상시","maleToilets":2,"femaleToilets":1,"disabled":false,"diaperTable":false,"emergencyBell":true,"cctv":false,"managerTel":"0547307703","source":"public","category":"public"},{"id":"202451800000100128","name":"괴시2리 관어대 입구","lat":36.555315,"lng":129.42436,"jibunAddr":"경상북도 영덕군 영해면 괴시리 610","openHours":"상시","maleToilets":4,"femaleToilets":3,"disabled":false,"diaperTable":false,"emergencyBell":true,"cctv":false,"managerTel":"0547307703","source":"public","category":"public"},{"id":"202451800000100134","name":"괴시1리 동네체육시설","lat":36.532797,"lng":129.433029,"jibunAddr":"경상북도 영덕군 영해면 괴시리 산90","openHours":"상시","maleToilets":1,"femaleToilets":1,"disabled":false,"diaperTable":false,"emergencyBell":false,"cctv":false,"managerTel":"0547307703","source":"public","category":"public"}]