[{"id":"202452500000100212","name":"영덕세무서울진지서","lat":36.989899,"lng":129.396469,"roadAddr":"경상북도 울진군 울진읍 월변2길 48","jibunAddr":"경상북도 울진군 울진읍 읍내리 347","openHours":"정시","maleToilets":8,"femaleToilets":10,"disabled":true,"diaperTable":false,"emergencyBell":true,"cctv":false,"managerTel":"0547805120","source":"public","category":"public"},{"id":"202452500000100168","name":"보건소 본관3층","lat":36.996216,"lng":129.404599,"roadAddr":"경상북도 울진군 읍내8길 61-8","openHours":"정시","maleToilets":3,"femaleToilets":2,"disabled":true,"diaperTable":false,"emergencyBell":false,"cctv":false,"managerTel":"0547831250","source":"public","category":"public"},{"id":"202452500000100066","name":"왕피천공원사업소 앞","lat":36.97011,"lng":129.405926,"jibunAddr":"경상북도 울진군 근남면 수산리 363-2","openHours":"상시","maleToilets":6,"femaleToilets":5,"disabled":false,"diaperTable":false,"emergencyBell":false,"cctv":false,"source":"public","category":"public"},{"id":"202452500000100225","name":"왕피천공원(동물농장 앞)","lat":36.968702,"lng":129.401088,"roadAddr":"경상북도 울진군 근남면 왕피천공원길 1","openHours":"상시","maleToilets":10,"femaleToilets":5,"disabled":true,"diaperTable":false,"emergencyBell":true,"cctv":false,"managerTel":"0547895500","source":"public","category":"public"},{"id":"202452500000100041","name":"망양정해수욕장","lat":36.968059,"lng":129.411991,"roadAddr":"경상북도 울진군 근남면 망양정로 1029","openHours":"상시","maleToilets":7,"femaleToilets":6,"disabled":true,"diaperTable":true,"emergencyBell":true,"cctv":false,"source":"public","category":"public"},{"id":"202452500000100263","name":"울진시장 1","lat":36.991706,"lng":129.402643,"roadAddr":"경상북도 울진군 울진읍 읍내5길 43","jibunAddr":"경상북도 울진군 울진읍 읍내리 60-3","openHours":"상시","maleToilets":6,"femaleToilets":5,"disabled":false,"diaperTable":false,"emergencyBell":true,"cctv":false,"managerTel":"0547894044","source":"public","category":"public"},{"id":"202452500000100062","name":"엑스포공원","lat":36.967127,"lng":129.399232,"jibunAddr":"경상북도 울진군 근남면 수산리 364-3","openHours":"상시","maleToilets":3,"femaleToilets":3,"disabled":false,"diaperTable":false,"emergencyBell":true,"cctv":false,"source":"public","category":"public"},{"id":"202452500000100254","name":"게이트볼장","lat":36.993468,"lng":129.395857,"roadAddr":"경상북도 울진군 울진읍 강변로137-10 부근","jibunAddr":"경상북도 울진군 울진읍 읍내리 683-26","openHours":"상시","maleToilets":1,"femaleToilets":2,"disabled":false,"diaperTable":false,"emergencyBell":true,"cctv":false,"managerTel":"0547894013","source":"public","category":"public"},{"id":"202452500000100245","name":"울진읍사무소","lat":36.997189,"lng":129.403006,"roadAddr":"경상북도 울진군 울진읍읍내10길 19","jibunAddr":"경상북도 울진군 울진읍 읍내리 557-3","openHours":"정시","maleToilets":2,"femaleToilets":3,"disabled":true,"diaperTable":false,"emergencyBell":true,"cctv":false,"managerTel":"0547894013","source":"public","category":"public"},{"id":"202452500000100040","name":"망양정해맞이공원","lat":36.964445,"lng":129.412444,"roadAddr":"경상북도 울진군 근남면 망양정로 965-58","openHours":"상시","maleToilets":4,"femaleToilets":2,"disabled":true,"diaperTable":true,"emergencyBell":true,"cctv":false,"source":"public","category":"public"},{"id":"202452500000100223","name":"왕피천공원(동쪽)","lat":36.968702,"lng":129.401088,"roadAddr":"경상북도 울진군 근남면 왕피천공원길 1","openHours":"상시","maleToilets":6,"femaleToilets":4,"disabled":true,"diaperTable":false,"emergencyBell":true,"cctv":false,"managerTel":"0547895500","source":"public","category":"public"},{"id":"202452500000100266","name":"연호공원","lat":36.995484,"lng":129.40807,"jibunAddr":"경상북도 울진군 울진읍 연지리 799","openHours":"상시","maleToilets":7,"femaleToilets":5,"disabled":true,"diaperTable":false,"emergencyBell":true,"cctv":false,"managerTel":"0547894041","source":"public","category":"public"},{"id":"202452500000100063","name":"산포4리 배수펌프장 옆","lat":36.96537,"lng":129.407593,"jibunAddr":"경상북도 울진군 근남면 산포리 782","openHours":"상시","maleToilets":1,"femaleToilets":1,"disabled":false,"diaperTable":false,"emergencyBell":false,"cctv":false,"source":"public","category":"public"},{"id":"202452500000100169","name":"보건소 별관1층","lat":36.996216,"lng":129.404599,"roadAddr":"경상북도 울진군 읍내8길 61-8","openHours":"정시","maleToilets":3,"femaleToilets":2,"disabled":true,"diaperTable":false,"emergencyBell":false,"cctv":false,"managerTel":"0547831250","source":"public","category":"public"},{"id":"202452500000100269","name":"울진군청별관화장실","lat":36.992231,"lng":129.400095,"roadAddr":"경상북도 울진군 울진읍 울진중앙로 115-21","jibunAddr":"경상북도 울진군 울진읍 읍내리 77-2","openHours":"상시","maleToilets":16,"femaleToilets":16,"disabled":true,"diaperTable":false,"emergencyBell":true,"cctv":false,"managerTel":"0547896613","source":"public","category":"public"},{"id":"202452500000100238","name":"울진근남우체국","lat":36.962751,"lng":129.396249,"roadAddr":"경상북도 울진군 근남면 울진북로 148","jibunAddr":"경상북도 울진군 노음리 324-30","openHours":"정시","maleToilets":1,"femaleToilets":1,"disabled":false,"diaperTable":false,"emergencyBell":false,"cctv":true,"managerTel":"0547824777","source":"public","category":"public"},{"id":"202452500000100344","name":"남대천변","lat":36.991862,"lng":129.397817,"roadAddr":"경상북도 울진군 울진읍 읍내리 418","openHours":"상시","maleToilets":2,"femaleToilets":2,"disabled":false,"diaperTable":false,"emergencyBell":true,"cctv":false,"source":"public","category":"public"},{"id":"202452500000100164","name":"성류굴주차장(북부2)","lat":36.958848,"lng":129.379441,"roadAddr":"경상북도 울진군 근남면 성류굴로 202 (노음리)","jibunAddr":"경상북도 울진군 근남면 노음리 850-12","openHours":"상시","maleToilets":4,"femaleToilets":3,"disabled":false,"diaperTable":false,"emergencyBell":false,"cctv":false,"managerTel":"0547895402","source":"public","category":"public"},{"id":"202452500000100038","name":"울진국유림관리소","lat":36.986621,"lng":129.394563,"roadAddr":"경상북도 울진군 울진읍 대흥신림로 1397","openHours":"정시","maleToilets":8,"femaleToilets":4,"disabled":true,"diaperTable":false,"emergencyBell":false,"cctv":false,"managerTel":"0547803912","source":"public","category":"public"},{"id":"202452500000100265","name":"연호정","lat":36.99393,"lng":129.406906,"roadAddr":"경상북도 울진군 울진읍 연호로 49","jibunAddr":"경상북도 울진군 울진읍 연지리 793-3","openHours":"상시","maleToilets":3,"femaleToilets":3,"disabled":true,"diaperTable":false,"emergencyBell":true,"cctv":false,"managerTel":"0547894041","source":"public","category":"public"},{"id":"202452500000100170","name":"보건소 별관2층","lat":36.996216,"lng":129.404599,"roadAddr":"경상북도 울진군 읍내8길 61-8","openHours":"정시","maleToilets":2,"femaleToilets":3,"disabled":false,"diaperTable":false,"emergencyBell":false,"cctv":false,"managerTel":"0547831250","source":"public","category":"public"},{"id":"202452500000100156","name":"망양정해맞이공원(케이블카)","lat":36.965423,"lng":129.410306,"roadAddr":"경상북도 울진군 근남면 망양정로 1065-27","jibunAddr":"경상북도 울진군 근남면 망양정로 1065-27","openHours":"정시","maleToilets":4,"femaleToilets":2,"disabled":false,"diaperTable":false,"emergencyBell":false,"cctv":true,"managerTel":"0547896922","source":"public","category":"public"},{"id":"202452500000100037","name":"울진국유림관리소 산불대응센터","lat":36.986621,"lng":129.394563,"roadAddr":"경상북도 울진군 울진읍 대흥신림로 1397","openHours":"정시","maleToilets":3,"femaleToilets":0,"disabled":false,"diaperTable":false,"emergencyBell":false,"cctv":false,"managerTel":"0547803965","source":"public","category":"public"},{"id":"202452500000100224","name":"왕피천공원(곤충관 옆)","lat":36.968702,"lng":129.401088,"roadAddr":"경상북도 울진군 근남면 왕피천공원길 1","openHours":"상시","maleToilets":5,"femaleToilets":5,"disabled":true,"diaperTable":false,"emergencyBell":true,"cctv":false,"managerTel":"0547895500","source":"public","category":"public"},{"id":"202452500000100255","name":"새천년생명의숲","lat":36.989899,"lng":129.396469,"roadAddr":"경상북도 울진군 울진읍 월변2길 48부근","jibunAddr":"경상북도 울진군 울진읍 읍내리 343-2","openHours":"상시","maleToilets":1,"femaleToilets":1,"disabled":false,"diaperTable":false,"emergencyBell":false,"cctv":false,"managerTel":"0547894013","source":"public","category":"public"},{"id":"202452500000100004","name":"울진파출소","lat":36.996339,"lng":129.402864,"roadAddr":"경상북도 울진군 울진읍 읍내10길 20","jibunAddr":"경상북도 울진군 울진읍 읍내리 556-5","openHours":"상시","maleToilets":6,"femaleToilets":1,"disabled":true,"diaperTable":false,"emergencyBell":false,"cctv":false,"managerTel":"0547850226","source":"public","category":"public"},{"id":"202452500000100268","name":"울진군청민원실화장실","lat":36.993071,"lng":129.400679,"roadAddr":"경상북도 울진군 울진읍 울진중앙로 121","jibunAddr":"경상북도 울진군 울진읍 읍내리 464","openHours":"상시","maleToilets":13,"femaleToilets":7,"disabled":true,"diaperTable":false,"emergencyBell":false,"cctv":false,"managerTel":"0547896613","source":"public","category":"public"},{"id":"202452500000100230","name":"울진우체국","lat":36.994156,"lng":129.403376,"roadAddr":"경상북도 울진군 울진읍 연호로 19","jibunAddr":"경상북도 울진군 읍내리 539-6","openHours":"정시","maleToilets":7,"femaleToilets":3,"disabled":true,"diaperTable":false,"emergencyBell":false,"cctv":true,"managerTel":"0547801211","source":"public","category":"public"},{"id":"202452500000100058","name":"남대천보행교","lat":36.976736,"lng":129.407454,"jibunAddr":"경상북도 울진군 근남면 수산리 190-9","openHours":"상시","maleToilets":4,"femaleToilets":3,"disabled":false,"diaperTable":false,"emergencyBell":true,"cctv":false,"source":"public","category":"public"},{"id":"202452500000100005","name":"근남파출소","lat":36.963001,"lng":129.395939,"roadAddr":"경상북도 울진군 근남면 울진북로 147","jibunAddr":"경상북도 울진군 근남면 노음리 326-17","openHours":"상시","maleToilets":5,"femaleToilets":2,"disabled":true,"diaperTable":false,"emergencyBell":false,"cctv":false,"managerTel":"0547850353","source":"public","category":"public"},{"id":"202452500000100267","name":"울진군청본관화장실","lat":36.993071,"lng":129.400679,"roadAddr":"경상북도 울진군 울진읍 울진중앙로 121","jibunAddr":"경상북도 울진군 울진읍 읍내리 464","openHours":"상시","maleToilets":38,"femaleToilets":10,"disabled":true,"diaperTable":false,"emergencyBell":false,"cctv":false,"managerTel":"0547896613","source":"public","category":"public"},{"id":"202452500000100001","name":"울진경찰서","lat":36.984754,"lng":129.39867,"roadAddr":"경상북도 울진군 울진중앙로 28","jibunAddr":"경상북도 울진군 울진읍 읍내리 205","openHours":"상시","maleToilets":19,"femaleToilets":3,"disabled":true,"diaperTable":false,"emergencyBell":false,"cctv":false,"managerTel":"0547850237","source":"public","category":"public"},{"id":"202452500000100256","name":"남대천고성교(밑)","lat":36.994079,"lng":129.39489,"jibunAddr":"경상북도 울진군 울진읍 읍내리 690-2","openHours":"상시","maleToilets":1,"femaleToilets":1,"disabled":false,"diaperTable":false,"emergencyBell":false,"cctv":false,"managerTel":"0547894013","source":"public","category":"public"},{"id":"202452500000100039","name":"근남면사무소","lat":36.962795,"lng":129.394513,"roadAddr":"경상북도 울진군 근남면 노음4길 6-7","openHours":"정시","maleToilets":4,"femaleToilets":2,"disabled":false,"diaperTable":true,"emergencyBell":true,"cctv":false,"source":"public","category":"public"},{"id":"202452500000100305","name":"울진군민체육센터","lat":36.990926,"lng":129.406634,"roadAddr":"경상북도 울진군 울진읍 현내항길 92-13","openHours":"정시","maleToilets":12,"femaleToilets":13,"disabled":true,"diaperTable":false,"emergencyBell":true,"cctv":false,"managerTel":"0547895850","source":"public","category":"public"},{"id":"202452500000100044","name":"산포야영장","lat":36.960215,"lng":129.414972,"roadAddr":"경상북도 울진군 근남면 망양정로 927","openHours":"상시","maleToilets":6,"femaleToilets":4,"disabled":false,"diaperTable":false,"emergencyBell":false,"cctv":false,"source":"public","category":"public"},{"id":"202452500000100227","name":"왕피천공원(시설관리사업소 앞)","lat":36.968702,"lng":129.401088,"roadAddr":"경상북도 울진군 근남면 왕피천공원길 1","openHours":"상시","maleToilets":10,"femaleToilets":5,"disabled":true,"diaperTable":false,"emergencyBell":true,"cctv":false,"managerTel":"0547895500","source":"public","category":"public"},{"id":"202452500000100166","name":"보건소 본관1층","lat":36.996216,"lng":129.404599,"roadAddr":"경상북도 울진군 읍내8길 61-8","openHours":"정시","maleToilets":3,"femaleToilets":2,"disabled":true,"diaperTable":false,"emergencyBell":false,"cctv":false,"managerTel":"0547831250","source":"public","category":"public"},{"id":"202452500000100045","name":"수산교(농협앞)","lat":36.964495,"lng":129.398642,"jibunAddr":"경상북도 울진군 근남면 노음리 322-1","openHours":"상시","maleToilets":1,"femaleToilets":1,"disabled":false,"diaperTable":false,"emergencyBell":false,"cctv":false,"source":"public","category":"public"},{"id":"202452500000100064","name":"수산교(북쪽)","lat":36.966486,"lng":129.396349,"jibunAddr":"경상북도 울진군 근남면 수산리 369-1","openHours":"상시","maleToilets":5,"femaleToilets":5,"disabled":false,"diaperTable":false,"emergencyBell":true,"cctv":false,"source":"public","category":"public"},{"id":"202452500000100173","name":"근남면보건지소","lat":36.962795,"lng":129.394513,"roadAddr":"경상북도 울진군 근남면 노음4길 6-7","openHours":"정시","maleToilets":1,"femaleToilets":0,"disabled":false,"diaperTable":false,"emergencyBell":false,"cctv":false,"managerTel":"0547895140","source":"public","category":"public"},{"id":"202452500000100226","name":"왕피천공원(다도관 옆)","lat":36.968702,"lng":129.401088,"roadAddr":"경상북도 울진군 근남면 왕피천공원길 1","openHours":"상시","maleToilets":10,"femaleToilets":5,"disabled":true,"diaperTable":false,"emergencyBell":true,"cctv":false,"managerTel":"0547895500","source":"public","category":"public"},{"id":"202452500000100167","name":"보건소 본관2층","lat":36.996216,"lng":129.404599,"roadAddr":"경상북도 울진군 읍내8길 61-8","openHours":"정시","maleToilets":3,"femaleToilets":2,"disabled":true,"diaperTable":false,"emergencyBell":false,"cctv":false,"managerTel":"0547831250","source":"public","category":"public"},{"id":"202452500000100264","name":"울진시장2","lat":36.992236,"lng":129.402945,"roadAddr":"경상북도 울진군 울진읍 읍내4길 16","jibunAddr":"경상북도 울진군 울진읍 읍내리 53-16","openHours":"상시","maleToilets":6,"femaleToilets":5,"disabled":false,"diaperTable":false,"emergencyBell":true,"cctv":false,"managerTel":"0547894044","source":"public","category":"public"},{"id":"202452500000100154","name":"울진문화원","lat":36.990748,"lng":129.408468,"roadAddr":"경상북도 울진군 울진읍 현내항길 92-9","jibunAddr":"경상북도 울진군 울진읍 연지리 103-2","openHours":"정시","maleToilets":9,"femaleToilets":6,"disabled":false,"diaperTable":false,"emergencyBell":false,"cctv":false,"managerTel":"0547896892","source":"public","category":"public"},{"id":"202452500000100163","name":"성류굴주차장(북부1)","lat":36.958848,"lng":129.379441,"roadAddr":"경상북도 울진군 근남면 성류굴로 202 (노음리)","jibunAddr":"경상북도 울진군 근남면 노음리 850-12","openHours":"상시","maleToilets":4,"femaleToilets":3,"disabled":false,"diaperTable":false,"emergencyBell":false,"cctv":false,"managerTel":"0547895402","source":"public","category":"public"},{"id":"202452500000100304","name":"울진군민체육관","lat":36.994653,"lng":129.406558,"roadAddr":"경상북도 울진군 울진읍 연호로 47","openHours":"불규칙","maleToilets":9,"femaleToilets":5,"disabled":true,"diaperTable":false,"emergencyBell":false,"cctv":false,"managerTel":"0547895874","source":"public","category":"public"}]