[{"id":"202452600000100035","name":"석포둘레길 공중화장실","lat":37.529462,"lng":130.901199,"roadAddr":"경상북도 울릉군 북면 석포길 681-18","jibunAddr":"경상북도 울릉군 북면 천부리 238-6","openHours":"동절기(12월~3월) 폐쇄","maleToilets":0,"femaleToilets":0,"disabled":true,"diaperTable":false,"emergencyBell":true,"cctv":false,"managerTel":"0547906734","source":"public","category":"public"},{"id":"202552600000100002","name":"워터피아광장","lat":37.540315,"lng":130.872497,"roadAddr":"경상북도 울릉군 북면 울릉순환로 3109","jibunAddr":"경상북도 울릉군 북면 천부리 719-32","openHours":"상시","maleToilets":5,"femaleToilets":3,"disabled":true,"diaperTable":false,"emergencyBell":true,"cctv":false,"managerTel":"0547906734","source":"public","category":"public"},{"id":"202452600000100037","name":"선창 버스정류장 공중화장실","lat":37.544916,"lng":130.908234,"jibunAddr":"경상북도 울릉군 북면 천부리 산4-13","openHours":"동절기(12월~3월) 폐쇄","maleToilets":2,"femaleToilets":2,"disabled":false,"diaperTable":false,"emergencyBell":true,"cctv":false,"managerTel":"0547906734","source":"public","category":"public"},{"id":"202452600000100029","name":"천부테니스장(북면사택 뒤)","lat":37.537846,"lng":130.872423,"jibunAddr":"경상북도 울릉군 북면 천부리 703-6","openHours":"동절기(12월~3월) 폐쇄","maleToilets":4,"femaleToilets":4,"disabled":false,"diaperTable":false,"emergencyBell":true,"cctv":false,"managerTel":"0547906734","source":"public","category":"public"},{"id":"202452600000100034","name":"석포전망대 공중화장실","lat":37.544211,"lng":130.90271,"jibunAddr":"경상북도 울릉군 북면 천부리 137-1","openHours":"동절기(12월~3월) 폐쇄","maleToilets":3,"femaleToilets":2,"disabled":false,"diaperTable":false,"emergencyBell":true,"cctv":false,"managerTel":"0547906734","source":"public","category":"public"},{"id":"202452600000100068","name":"석포 전망대 이동식 화장실","lat":37.544091,"lng":130.902553,"roadAddr":"경상북도 울릉군 북면 석포길 270, 석포전망대 공중화장실","jibunAddr":"경상북도 울릉군 북면 천부리 산 15 석포전망대 공중화장실","openHours":"동절기(12월~3월)폐쇄","maleToilets":1,"femaleToilets":1,"disabled":false,"diaperTable":false,"emergencyBell":false,"cctv":false,"managerTel":"0547906734","source":"public","category":"public"},{"id":"202452600000100044","name":"천부해상소공원(해수풀장)","lat":37.542463,"lng":130.874679,"jibunAddr":"경상북도 울릉군 북면 천부리 718-54","openHours":"연중무휴","maleToilets":5,"femaleToilets":3,"disabled":true,"diaperTable":false,"emergencyBell":true,"cctv":false,"managerTel":"0547906734","source":"public","category":"public"},{"id":"202452600000100028","name":"천부버스승강장 공중화장실","lat":37.541201,"lng":130.873253,"jibunAddr":"경상북도 울릉군 북면 천부리 718-48","openHours":"연중무휴","maleToilets":5,"femaleToilets":3,"disabled":false,"diaperTable":false,"emergencyBell":true,"cctv":false,"managerTel":"0547906734","source":"public","category":"public"}]