[{"id":"202452600000100021","name":"관해정 앞 이동식공중화장실","lat":37.493239,"lng":130.909868,"roadAddr":"경상북도 울릉군 울릉읍 울릉순환로 212-22, 관해정 앞 이동식 공중화장실","jibunAddr":"경상북도 울릉군 울릉읍 도동리 300-1 관해정 앞 이동식 공중화장실","openHours":"상시","maleToilets":2,"femaleToilets":2,"disabled":false,"diaperTable":false,"emergencyBell":true,"cctv":false,"managerTel":"0547906364","source":"public","category":"public"},{"id":"202452600000100012","name":"저동 내수전약수터","lat":37.50847,"lng":130.908303,"roadAddr":"경상북도 울릉군 울릉읍 저동4길 132-17","jibunAddr":"경상북도 울릉군 울릉읍 저동리 643","openHours":"연중무휴","maleToilets":3,"femaleToilets":2,"disabled":false,"diaperTable":false,"emergencyBell":true,"cctv":false,"managerTel":"0547906602","source":"public","category":"public"},{"id":"202452600000100010","name":"대원사뒤 성인봉 입구","lat":37.487747,"lng":130.896384,"roadAddr":"경상북도 울릉군 울릉읍 도동8길 143","jibunAddr":"경상북도 울릉군 울릉읍 도동리 544","openHours":"연중무휴","maleToilets":1,"femaleToilets":1,"disabled":false,"diaperTable":false,"emergencyBell":true,"cctv":false,"managerTel":"0547906602","source":"public","category":"public"},{"id":"202452600000100005","name":"저동 해경파출소 옆","lat":37.494863,"lng":130.909641,"roadAddr":"경상북도 울릉군 울릉읍 울릉순환로 179, 동해해양경찰서 울릉파출소","jibunAddr":"경상북도 울릉군 울릉읍 저동리 48-7 동해해양경찰서 울릉파출소","openHours":"연중무휴","maleToilets":3,"femaleToilets":2,"disabled":false,"diaperTable":false,"emergencyBell":true,"cctv":false,"managerTel":"0547906602","source":"public","category":"public"},{"id":"202452600000100049","name":"와달리 전망화장실","lat":37.523161,"lng":130.909211,"roadAddr":"경상북도 울릉군 울릉읍 울릉순환로 3891","jibunAddr":"경상북도 울릉군 울릉읍 저동리 230-4","openHours":"연중무휴","maleToilets":2,"femaleToilets":4,"disabled":true,"diaperTable":false,"emergencyBell":true,"cctv":false,"managerTel":"0547906602","source":"public","category":"public"},{"id":"202452600000100063","name":"울릉도서관 화장실","lat":37.496026,"lng":130.90399,"roadAddr":"경상북도 울릉군 울릉읍 봉래길 128-10, 울릉공동도서관","jibunAddr":"경상북도 울릉군 울릉읍 저동리 440 울릉공동도서관","openHours":"09:00~21:00","maleToilets":9,"femaleToilets":2,"disabled":false,"diaperTable":false,"emergencyBell":false,"cctv":true,"managerTel":"0547912294","source":"public","category":"public"},{"id":"202452600000100009","name":"도동 까끼등 화장실","lat":37.486851,"lng":130.892696,"roadAddr":"경상북도 울릉군 울릉읍 도동9길 150-15","jibunAddr":"경상북도 울릉군 울릉읍 도동리 519-3","openHours":"연중무휴","maleToilets":3,"femaleToilets":2,"disabled":false,"diaperTable":false,"emergencyBell":true,"cctv":false,"managerTel":"0547906602","source":"public","category":"public"},{"id":"202452600000100013","name":"저동 내수전전망대","lat":37.512963,"lng":130.9058,"jibunAddr":"경상북도 울릉군 울릉읍 저동리 303","openHours":"연중무휴","maleToilets":3,"femaleToilets":2,"disabled":false,"diaperTable":false,"emergencyBell":true,"cctv":false,"managerTel":"0547906602","source":"public","category":"public"},{"id":"202452600000100002","name":"도동3리 수협어판장","lat":37.492125,"lng":130.910289,"roadAddr":"경상북도 울릉군 울릉읍 봉래1길 6","jibunAddr":"경상북도 울릉군 울릉읍 도동리 300-13","openHours":"연중무휴","maleToilets":7,"femaleToilets":4,"disabled":false,"diaperTable":false,"emergencyBell":true,"cctv":false,"managerTel":"0547906602","source":"public","category":"public"},{"id":"202452600000100004","name":"도동3리 저동시장안","lat":37.492782,"lng":130.909534,"roadAddr":"경상북도 울릉군 울릉읍 봉래2길 12-20","jibunAddr":"경상북도 울릉군 울릉읍 도동리 307-2","openHours":"연중무휴","maleToilets":3,"femaleToilets":2,"disabled":false,"diaperTable":false,"emergencyBell":true,"cctv":false,"managerTel":"0547906602","source":"public","category":"public"},{"id":"202452600000100006","name":"저동 여객선 터미널 옆","lat":37.495742,"lng":130.90965,"roadAddr":"경상북도 울릉군 울릉읍 울릉순환로 171","jibunAddr":"경상북도 울릉군 울릉읍 저동리 48-7","openHours":"연중무휴","maleToilets":4,"femaleToilets":4,"disabled":true,"diaperTable":false,"emergencyBell":true,"cctv":false,"managerTel":"0547906602","source":"public","category":"public"},{"id":"202452600000100050","name":"한마음회관 야외화장실","lat":37.490775,"lng":130.904957,"jibunAddr":"경상북도 울릉군 울릉읍 도동리 409","openHours":"연중무휴","maleToilets":4,"femaleToilets":3,"disabled":false,"diaperTable":false,"emergencyBell":true,"cctv":false,"managerTel":"0547906573","source":"public","category":"public"},{"id":"202452600000100036","name":"나리마을 공중화장실","lat":37.518389,"lng":130.871616,"jibunAddr":"경상북도 울릉군 북면 나리 57-3","openHours":"동절기(12월~3월) 폐쇄","maleToilets":4,"femaleToilets":4,"disabled":false,"diaperTable":false,"emergencyBell":true,"cctv":false,"managerTel":"0547906734","source":"public","category":"public"},{"id":"202452600000100048","name":"와달리 공중화장실","lat":37.523161,"lng":130.909211,"roadAddr":"경상북도 울릉군 울릉읍 울릉순환로 3891","jibunAddr":"경상북도 울릉군 울릉읍 저동리 230-4","openHours":"연중무휴","maleToilets":1,"femaleToilets":2,"disabled":true,"diaperTable":false,"emergencyBell":true,"cctv":false,"managerTel":"0547906602","source":"public","category":"public"},{"id":"202452600000100056","name":"저동항여객선터미널","lat":37.496253,"lng":130.909771,"roadAddr":"경상북도 울릉군 울릉읍 울릉순환로 165","jibunAddr":"경상북도 울릉군 울릉읍 저동리 48-7","openHours":"연중무휴","maleToilets":3,"femaleToilets":2,"disabled":false,"diaperTable":false,"emergencyBell":true,"cctv":false,"managerTel":"0547906573","source":"public","category":"public"},{"id":"202452600000100051","name":"한마음회관","lat":37.490627,"lng":130.904983,"roadAddr":"경상북도 울릉군 울릉읍 울릉순환로 286","jibunAddr":"경상북도 울릉군 울릉읍 도동리 408","openHours":"연중무휴","maleToilets":1,"femaleToilets":1,"disabled":false,"diaperTable":false,"emergencyBell":true,"cctv":false,"managerTel":"0547906573","source":"public","category":"public"},{"id":"202452600000100067","name":"봉래폭포 관리사무소","lat":37.496867,"lng":130.892378,"jibunAddr":"경상북도 울릉군 울릉읍 도동리 665","openHours":"연중무휴","maleToilets":3,"femaleToilets":3,"disabled":true,"diaperTable":false,"emergencyBell":true,"cctv":false,"source":"public","category":"public"}]